TimeStamp (UTC)," ""TriggerID"""," ""Latitude"""," ""Longitude"""," ""Altitude (Meter AGL)""",Gimbal Roll," ""Gimbal Pitch"""," ""Gimbal Yaw"""," ""Drone Yaw"""," ""Combined Yaw""",HCHO (ppm),CO2 (ppm),TVOC (ppb),NO2 (ppm),C2H5OH (ppm),VOC (ppm),CO (ppm),Temp (Celcius),Pressure (pa),Altitude (meter)
UTC 221221 124658 5 9 ,1,53.32789993,5.934307575,0.16,0,0,0,339.07,339.07,0.01,623,33,63,330,83,144,10.44,100802,58.34
UTC 221221 124659 5 9 ,2,53.32789993,5.934309006,0.78,0,0,0,339.23,339.23,0.01,623,33,62,330,83,144,10.42,100772,66.7
UTC 221221 124659 5 9 ,3,53.32790375,5.934310436,1.14,0,0,0,338.75,338.75,0.01,589,28,63,330,83,144,10.4,100755,66.7
UTC 221221 124701 5 9 ,4,53.32790375,5.93431139,2.57,0,0,0,338.01,338.01,0.01,575,26,62,330,83,143,10.36,100737,66.7
UTC 221221 124702 5 9 ,5,53.32790375,5.934311867,5.78,0,0,0,338.9,338.9,0.01,543,21,61,330,83,143,10.33,100707,66.7
UTC 221221 124703 5 9 ,6,53.32790756,5.934311867,8.91,0,0,0,338.48,338.48,0.01,534,20,61,329,83,143,10.28,100650,75.07
UTC 221221 124704 5 9 ,7,53.32790756,5.934313297,11.99,0,0,0,338.42,338.42,0.01,537,20,59,329,83,142,10.2,100619,75.07
UTC 221221 124704 5 9 ,8,53.32790756,5.934313297,15.03,0,0,0,338.43,338.43,0.01,530,19,59,329,82,143,10.11,100580,83.45
UTC 221221 124704 5 9 ,9,53.32790756,5.934311867,18.07,0,0,0,338.58,338.58,0.01,506,16,59,328,83,142,10.05,100545,83.45
UTC 221221 124707 5 9 ,10,53.32790756,5.934310913,21.08,0,0,0,338.52,338.52,0.01,502,15,59,329,82,142,9.99,100512,83.45
UTC 221221 124708 5 9 ,11,53.32790375,5.934310436,24.08,0,0,0,338.65,338.65,0.01,496,14,58,330,82,142,9.96,100476,91.83
UTC 221221 124709 5 9 ,12,53.32790375,5.934310436,27.07,0,0,0,338.66,338.66,0.01,506,16,57,328,83,142,9.89,100438,91.83
UTC 221221 124710 5 9 ,13,53.32790375,5.934310913,29.3,0,0,0,338.52,338.52,0.01,506,16,57,328,82,142,9.83,100417,91.83
UTC 221221 124711 5 9 ,14,53.32790375,5.934312344,29.39,0,0,0,29.35,29.35,0.01,506,16,56,327,82,142,9.79,100418,91.83
UTC 221221 124712 5 9 ,15,53.32790375,5.934309959,29.24,0,0,0,69.1,69.1,0.01,519,18,56,329,82,141,9.73,100469,91.83
UTC 221221 124713 5 9 ,16,53.32790375,5.934311867,29.17,0,0,0,68.03,68.03,0.01,534,20,56,331,82,141,9.75,100460,91.83
UTC 221221 124714 5 9 ,17,53.32791138,5.934339523,29.12,0,0,0,68.25,68.25,0.01,543,21,56,330,82,141,9.76,100462,91.83
UTC 221221 124715 5 9 ,18,53.32791901,5.934383392,29.05,0,0,0,68.38,68.38,0.01,567,25,56,330,82,142,9.77,100460,91.83
UTC 221221 124716 5 9 ,19,53.32793427,5.934438705,29,0,0,0,68.35,68.35,0.01,555,23,55,330,82,141,9.77,100466,91.83
UTC 221221 124717 5 9 ,20,53.32794952,5.934501171,28.96,0,0,0,68.4,68.4,0.01,555,23,55,330,82,141,9.74,100464,91.83
UTC 221221 124718 5 9 ,21,53.32796478,5.934571743,28.93,0,0,0,68.74,68.74,0.01,555,23,56,330,82,141,9.73,100465,91.83
UTC 221221 124719 5 9 ,22,53.32798386,5.934644699,28.93,0,0,0,68.55,68.55,0.01,561,24,55,330,82,141,9.75,100465,91.83
UTC 221221 124720 5 9 ,23,53.32799912,5.934716225,28.91,0,0,0,68.49,68.49,0.01,575,26,55,330,81,141,9.76,100465,91.83
UTC 221221 124721 5 9 ,24,53.32801819,5.934787273,28.89,0,0,0,68.56,68.56,0.01,567,25,54,330,82,141,9.77,100465,91.83
UTC 221221 124722 5 9 ,25,53.32803345,5.934856415,28.9,0,0,0,68.5,68.5,0.01,567,25,55,330,82,141,9.8,100468,91.83
UTC 221221 124723 5 9 ,26,53.32804871,5.934925556,28.9,0,0,0,68.33,68.33,0.01,561,24,55,330,82,140,9.79,100465,91.83
UTC 221221 124724 5 9 ,27,53.32806778,5.934994221,28.88,0,0,0,68.29,68.29,0.01,567,25,55,330,81,140,9.79,100469,91.83
UTC 221221 124725 5 9 ,28,53.32808304,5.935064316,28.88,0,0,0,68.32,68.32,0.01,575,26,55,330,81,141,9.79,100473,91.83
UTC 221221 124726 5 9 ,29,53.32810211,5.935135365,28.87,0,0,0,68.82,68.82,0.01,572,26,54,330,82,141,9.76,100473,91.83
UTC 221221 124727 5 9 ,30,53.32811737,5.935205936,28.89,0,0,0,68.64,68.64,0.01,561,24,54,330,81,141,9.77,100474,91.83
UTC 221221 124728 5 9 ,31,53.32813263,5.935276032,28.89,0,0,0,68.66,68.66,0.01,555,23,53,330,81,140,9.75,100469,91.83
UTC 221221 124729 5 9 ,32,53.3281517,5.935345173,28.88,0,0,0,68.56,68.56,0.01,555,23,53,329,81,141,9.71,100471,91.83
UTC 221221 124730 5 9 ,33,53.32816696,5.935414791,28.89,0,0,0,68.49,68.49,0.01,555,23,54,329,81,141,9.64,100471,91.83
UTC 221221 124731 5 9 ,34,53.32818222,5.93548584,28.9,0,0,0,68.66,68.66,0.01,572,26,53,330,81,140,9.62,100467,91.83
UTC 221221 124732 5 9 ,35,53.32820129,5.935556889,28.92,0,0,0,68.85,68.85,0.01,555,23,53,330,81,141,9.61,100466,91.83
UTC 221221 124733 5 9 ,36,53.32821655,5.935622215,28.92,0,0,0,69.41,69.41,0.01,552,23,53,330,81,141,9.61,100474,91.83
UTC 221221 124734 5 9 ,37,53.32822418,5.935660362,28.91,0,0,0,69.92,69.92,0.01,552,23,53,329,81,141,9.6,100469,91.83
UTC 221221 124735 5 9 ,38,53.32822418,5.93566227,28.91,0,0,0,354.86,354.86,0.01,552,23,52,330,81,140,9.58,100410,91.83
UTC 221221 124736 5 9 ,39,53.32822418,5.935657024,28.92,0,0,0,269.08,269.08,0.01,555,23,53,331,81,140,9.56,100402,91.83
UTC 221221 124737 5 9 ,40,53.32822037,5.935652733,28.87,0,0,0,258.3,258.3,0.01,543,21,52,330,81,140,9.44,100402,91.83
UTC 221221 124738 5 9 ,41,53.32822037,5.935636997,28.91,0,0,0,257.46,257.46,0.01,537,20,52,330,81,141,9.34,100410,91.83
UTC 221221 124739 5 9 ,42,53.32821274,5.935605526,28.89,0,0,0,257.7,257.7,0.01,526,19,52,330,81,141,9.19,100399,100.22
UTC 221221 124740 5 9 ,43,53.32820892,5.93555975,28.91,0,0,0,257.02,257.02,0.01,523,18,52,331,81,141,9.09,100409,91.83
UTC 221221 124741 5 9 ,44,53.32820129,5.935498714,28.96,0,0,0,257.17,257.17,0.01,530,19,52,331,81,141,9.03,100393,100.22
UTC 221221 124742 5 9 ,45,53.32818985,5.935427189,28.97,0,0,0,257.57,257.57,0.01,523,18,52,330,81,141,8.93,100396,100.22
UTC 221221 124743 5 9 ,46,53.32817841,5.935349464,28.98,0,0,0,257.23,257.23,0.01,514,17,52,330,81,141,8.85,100386,100.22
UTC 221221 124744 5 9 ,47,53.32817078,5.935274124,28.98,0,0,0,257.05,257.05,0.01,506,16,51,330,81,140,8.74,100389,100.22
UTC 221221 124745 5 9 ,48,53.32815933,5.935199738,29,0,0,0,256.91,256.91,0.01,506,16,51,331,81,141,8.64,100391,100.22
UTC 221221 124746 5 9 ,49,53.32814789,5.935126305,29,0,0,0,256.96,256.96,0.01,514,17,51,331,81,141,8.57,100392,100.22
UTC 221221 124747 5 9 ,50,53.32814026,5.935052872,29.01,0,0,0,256.7,256.7,0.01,519,18,51,330,81,140,8.5,100387,100.22
UTC 221221 124748 5 9 ,51,53.32812881,5.934979439,29.01,0,0,0,256.63,256.63,0.01,498,14,51,331,80,140,8.41,100394,100.22
UTC 221221 124749 5 9 ,52,53.32811737,5.934904575,29.01,0,0,0,256.61,256.61,0.01,496,14,51,331,81,140,8.35,100396,100.22
UTC 221221 124750 5 9 ,53,53.32810974,5.934831619,29.01,0,0,0,256.5,256.5,0.01,492,14,51,331,80,140,8.29,100400,91.83
UTC 221221 124751 5 9 ,54,53.3280983,5.93475914,29.02,0,0,0,257.11,257.11,0.01,496,14,50,331,81,140,8.22,100388,100.22
UTC 221221 124752 5 9 ,55,53.32809067,5.934686661,29.01,0,0,0,257.71,257.71,0.01,506,16,50,331,80,140,8.14,100382,100.22
UTC 221221 124753 5 9 ,56,53.32808304,5.934614658,29.01,0,0,0,257.45,257.45,0.01,492,14,50,332,80,140,8.09,100380,100.22
UTC 221221 124754 5 9 ,57,53.32807159,5.934541702,29.04,0,0,0,257.7,257.7,0.01,498,14,50,330,80,140,8.03,100372,100.22
UTC 221221 124755 5 9 ,58,53.32806396,5.934468746,29.03,0,0,0,257.68,257.68,0.01,496,14,50,332,81,140,7.99,100382,100.22
UTC 221221 124756 5 9 ,59,53.32805252,5.934392452,29.06,0,0,0,257.38,257.38,0.01,486,13,49,332,81,140,7.94,100388,100.22
UTC 221221 124757 5 9 ,60,53.32804108,5.934319019,29.09,0,0,0,256.96,256.96,0.01,486,13,49,331,81,140,7.91,100385,100.22
UTC 221221 124758 5 9 ,61,53.32803345,5.934244633,29.11,0,0,0,257.41,257.41,0.01,492,14,49,331,80,140,7.89,100380,100.22
UTC 221221 124758 5 9 ,62,53.32802582,5.934171677,29.12,0,0,0,257.79,257.79,0.01,498,14,49,332,80,140,7.86,100380,100.22
UTC 221221 124800 5 9 ,63,53.32801437,5.934098721,29.12,0,0,0,257.38,257.38,0.01,502,15,49,331,81,140,7.85,100371,100.22
UTC 221221 124800 5 9 ,64,53.32800293,5.934025765,29.09,0,0,0,257.04,257.04,0.01,482,12,49,332,80,140,7.81,100378,100.22
UTC 221221 124802 5 9 ,65,53.3279953,5.933953285,29.07,0,0,0,257.46,257.46,0.01,486,13,49,332,80,140,7.78,100364,100.22
UTC 221221 124803 5 9 ,66,53.32798386,5.933879852,29.08,0,0,0,257.48,257.48,0.01,486,13,49,332,80,139,7.75,100369,100.22
UTC 221221 124804 5 9 ,67,53.32797623,5.933805943,29.11,0,0,0,257.28,257.28,0.01,492,14,49,333,80,139,7.73,100377,100.22
UTC 221221 124805 5 9 ,68,53.32796478,5.933732987,29.12,0,0,0,257.4,257.4,0.01,502,15,48,333,80,140,7.71,100381,100.22
UTC 221221 124806 5 9 ,69,53.32795334,5.9336586,29.14,0,0,0,257.07,257.07,0.01,492,14,48,333,80,140,7.71,100383,100.22
UTC 221221 124807 5 9 ,70,53.32794571,5.93358469,29.14,0,0,0,257.07,257.07,0.01,492,14,49,333,80,140,7.71,100383,100.22
UTC 221221 124808 5 9 ,71,53.32793427,5.933511257,29.16,0,0,0,257.23,257.23,0.01,496,14,48,333,80,140,7.7,100385,100.22
UTC 221221 124809 5 9 ,72,53.32792664,5.933437824,29.16,0,0,0,257.22,257.22,0.01,492,14,48,333,80,140,7.69,100382,100.22
UTC 221221 124810 5 9 ,73,53.32791519,5.933365822,29.18,0,0,0,256.76,256.76,0.01,486,13,49,334,80,140,7.67,100374,100.22
UTC 221221 124811 5 9 ,74,53.32790375,5.933292389,29.21,0,0,0,256.62,256.62,0.01,486,13,48,332,80,139,7.63,100385,100.22
UTC 221221 124812 5 9 ,75,53.32789612,5.93321991,29.22,0,0,0,256.7,256.7,0.01,482,12,48,334,80,141,7.61,100379,100.22
UTC 221221 124813 5 9 ,76,53.32788467,5.933145046,29.23,0,0,0,256.89,256.89,0.01,482,12,48,333,81,139,7.59,100381,100.22
UTC 221221 124813 5 9 ,77,53.32787704,5.93307209,29.22,0,0,0,257.64,257.64,0.01,482,12,48,333,80,140,7.56,100376,100.22
UTC 221221 124815 5 9 ,78,53.3278656,5.932999134,29.19,0,0,0,257.91,257.91,0.01,486,13,48,333,80,140,7.54,100364,100.22
UTC 221221 124816 5 9 ,79,53.32785797,5.932925701,29.24,0,0,0,257.69,257.69,0.01,480,12,48,334,80,139,7.52,100371,100.22
UTC 221221 124817 5 9 ,80,53.32785034,5.932852268,29.22,0,0,0,257.62,257.62,0.01,460,9,48,333,80,140,7.49,100367,100.22
UTC 221221 124818 5 9 ,81,53.3278389,5.932779312,29.24,0,0,0,257.44,257.44,0.01,475,11,47,333,80,139,7.49,100366,100.22
UTC 221221 124818 5 9 ,82,53.32782745,5.932704449,29.24,0,0,0,257.7,257.7,0.01,477,11,47,333,79,140,7.47,100359,100.22
UTC 221221 124820 5 9 ,83,53.32781982,5.932630539,29.28,0,0,0,257.61,257.61,0.01,486,13,47,333,79,139,7.47,100372,100.22
UTC 221221 124821 5 9 ,84,53.32780838,5.932556629,29.28,0,0,0,257.4,257.4,0.01,496,14,47,334,80,140,7.47,100376,100.22
UTC 221221 124822 5 9 ,85,53.32780075,5.932483196,29.27,0,0,0,257.89,257.89,0.01,482,12,48,333,80,139,7.47,100362,100.22
UTC 221221 124823 5 9 ,86,53.32778931,5.932410717,29.26,0,0,0,257.9,257.9,0.01,480,12,47,334,80,139,7.46,100360,100.22
UTC 221221 124824 5 9 ,87,53.32778168,5.932338715,29.24,0,0,0,258.3,258.3,0.01,480,12,47,333,80,139,7.45,100356,100.22
UTC 221221 124825 5 9 ,88,53.32777023,5.932265759,29.26,0,0,0,257.74,257.74,0.01,480,12,47,335,80,139,7.44,100361,100.22
UTC 221221 124826 5 9 ,89,53.3277626,5.932192802,29.29,0,0,0,257.49,257.49,0.01,482,12,47,334,79,140,7.42,100357,100.22
UTC 221221 124827 5 9 ,90,53.32775116,5.932119846,29.29,0,0,0,257.93,257.93,0.01,475,11,47,334,80,139,7.4,100349,100.22
UTC 221221 124828 5 9 ,91,53.32773972,5.932046413,29.31,0,0,0,257.57,257.57,0.01,475,11,47,334,79,140,7.38,100356,100.22
UTC 221221 124829 5 9 ,92,53.32773209,5.931972504,29.37,0,0,0,256.62,256.62,0.01,470,10,47,334,79,139,7.37,100370,100.22
UTC 221221 124830 5 9 ,93,53.32772064,5.931898594,29.37,0,0,0,256.81,256.81,0.01,477,11,47,332,79,140,7.37,100377,100.22
UTC 221221 124831 5 9 ,94,53.3277092,5.931824684,29.38,0,0,0,256.59,256.59,0.01,492,14,47,335,80,140,7.37,100377,100.22
UTC 221221 124832 5 9 ,95,53.32769775,5.931749821,29.4,0,0,0,257.38,257.38,0.01,480,12,47,334,79,139,7.35,100366,100.22
UTC 221221 124833 5 9 ,96,53.32769012,5.931673527,29.35,0,0,0,258.35,258.35,0.01,480,12,47,334,79,140,7.34,100358,100.22
UTC 221221 124834 5 9 ,97,53.3276825,5.931600571,29.33,0,0,0,258.03,258.03,0.01,477,11,47,335,79,140,7.34,100368,100.22
UTC 221221 124835 5 9 ,98,53.32767105,5.931529045,29.36,0,0,0,257.89,257.89,0.01,482,12,47,335,80,139,7.34,100370,100.22
UTC 221221 124836 5 9 ,99,53.32766342,5.931452751,29.37,0,0,0,257.69,257.69,0.01,492,14,47,334,79,139,7.35,100365,100.22
UTC 221221 124837 5 9 ,100,53.32765198,5.931379795,29.36,0,0,0,258.07,258.07,0.01,480,12,46,333,79,139,7.34,100363,100.22
UTC 221221 124838 5 9 ,101,53.32764435,5.931306362,29.38,0,0,0,256.98,256.98,0.01,480,12,47,335,79,139,7.34,100370,100.22
UTC 221221 124839 5 9 ,102,53.32763672,5.931240559,29.43,0,0,0,263.56,263.56,0.01,486,13,47,335,79,140,7.35,100380,100.22
UTC 221221 124840 5 9 ,103,53.32764435,5.931175232,29.4,0,0,0,296.63,296.63,0.01,496,14,47,336,79,140,7.38,100405,91.83
UTC 221221 124841 5 9 ,104,53.32767487,5.931128979,29.27,0,0,0,330.17,330.17,0.01,514,17,47,335,80,140,7.43,100419,91.83
UTC 221221 124842 5 9 ,105,53.32771301,5.931110859,29.1,0,0,0,346.12,346.12,0.01,530,19,47,335,79,140,7.51,100424,91.83
UTC 221221 124843 5 9 ,106,53.32775116,5.931110859,29,0,0,0,2.65,2.65,0.01,498,14,47,334,80,141,7.56,100432,91.83
UTC 221221 124844 5 9 ,107,53.32778931,5.931136131,28.91,0,0,0,31.42,31.42,0.01,523,18,48,335,79,141,7.62,100443,91.83
UTC 221221 124845 5 9 ,108,53.32781219,5.931181908,28.88,0,0,0,58.48,58.48,0.01,530,19,47,334,79,141,7.66,100462,91.83
UTC 221221 124846 5 9 ,109,53.32782364,5.931238174,28.89,0,0,0,75.64,75.64,0.01,534,20,47,335,80,140,7.73,100466,91.83
UTC 221221 124847 5 9 ,110,53.32782745,5.931298733,28.91,0,0,0,77.13,77.13,0.01,552,23,47,335,79,140,7.77,100468,91.83
UTC 221221 124848 5 9 ,111,53.32783508,5.931365967,28.91,0,0,0,76.99,76.99,0.01,537,20,48,335,79,140,7.84,100468,91.83
UTC 221221 124848 5 9 ,112,53.32784271,5.9314394,28.91,0,0,0,77.27,77.27,0.01,537,20,48,334,79,140,7.91,100467,91.83
UTC 221221 124848 5 9 ,113,53.32785416,5.931515217,28.93,0,0,0,77.36,77.36,0.01,543,21,48,334,79,140,7.97,100460,91.83
UTC 221221 124848 5 9 ,114,53.32786179,5.931591511,28.93,0,0,0,77.44,77.44,0.01,548,22,48,334,79,140,8.03,100463,91.83
UTC 221221 124852 5 9 ,115,53.32787323,5.931666374,28.95,0,0,0,77.58,77.58,0.01,567,25,48,334,79,140,8.07,100464,91.83
UTC 221221 124852 5 9 ,116,53.32788086,5.931738854,28.94,0,0,0,77.45,77.45,0.01,552,23,49,335,79,140,8.11,100460,91.83
UTC 221221 124852 5 9 ,117,53.3278923,5.931812763,28.95,0,0,0,77.64,77.64,0.01,552,23,48,335,79,140,8.15,100461,91.83
UTC 221221 124852 5 9 ,118,53.32790375,5.931885243,28.95,0,0,0,77.57,77.57,0.01,548,22,49,334,79,139,8.2,100459,91.83
UTC 221221 124856 5 9 ,119,53.32791138,5.931959629,28.94,0,0,0,77.34,77.34,0.01,552,23,49,335,79,140,8.25,100460,91.83
UTC 221221 124857 5 9 ,120,53.32792282,5.932030201,28.93,0,0,0,77.31,77.31,0.01,567,25,48,334,79,140,8.28,100460,91.83
UTC 221221 124858 5 9 ,121,53.32793045,5.93210268,28.93,0,0,0,77.52,77.52,0.01,561,24,49,335,79,140,8.3,100464,91.83
UTC 221221 124859 5 9 ,122,53.32794189,5.93217516,28.93,0,0,0,77.27,77.27,0.01,561,24,49,334,79,139,8.32,100462,91.83
UTC 221221 124900 5 9 ,123,53.32794952,5.932249546,28.95,0,0,0,77.21,77.21,0.01,561,24,49,335,79,140,8.34,100461,91.83
UTC 221221 124901 5 9 ,124,53.32796097,5.932322979,28.95,0,0,0,77.19,77.19,0.01,561,24,49,334,79,140,8.37,100467,91.83
UTC 221221 124902 5 9 ,125,53.32797241,5.932397366,28.97,0,0,0,77.17,77.17,0.01,572,26,49,334,79,140,8.4,100464,91.83
UTC 221221 124903 5 9 ,126,53.32798004,5.932470799,28.97,0,0,0,77.49,77.49,0.01,572,26,49,334,79,139,8.42,100459,91.83
UTC 221221 124904 5 9 ,127,53.32799149,5.932544231,28.98,0,0,0,77.39,77.39,0.01,561,24,48,334,79,140,8.42,100454,91.83
UTC 221221 124905 5 9 ,128,53.32799912,5.932619572,28.98,0,0,0,77.35,77.35,0.01,567,25,49,334,79,140,8.44,100464,91.83
UTC 221221 124906 5 9 ,129,53.32801056,5.932694435,28.99,0,0,0,77.54,77.54,0.01,567,25,48,334,79,140,8.48,100461,91.83
UTC 221221 124907 5 9 ,130,53.32801819,5.932768345,28.98,0,0,0,77.33,77.33,0.01,572,26,48,333,78,140,8.5,100461,91.83
UTC 221221 124908 5 9 ,131,53.32802963,5.932842255,29,0,0,0,77.22,77.22,0.01,580,27,48,334,78,139,8.52,100461,91.83
UTC 221221 124909 5 9 ,132,53.32804108,5.93291378,29,0,0,0,77.22,77.22,0.01,561,24,49,334,78,139,8.52,100457,91.83
UTC 221221 124910 5 9 ,133,53.32805252,5.932986736,29,0,0,0,77.35,77.35,0.01,561,24,48,334,79,140,8.52,100455,91.83
UTC 221221 124911 5 9 ,134,53.32806015,5.933061123,28.98,0,0,0,77.52,77.52,0.01,561,24,49,333,79,140,8.55,100465,91.83
UTC 221221 124912 5 9 ,135,53.32806778,5.933134556,28.99,0,0,0,77.59,77.59,0.01,561,24,49,334,79,139,8.58,100466,91.83
UTC 221221 124913 5 9 ,136,53.32807922,5.933208466,29,0,0,0,77.3,77.3,0.01,575,26,49,334,79,139,8.6,100466,91.83
UTC 221221 124914 5 9 ,137,53.32809067,5.933282375,29.02,0,0,0,77.43,77.43,0.01,555,23,49,334,79,140,8.62,100462,91.83
UTC 221221 124915 5 9 ,138,53.3280983,5.933353901,29.02,0,0,0,77.54,77.54,0.01,555,23,48,333,79,139,8.63,100466,91.83
UTC 221221 124916 5 9 ,139,53.32810974,5.933427334,29.03,0,0,0,77.66,77.66,0.01,567,25,48,333,79,139,8.65,100460,91.83
UTC 221221 124917 5 9 ,140,53.32811737,5.933499813,29.04,0,0,0,77.03,77.03,0.01,555,23,48,333,79,139,8.63,100463,91.83
UTC 221221 124918 5 9 ,141,53.32812881,5.933575153,29.05,0,0,0,77.39,77.39,0.01,561,24,48,333,79,139,8.64,100461,91.83
UTC 221221 124918 5 9 ,142,53.32813644,5.933648109,29.03,0,0,0,77.45,77.45,0.01,561,24,48,333,78,139,8.66,100463,91.83
UTC 221221 124920 5 9 ,143,53.32814789,5.933722973,29.03,0,0,0,77.36,77.36,0.01,572,26,48,333,79,139,8.67,100460,91.83
UTC 221221 124920 5 9 ,144,53.32815552,5.933795452,29.05,0,0,0,77.42,77.42,0.01,567,25,48,334,79,138,8.68,100464,91.83
UTC 221221 124920 5 9 ,145,53.32816696,5.933869362,29.05,0,0,0,77.55,77.55,0.01,552,23,48,333,78,139,8.69,100461,91.83
UTC 221221 124920 5 9 ,146,53.32817841,5.933942795,29.06,0,0,0,77.4,77.4,0.01,555,23,48,333,79,138,8.7,100461,91.83
UTC 221221 124924 5 9 ,147,53.32818604,5.934015751,29.06,0,0,0,77.51,77.51,0.01,555,23,48,334,78,139,8.72,100463,91.83
UTC 221221 124924 5 9 ,148,53.32819748,5.934089184,29.04,0,0,0,77.69,77.69,0.01,561,24,48,334,79,140,8.73,100466,91.83
UTC 221221 124924 5 9 ,149,53.32820511,5.934163094,29.06,0,0,0,77.71,77.71,0.01,567,25,48,333,79,140,8.75,100463,91.83
UTC 221221 124924 5 9 ,150,53.32821655,5.93423605,29.08,0,0,0,77.47,77.47,0.01,555,23,48,334,78,139,8.76,100462,91.83
UTC 221221 124928 5 9 ,151,53.32822418,5.934310913,29.06,0,0,0,77.35,77.35,0.01,552,23,47,333,78,139,8.77,100466,91.83
UTC 221221 124929 5 9 ,152,53.32823563,5.934382439,29.07,0,0,0,77.78,77.78,0.01,552,23,47,333,78,139,8.77,100468,91.83
UTC 221221 124930 5 9 ,153,53.32824707,5.934454441,29.05,0,0,0,77.3,77.3,0.01,555,23,47,332,78,138,8.77,100473,91.83
UTC 221221 124931 5 9 ,154,53.3282547,5.934527874,29.05,0,0,0,77.26,77.26,0.01,567,25,48,333,78,139,8.77,100472,91.83
UTC 221221 124932 5 9 ,155,53.32826614,5.93460083,29.05,0,0,0,77.49,77.49,0.01,548,22,48,333,78,139,8.77,100469,91.83
UTC 221221 124933 5 9 ,156,53.32827759,5.93467617,29.06,0,0,0,77.49,77.49,0.01,548,22,47,333,78,139,8.77,100467,91.83
UTC 221221 124934 5 9 ,157,53.32828522,5.934749603,29.05,0,0,0,77.67,77.67,0.01,543,21,47,332,79,139,8.77,100470,91.83
UTC 221221 124935 5 9 ,158,53.32829285,5.934823513,29.07,0,0,0,77.53,77.53,0.01,548,22,47,333,78,139,8.77,100465,91.83
UTC 221221 124936 5 9 ,159,53.32830429,5.934896946,29.08,0,0,0,77.58,77.58,0.01,561,24,47,333,78,139,8.78,100464,91.83
UTC 221221 124937 5 9 ,160,53.32831192,5.934970856,29.08,0,0,0,77.5,77.5,0.01,552,23,47,333,79,139,8.78,100464,91.83
UTC 221221 124938 5 9 ,161,53.32832336,5.935044289,29.09,0,0,0,77.67,77.67,0.01,548,22,47,333,78,139,8.79,100463,91.83
UTC 221221 124939 5 9 ,162,53.32833099,5.935116291,29.08,0,0,0,77.29,77.29,0.01,555,23,47,333,78,139,8.79,100464,91.83
UTC 221221 124940 5 9 ,163,53.32834244,5.935189247,29.09,0,0,0,77.05,77.05,0.01,555,23,47,333,78,138,8.77,100467,91.83
UTC 221221 124941 5 9 ,164,53.32835388,5.935263634,29.08,0,0,0,77.25,77.25,0.01,567,25,47,333,79,139,8.77,100468,91.83
UTC 221221 124942 5 9 ,165,53.32836151,5.935337067,29.09,0,0,0,77.51,77.51,0.01,561,24,47,333,78,139,8.77,100469,91.83
UTC 221221 124943 5 9 ,166,53.32837296,5.935410976,29.09,0,0,0,77.77,77.77,0.01,552,23,48,333,78,139,8.76,100472,91.83
UTC 221221 124944 5 9 ,167,53.3283844,5.935475826,29.11,0,0,0,73.73,73.73,0.01,548,22,47,333,79,139,8.74,100466,91.83
UTC 221221 124945 5 9 ,168,53.32840347,5.935530663,29.15,0,0,0,43.98,43.98,0.01,555,23,48,334,78,140,8.74,100462,91.83
UTC 221221 124946 5 9 ,169,53.32844543,5.935557365,29.25,0,0,0,9.17,9.17,0.01,567,25,47,331,79,140,8.73,100439,91.83
UTC 221221 124947 5 9 ,170,53.32848358,5.935549259,29.41,0,0,0,346.89,346.89,0.01,561,24,48,334,78,140,8.73,100434,91.83
UTC 221221 124948 5 9 ,171,53.32852173,5.935525417,29.54,0,0,0,335.29,335.29,0.01,548,22,48,334,78,140,8.72,100419,91.83
UTC 221221 124949 5 9 ,172,53.32854843,5.935476303,29.63,0,0,0,302.87,302.87,0.01,555,23,48,334,78,140,8.74,100406,91.83
UTC 221221 124950 5 9 ,173,53.32855988,5.935415745,29.64,0,0,0,275.1,275.1,0.01,543,21,48,333,79,140,8.65,100392,100.22
UTC 221221 124951 5 9 ,174,53.32855606,5.935359478,29.63,0,0,0,259.12,259.12,0.01,530,19,48,333,79,139,8.55,100378,100.22
UTC 221221 124952 5 9 ,175,53.32854462,5.93529892,29.64,0,0,0,257.88,257.88,0.01,537,20,48,333,78,140,8.44,100376,100.22
UTC 221221 124953 5 9 ,176,53.32853699,5.935235024,29.65,0,0,0,257.96,257.96,0.01,523,18,48,334,78,139,8.36,100385,100.22
UTC 221221 124954 5 9 ,177,53.32852554,5.935163975,29.61,0,0,0,257.22,257.22,0,514,17,47,333,78,140,8.29,100385,100.22
UTC 221221 124955 5 9 ,178,53.3285141,5.935090065,29.63,0,0,0,257.03,257.03,0,506,16,47,332,78,140,8.22,100385,100.22
UTC 221221 124956 5 9 ,179,53.32850266,5.935013294,29.62,0,0,0,257.39,257.39,0,514,17,47,333,78,139,8.15,100372,100.22
UTC 221221 124957 5 9 ,180,53.32849503,5.934939385,29.6,0,0,0,256.94,256.94,0,519,18,47,333,78,140,8.08,100385,100.22
UTC 221221 124958 5 9 ,181,53.32848358,5.934866905,29.58,0,0,0,257.04,257.04,0,502,15,47,333,78,140,8.03,100379,100.22
UTC 221221 124959 5 9 ,182,53.32847595,5.934792042,29.55,0,0,0,257.07,257.07,0,496,14,47,333,78,140,7.97,100372,100.22
UTC 221221 125000 5 9 ,183,53.32846451,5.934720993,29.53,0,0,0,257.35,257.35,0,496,14,47,333,78,139,7.91,100375,100.22
UTC 221221 125001 5 9 ,184,53.32845688,5.93464613,29.52,0,0,0,256.96,256.96,0,496,14,47,333,78,140,7.85,100376,100.22
UTC 221221 125001 5 9 ,185,53.32844543,5.934574604,29.52,0,0,0,256.88,256.88,0,486,13,46,333,78,139,7.8,100384,100.22
UTC 221221 125003 5 9 ,186,53.32843399,5.934500694,29.54,0,0,0,257.11,257.11,0,498,14,46,333,78,139,7.75,100374,100.22
UTC 221221 125004 5 9 ,187,53.32842636,5.934426785,29.5,0,0,0,257.1,257.1,0,486,13,47,334,78,139,7.71,100373,100.22
UTC 221221 125004 5 9 ,188,53.32841492,5.934353352,29.48,0,0,0,257.13,257.13,0,486,13,46,333,78,140,7.66,100377,100.22
UTC 221221 125006 5 9 ,189,53.32840729,5.934278011,29.47,0,0,0,257.3,257.3,0,480,12,46,333,78,139,7.62,100376,100.22
UTC 221221 125006 5 9 ,190,53.32839584,5.934206486,29.46,0,0,0,256.8,256.8,0,486,13,46,334,78,139,7.59,100381,100.22
UTC 221221 125008 5 9 ,191,53.3283844,5.934133053,29.48,0,0,0,256.71,256.71,0,482,12,46,334,78,138,7.56,100387,100.22
UTC 221221 125008 5 9 ,192,53.32837677,5.934056759,29.46,0,0,0,256.89,256.89,0,480,12,46,334,77,139,7.52,100388,100.22
UTC 221221 125010 5 9 ,193,53.32836533,5.933983803,29.46,0,0,0,256.57,256.57,0,463,9,46,334,78,140,7.49,100393,100.22
UTC 221221 125011 5 9 ,194,53.32835388,5.933909416,29.43,0,0,0,257.03,257.03,0,477,11,47,333,77,140,7.46,100387,100.22
UTC 221221 125012 5 9 ,195,53.32834625,5.933835983,29.4,0,0,0,257.22,257.22,0,486,13,46,334,78,139,7.44,100388,100.22
UTC 221221 125013 5 9 ,196,53.32833481,5.93376255,29.4,0,0,0,256.9,256.9,0.01,498,14,46,333,78,140,7.41,100388,100.22
UTC 221221 125014 5 9 ,197,53.32832718,5.933688641,29.39,0,0,0,256.72,256.72,0.01,480,12,46,334,78,139,7.4,100398,100.22
UTC 221221 125015 5 9 ,198,53.32831573,5.933615685,29.37,0,0,0,256.89,256.89,0.01,477,11,46,334,78,139,7.39,100387,100.22
UTC 221221 125016 5 9 ,199,53.32830811,5.933545589,29.33,0,0,0,257.61,257.61,0.01,482,12,46,334,78,139,7.36,100381,100.22
UTC 221221 125017 5 9 ,200,53.32830048,5.933470249,29.32,0,0,0,257.83,257.83,0.01,482,12,46,332,78,139,7.35,100377,100.22
UTC 221221 125018 5 9 ,201,53.32828903,5.933397293,29.31,0,0,0,258.16,258.16,0.01,496,14,46,334,78,140,7.34,100376,100.22
UTC 221221 125019 5 9 ,202,53.3282814,5.93332386,29.29,0,0,0,257.91,257.91,0.01,482,12,46,334,78,140,7.33,100371,100.22
UTC 221221 125020 5 9 ,203,53.32826996,5.933250904,29.32,0,0,0,257.75,257.75,0.01,482,12,46,334,77,139,7.33,100367,100.22
UTC 221221 125021 5 9 ,204,53.32825851,5.933176518,29.31,0,0,0,257.31,257.31,0.01,482,12,46,334,77,140,7.33,100379,100.22
UTC 221221 125022 5 9 ,205,53.32825089,5.933103561,29.28,0,0,0,257.29,257.29,0.01,486,13,46,334,78,139,7.31,100376,100.22
UTC 221221 125023 5 9 ,206,53.32823944,5.933029652,29.28,0,0,0,256.92,256.92,0.01,496,14,46,334,77,140,7.31,100383,100.22
UTC 221221 125024 5 9 ,207,53.32823181,5.932956219,29.24,0,0,0,257.07,257.07,0.01,486,13,46,335,78,139,7.3,100380,100.22
UTC 221221 125025 5 9 ,208,53.32822037,5.932884216,29.23,0,0,0,257.04,257.04,0.01,480,12,46,334,78,139,7.3,100386,100.22
UTC 221221 125026 5 9 ,209,53.32820892,5.93280983,29.2,0,0,0,257.72,257.72,0.01,482,12,46,334,77,139,7.29,100384,100.22
UTC 221221 125027 5 9 ,210,53.32820129,5.932734013,29.2,0,0,0,257.05,257.05,0.01,486,13,45,335,78,139,7.31,100386,100.22
UTC 221221 125028 5 9 ,211,53.32818985,5.93266201,29.21,0,0,0,256.86,256.86,0.01,492,14,45,334,78,139,7.31,100388,100.22
UTC 221221 125029 5 9 ,212,53.32818222,5.932586193,29.18,0,0,0,257.16,257.16,0.01,498,14,45,333,78,139,7.31,100381,100.22
UTC 221221 125030 5 9 ,213,53.32817078,5.932515621,29.16,0,0,0,257.05,257.05,0.01,486,13,45,333,77,140,7.32,100385,100.22
UTC 221221 125031 5 9 ,214,53.32816315,5.932441711,29.16,0,0,0,257.4,257.4,0.01,482,12,45,333,77,139,7.31,100385,100.22
UTC 221221 125031 5 9 ,215,53.3281517,5.932370663,29.14,0,0,0,257.24,257.24,0.01,480,12,45,334,78,139,7.31,100389,100.22
UTC 221221 125033 5 9 ,216,53.32814026,5.932295322,29.13,0,0,0,257.04,257.04,0.01,482,12,44,333,77,139,7.3,100385,100.22
UTC 221221 125033 5 9 ,217,53.32813263,5.932222843,29.13,0,0,0,256.54,256.54,0.01,496,14,45,335,77,139,7.29,100391,100.22
UTC 221221 125035 5 9 ,218,53.32812119,5.93214798,29.1,0,0,0,256.78,256.78,0.01,480,12,45,335,77,139,7.29,100390,100.22
UTC 221221 125036 5 9 ,219,53.32810974,5.932075501,29.07,0,0,0,256.73,256.73,0.01,480,12,46,334,77,139,7.27,100394,100.22
UTC 221221 125037 5 9 ,220,53.32810211,5.932001114,29.07,0,0,0,256.6,256.6,0.01,480,12,46,334,77,139,7.26,100395,100.22
UTC 221221 125038 5 9 ,221,53.32809067,5.931927681,29.08,0,0,0,256.53,256.53,0.01,482,12,45,334,78,138,7.26,100396,100.22
UTC 221221 125039 5 9 ,222,53.32808304,5.931855202,29.06,0,0,0,256.96,256.96,0.01,477,11,45,334,77,139,7.25,100392,100.22
UTC 221221 125040 5 9 ,223,53.32807159,5.93178606,29.02,0,0,0,257.77,257.77,0.01,477,11,46,334,78,140,7.22,100392,100.22
UTC 221221 125041 5 9 ,224,53.32806396,5.931709766,28.99,0,0,0,257.53,257.53,0.01,482,12,46,334,78,140,7.21,100387,100.22
UTC 221221 125042 5 9 ,225,53.32805252,5.931635857,28.99,0,0,0,257.75,257.75,0.01,492,14,45,335,77,139,7.21,100375,100.22
UTC 221221 125043 5 9 ,226,53.32804489,5.93156147,28.96,0,0,0,257.69,257.69,0.01,482,12,45,334,77,139,7.21,100380,100.22
UTC 221221 125044 5 9 ,227,53.32803726,5.93148756,28.96,0,0,0,257.57,257.57,0.01,482,12,46,333,77,139,7.2,100387,100.22
UTC 221221 125045 5 9 ,228,53.32802582,5.931414127,28.95,0,0,0,257.38,257.38,0.01,486,13,46,334,78,140,7.21,100385,100.22
UTC 221221 125046 5 9 ,229,53.32801437,5.931340694,28.94,0,0,0,257.37,257.37,0.01,492,14,46,334,77,139,7.2,100391,100.22
UTC 221221 125047 5 9 ,230,53.32800674,5.931267262,28.95,0,0,0,256.7,256.7,0.01,502,15,46,335,78,140,7.2,100392,100.22
UTC 221221 125048 5 9 ,231,53.3279953,5.931194305,28.92,0,0,0,256.8,256.8,0.01,486,13,46,334,77,140,7.19,100389,100.22
UTC 221221 125049 5 9 ,232,53.32798767,5.931128025,28.95,0,0,0,261.05,261.05,0.01,492,14,46,335,77,140,7.18,100403,91.83
UTC 221221 125050 5 9 ,233,53.3279953,5.931061745,28.95,0,0,0,293.68,293.68,0.01,498,14,46,335,77,140,7.19,100397,100.22
UTC 221221 125051 5 9 ,234,53.32802582,5.931013107,28.92,0,0,0,329.05,329.05,0.01,514,17,46,335,77,141,7.24,100430,91.83
UTC 221221 125052 5 9 ,235,53.32806396,5.930994511,28.88,0,0,0,346.51,346.51,0.01,537,20,46,335,77,141,7.31,100434,91.83
UTC 221221 125053 5 9 ,236,53.32810593,5.93099165,28.87,0,0,0,2.26,2.26,0.01,530,19,46,335,78,140,7.37,100440,91.83
UTC 221221 125054 5 9 ,237,53.32814026,5.931015492,28.88,0,0,0,30.73,30.73,0.01,534,20,47,335,77,141,7.4,100454,91.83
UTC 221221 125055 5 9 ,238,53.32816315,5.931061268,28.93,0,0,0,58.07,58.07,0.01,537,20,47,335,78,141,7.43,100458,91.83
UTC 221221 125056 5 9 ,239,53.32817459,5.931118012,28.97,0,0,0,75.62,75.62,0.01,548,22,47,335,77,140,7.49,100461,91.83
UTC 221221 125057 5 9 ,240,53.32818222,5.93118,29,0,0,0,76.92,76.92,0.01,561,24,47,335,77,141,7.56,100463,91.83
UTC 221221 125058 5 9 ,241,53.32818604,5.931249142,29.01,0,0,0,77.16,77.16,0.01,561,24,48,335,77,141,7.62,100462,91.83
UTC 221221 125059 5 9 ,242,53.32819748,5.931324482,29.02,0,0,0,77.37,77.37,0.01,555,23,48,335,78,141,7.67,100461,91.83
UTC 221221 125100 5 9 ,243,53.32820511,5.931398392,29.04,0,0,0,77.27,77.27,0.01,555,23,48,334,77,141,7.71,100464,91.83
UTC 221221 125101 5 9 ,244,53.32821655,5.931474686,29.07,0,0,0,77.47,77.47,0.01,555,23,47,335,77,141,7.74,100460,91.83
UTC 221221 125102 5 9 ,245,53.328228,5.931548119,29.09,0,0,0,77.28,77.28,0.01,572,26,48,335,78,140,7.78,100461,91.83
UTC 221221 125103 5 9 ,246,53.32823563,5.931622028,29.12,0,0,0,77.42,77.42,0.01,572,26,48,334,77,140,7.82,100457,91.83
UTC 221221 125104 5 9 ,247,53.32824707,5.931695938,29.13,0,0,0,77.44,77.44,0.01,561,24,48,334,78,140,7.86,100455,91.83
UTC 221221 125105 5 9 ,248,53.3282547,5.931769848,29.14,0,0,0,77.55,77.55,0.01,561,24,48,335,77,140,7.9,100457,91.83
UTC 221221 125106 5 9 ,249,53.32826614,5.931842327,29.16,0,0,0,77.38,77.38,0.01,567,25,48,334,77,140,7.95,100460,91.83
UTC 221221 125107 5 9 ,250,53.32827377,5.931916714,29.19,0,0,0,77.32,77.32,0.01,572,26,47,334,76,140,7.98,100458,91.83
UTC 221221 125108 5 9 ,251,53.32828522,5.931990147,29.21,0,0,0,77.42,77.42,0.01,580,27,48,334,77,140,7.99,100456,91.83
UTC 221221 125109 5 9 ,252,53.32829285,5.93206358,29.23,0,0,0,77.52,77.52,0.01,567,25,48,334,77,140,8.03,100456,91.83
UTC 221221 125110 5 9 ,253,53.32830429,5.932136536,29.25,0,0,0,77.47,77.47,0.01,572,26,47,334,77,140,8.06,100459,91.83
UTC 221221 125111 5 9 ,254,53.32831573,5.932210445,29.28,0,0,0,77.37,77.37,0.01,567,25,48,334,77,140,8.08,100455,91.83
UTC 221221 125112 5 9 ,255,53.32832336,5.932283402,29.3,0,0,0,77.42,77.42,0.01,575,26,48,334,77,140,8.11,100457,91.83
UTC 221221 125113 5 9 ,256,53.32833481,5.932356834,29.32,0,0,0,77.37,77.37,0.01,589,28,47,334,77,140,8.14,100458,91.83
UTC 221221 125114 5 9 ,257,53.32834244,5.932428837,29.35,0,0,0,77.37,77.37,0.01,572,26,48,334,77,140,8.17,100456,91.83
UTC 221221 125115 5 9 ,258,53.32835388,5.932503223,29.37,0,0,0,77.63,77.63,0.01,572,26,48,334,77,140,8.19,100456,91.83
UTC 221221 125116 5 9 ,259,53.32836151,5.93257761,29.37,0,0,0,77.28,77.28,0.01,567,25,48,333,77,140,8.22,100458,91.83
UTC 221221 125117 5 9 ,260,53.32837296,5.932650566,29.4,0,0,0,77.6,77.6,0.01,567,25,48,333,77,140,8.26,100461,91.83
UTC 221221 125118 5 9 ,261,53.3283844,5.932723999,29.43,0,0,0,77.43,77.43,0.01,575,26,47,333,77,140,8.27,100459,91.83
UTC 221221 125119 5 9 ,262,53.32839203,5.932797432,29.46,0,0,0,77.61,77.61,0.01,572,26,47,333,76,140,8.29,100452,91.83
UTC 221221 125120 5 9 ,263,53.32840347,5.932870865,29.48,0,0,0,77.18,77.18,0.01,567,25,47,333,77,140,8.32,100454,91.83
UTC 221221 125121 5 9 ,264,53.3284111,5.932945252,29.52,0,0,0,77.41,77.41,0.01,567,25,48,334,77,140,8.33,100450,91.83
UTC 221221 125122 5 9 ,265,53.32842255,5.933018684,29.53,0,0,0,77.32,77.32,0.01,561,24,48,333,76,140,8.36,100457,91.83
UTC 221221 125123 5 9 ,266,53.32843018,5.933091641,29.56,0,0,0,77.58,77.58,0.01,572,26,48,334,77,139,8.38,100452,91.83
UTC 221221 125124 5 9 ,267,53.32844162,5.933165073,29.59,0,0,0,77.62,77.62,0.01,572,26,47,333,76,140,8.4,100446,91.83
UTC 221221 125125 5 9 ,268,53.32844925,5.933236122,29.58,0,0,0,77.44,77.44,0.01,561,24,47,333,77,139,8.41,100451,91.83
UTC 221221 125126 5 9 ,269,53.32846069,5.933311939,29.63,0,0,0,77.45,77.45,0.01,561,24,47,333,76,139,8.42,100455,91.83
UTC 221221 125127 5 9 ,270,53.32847214,5.933384895,29.66,0,0,0,77.68,77.68,0.01,561,24,48,333,77,139,8.44,100455,91.83
UTC 221221 125128 5 9 ,271,53.32847977,5.933459282,29.69,0,0,0,77.79,77.79,0.01,567,25,47,333,76,139,8.46,100453,91.83
UTC 221221 125128 5 9 ,272,53.32849121,5.933531761,29.72,0,0,0,77.37,77.37,0.01,572,26,47,333,77,139,8.48,100453,91.83
UTC 221221 125130 5 9 ,273,53.32849884,5.933605671,29.75,0,0,0,77.32,77.32,0.01,552,23,47,332,77,139,8.5,100450,91.83
UTC 221221 125131 5 9 ,274,53.32851028,5.933677673,29.77,0,0,0,77.54,77.54,0.01,555,23,47,333,77,140,8.51,100452,91.83
UTC 221221 125132 5 9 ,275,53.32851791,5.933752537,29.79,0,0,0,77.5,77.5,0.01,555,23,47,333,77,139,8.53,100454,91.83
UTC 221221 125132 5 9 ,276,53.32852936,5.933824062,29.8,0,0,0,77.44,77.44,0.01,555,23,47,333,76,139,8.54,100452,91.83
UTC 221221 125132 5 9 ,277,53.32853699,5.933897495,29.82,0,0,0,77.51,77.51,0.01,572,26,47,333,77,139,8.55,100453,91.83
UTC 221221 125132 5 9 ,278,53.32854843,5.933970451,29.82,0,0,0,77.38,77.38,0.01,555,23,47,333,77,139,8.56,100453,91.83
UTC 221221 125132 5 9 ,279,53.32855988,5.934043884,29.85,0,0,0,77.4,77.4,0.01,552,23,47,332,77,139,8.57,100455,91.83
UTC 221221 125132 5 9 ,280,53.3285675,5.93411684,29.87,0,0,0,77.25,77.25,0.01,552,23,47,332,77,139,8.58,100454,91.83
UTC 221221 125138 5 9 ,281,53.32857895,5.934192181,29.9,0,0,0,77.39,77.39,0.01,555,23,47,333,77,140,8.57,100454,91.83
UTC 221221 125139 5 9 ,282,53.32858658,5.934264183,29.93,0,0,0,77.43,77.43,0.01,572,26,47,333,76,139,8.58,100452,91.83
UTC 221221 125140 5 9 ,283,53.32859802,5.934339523,29.96,0,0,0,77.6,77.6,0.01,555,23,46,333,77,139,8.6,100453,91.83
UTC 221221 125141 5 9 ,284,53.32860565,5.934412003,29.99,0,0,0,77.55,77.55,0.01,552,23,47,332,76,139,8.6,100449,91.83
UTC 221221 125142 5 9 ,285,53.3286171,5.934486866,30,0,0,0,77.44,77.44,0.01,552,23,47,333,77,139,8.62,100451,91.83
UTC 221221 125143 5 9 ,286,53.32862473,5.934559345,30.04,0,0,0,77.47,77.47,0.01,555,23,47,332,76,139,8.62,100449,91.83
UTC 221221 125144 5 9 ,287,53.32863617,5.934632301,30.05,0,0,0,77.44,77.44,0.01,567,25,47,333,76,139,8.62,100446,91.83
UTC 221221 125145 5 9 ,288,53.32864761,5.934705257,30.06,0,0,0,77.53,77.53,0.01,567,25,46,333,77,139,8.62,100448,91.83
UTC 221221 125146 5 9 ,289,53.32865524,5.934775829,30.08,0,0,0,77.4,77.4,0.01,561,24,47,333,76,140,8.62,100448,91.83
UTC 221221 125147 5 9 ,290,53.32866669,5.934851646,30.1,0,0,0,77.34,77.34,0.01,561,24,47,333,77,140,8.61,100449,91.83
UTC 221221 125148 5 9 ,291,53.32867432,5.934923172,30.12,0,0,0,77.32,77.32,0.01,561,24,47,333,76,140,8.59,100447,91.83
UTC 221221 125148 5 9 ,292,53.32868576,5.934996605,30.15,0,0,0,77.24,77.24,0.01,572,26,47,333,77,139,8.59,100447,91.83
UTC 221221 125148 5 9 ,293,53.32869339,5.935070038,30.18,0,0,0,77.44,77.44,0.01,572,26,47,333,77,140,8.57,100443,91.83
UTC 221221 125151 5 9 ,294,53.32870483,5.935144424,30.21,0,0,0,77.27,77.27,0.01,561,24,47,334,76,140,8.56,100444,91.83
UTC 221221 125152 5 9 ,295,53.32871246,5.935217381,30.24,0,0,0,77.3,77.3,0.01,567,25,48,333,77,139,8.54,100444,91.83
UTC 221221 125153 5 9 ,296,53.32872391,5.935292244,30.26,0,0,0,77.56,77.56,0.01,567,25,48,334,77,139,8.53,100442,91.83
UTC 221221 125154 5 9 ,297,53.32873535,5.935356617,30.27,0,0,0,71.46,71.46,0.01,567,25,48,334,77,140,8.54,100446,91.83
UTC 221221 125155 5 9 ,298,53.32875824,5.935410023,30.32,0,0,0,38.95,38.95,0.01,586,28,48,333,76,140,8.55,100443,91.83
UTC 221221 125156 5 9 ,299,53.3288002,5.93543148,30.49,0,0,0,4.21,4.21,0.01,572,26,48,333,77,140,8.56,100429,91.83
UTC 221221 125157 5 9 ,300,53.32883835,5.935420513,30.6,0,0,0,346.98,346.98,0.01,567,25,48,334,77,140,8.56,100423,91.83
UTC 221221 125158 5 9 ,301,53.3288765,5.935394287,30.69,0,0,0,332.42,332.42,0.01,567,25,49,333,77,140,8.58,100418,91.83
UTC 221221 125158 5 9 ,302,53.3289032,5.935346603,30.75,0,0,0,302.63,302.63,0.01,561,24,48,333,76,141,8.58,100406,91.83
UTC 221221 125200 5 9 ,303,53.32891083,5.935282707,30.79,0,0,0,273.29,273.29,0.01,555,23,48,333,77,141,8.52,100396,100.22
UTC 221221 125200 5 9 ,304,53.3289032,5.935220242,30.78,0,0,0,257.57,257.57,0.01,543,21,49,333,77,141,8.43,100390,100.22
UTC 221221 125200 5 9 ,305,53.32889175,5.935154915,30.73,0,0,0,256.47,256.47,0.01,552,23,48,333,77,141,8.32,100387,100.22
UTC 221221 125203 5 9 ,306,53.32888031,5.935082436,30.69,0,0,0,256.47,256.47,0.01,543,21,48,334,77,140,8.25,100387,100.22
UTC 221221 125204 5 9 ,307,53.32887268,5.935007095,30.66,0,0,0,256.96,256.96,0.01,526,19,49,333,77,141,8.18,100382,100.22
UTC 221221 125205 5 9 ,308,53.32886124,5.934931755,30.62,0,0,0,257.04,257.04,0.01,530,19,49,333,77,141,8.11,100382,100.22
UTC 221221 125206 5 9 ,309,53.32885361,5.934857369,30.6,0,0,0,256.62,256.62,0.01,519,18,48,333,76,140,8.05,100382,100.22
UTC 221221 125207 5 9 ,310,53.32884216,5.934782028,30.55,0,0,0,257.43,257.43,0.01,523,18,48,333,77,141,8,100376,100.22
UTC 221221 125208 5 9 ,311,53.32883072,5.934708595,30.53,0,0,0,257.08,257.08,0.01,530,19,48,333,77,141,7.95,100380,100.22
UTC 221221 125209 5 9 ,312,53.32882309,5.934635162,30.51,0,0,0,256.87,256.87,0.01,519,18,48,333,76,140,7.91,100377,100.22
UTC 221221 125210 5 9 ,313,53.32881165,5.934562206,30.48,0,0,0,257.05,257.05,0.01,514,17,48,334,77,140,7.87,100380,100.22
UTC 221221 125211 5 9 ,314,53.32880402,5.934487343,30.46,0,0,0,256.71,256.71,0.01,519,18,49,333,77,140,7.83,100389,100.22
UTC 221221 125212 5 9 ,315,53.32879257,5.93441391,30.43,0,0,0,256.75,256.75,0,519,18,48,334,77,140,7.79,100387,100.22
UTC 221221 125213 5 9 ,316,53.32878113,5.934341908,30.41,0,0,0,256.72,256.72,0,534,20,49,334,77,140,7.76,100385,100.22
UTC 221221 125214 5 9 ,317,53.3287735,5.934268951,30.37,0,0,0,256.5,256.5,0,514,17,48,333,77,140,7.72,100391,100.22
UTC 221221 125215 5 9 ,318,53.32876205,5.934194088,30.32,0,0,0,257.18,257.18,0,514,17,48,333,77,141,7.69,100386,100.22
UTC 221221 125216 5 9 ,319,53.32875443,5.934120178,30.29,0,0,0,256.97,256.97,0,514,17,48,333,77,140,7.68,100387,100.22
UTC 221221 125217 5 9 ,320,53.32874298,5.934047222,30.27,0,0,0,256.78,256.78,0,506,16,48,333,76,140,7.64,100381,100.22
UTC 221221 125218 5 9 ,321,53.32873535,5.933974266,30.21,0,0,0,257.2,257.2,0.01,526,19,47,333,77,140,7.61,100381,100.22
UTC 221221 125219 5 9 ,322,53.32872391,5.933900833,30.19,0,0,0,257.02,257.02,0.01,506,16,47,333,76,140,7.59,100379,100.22
UTC 221221 125220 5 9 ,323,53.32871628,5.933827877,30.16,0,0,0,256.69,256.69,0.01,502,15,47,333,77,140,7.56,100382,100.22
UTC 221221 125221 5 9 ,324,53.32870483,5.933754444,30.11,0,0,0,257.34,257.34,0.01,502,15,47,332,77,140,7.54,100381,100.22
UTC 221221 125222 5 9 ,325,53.32869339,5.933682442,30.08,0,0,0,256.75,256.75,0.01,506,16,47,333,77,140,7.53,100387,100.22
UTC 221221 125223 5 9 ,326,53.32868576,5.933609009,30.05,0,0,0,257.11,257.11,0.01,519,18,48,333,77,140,7.49,100377,100.22
UTC 221221 125224 5 9 ,327,53.32867432,5.933535099,30.03,0,0,0,256.9,256.9,0.01,506,16,47,332,76,141,7.47,100381,100.22
UTC 221221 125225 5 9 ,328,53.32866669,5.93346262,30.01,0,0,0,256.68,256.68,0.01,506,16,47,333,77,140,7.46,100383,100.22
UTC 221221 125226 5 9 ,329,53.32865524,5.93338728,29.97,0,0,0,256.88,256.88,0.01,506,16,47,332,76,140,7.44,100380,100.22
UTC 221221 125227 5 9 ,330,53.32864761,5.933313847,29.94,0,0,0,257.27,257.27,0.01,502,15,48,333,76,140,7.43,100379,100.22
UTC 221221 125228 5 9 ,331,53.32863617,5.933240414,29.91,0,0,0,256.84,256.84,0.01,506,16,47,333,76,139,7.41,100380,100.22
UTC 221221 125229 5 9 ,332,53.32862473,5.933166981,29.88,0,0,0,257.18,257.18,0.01,526,19,47,333,76,139,7.41,100385,100.22
UTC 221221 125230 5 9 ,333,53.3286171,5.933093548,29.85,0,0,0,256.72,256.72,0.01,506,16,47,333,77,140,7.4,100385,100.22
UTC 221221 125231 5 9 ,334,53.32860565,5.933019638,29.82,0,0,0,256.73,256.73,0.01,506,16,47,334,77,140,7.39,100383,100.22
UTC 221221 125232 5 9 ,335,53.32859802,5.932946205,29.79,0,0,0,257.06,257.06,0.01,506,16,47,334,76,141,7.4,100383,100.22
UTC 221221 125232 5 9 ,336,53.32858658,5.93287468,29.75,0,0,0,257.29,257.29,0.01,506,16,47,333,77,140,7.39,100381,100.22
UTC 221221 125234 5 9 ,337,53.32857895,5.932801247,29.72,0,0,0,256.82,256.82,0.01,526,19,47,333,77,140,7.38,100386,100.22
UTC 221221 125235 5 9 ,338,53.3285675,5.932728291,29.71,0,0,0,256.4,256.4,0.01,506,16,47,334,76,140,7.36,100386,100.22
UTC 221221 125236 5 9 ,339,53.32855606,5.932652473,29.62,0,0,0,256.8,256.8,0.01,506,16,47,333,77,140,7.35,100394,100.22
UTC 221221 125237 5 9 ,340,53.32854843,5.932579994,29.59,0,0,0,257.38,257.38,0.01,514,17,47,334,77,140,7.35,100391,100.22
UTC 221221 125238 5 9 ,341,53.32853699,5.932505131,29.56,0,0,0,256.83,256.83,0.01,514,17,47,334,76,141,7.34,100393,100.22
UTC 221221 125239 5 9 ,342,53.32852936,5.932434082,29.53,0,0,0,257.08,257.08,0.01,526,19,46,334,77,140,7.33,100392,100.22
UTC 221221 125240 5 9 ,343,53.32851791,5.932357788,29.49,0,0,0,257.19,257.19,0.01,523,18,47,334,76,141,7.33,100392,100.22
UTC 221221 125241 5 9 ,344,53.32851028,5.932284832,29.46,0,0,0,257.44,257.44,0.01,514,17,47,334,76,140,7.33,100392,100.22
UTC 221221 125242 5 9 ,345,53.32849884,5.932211399,29.45,0,0,0,256.63,256.63,0.01,514,17,47,334,77,140,7.33,100386,100.22
UTC 221221 125243 5 9 ,346,53.32849121,5.93213892,29.41,0,0,0,257.43,257.43,0.01,514,17,47,334,77,141,7.33,100390,100.22
UTC 221221 125244 5 9 ,347,53.32847977,5.93206501,29.37,0,0,0,257.16,257.16,0.01,526,19,47,334,77,140,7.33,100398,100.22
UTC 221221 125245 5 9 ,348,53.32846832,5.9319911,29.35,0,0,0,256.69,256.69,0.01,523,18,46,334,76,140,7.32,100388,100.22
UTC 221221 125246 5 9 ,349,53.32846069,5.931917667,29.32,0,0,0,256.86,256.86,0.01,519,18,47,333,76,140,7.32,100390,100.22
UTC 221221 125247 5 9 ,350,53.32844925,5.931845188,29.3,0,0,0,256.9,256.9,0.01,523,18,47,334,76,140,7.32,100392,100.22
UTC 221221 125248 5 9 ,351,53.32844162,5.931773663,29.26,0,0,0,257.21,257.21,0.01,519,18,47,335,76,140,7.33,100391,100.22
UTC 221221 125249 5 9 ,352,53.32843018,5.931699276,29.22,0,0,0,257.17,257.17,0.01,523,18,47,334,76,140,7.34,100399,100.22
UTC 221221 125250 5 9 ,353,53.32842255,5.931623936,29.19,0,0,0,257.1,257.1,0.01,534,20,47,334,76,140,7.34,100397,100.22
UTC 221221 125251 5 9 ,354,53.3284111,5.93155098,29.15,0,0,0,257.05,257.05,0.01,523,18,47,333,77,140,7.34,100401,91.83
UTC 221221 125252 5 9 ,355,53.32839966,5.931478024,29.12,0,0,0,256.65,256.65,0.01,523,18,47,333,76,140,7.34,100398,100.22
UTC 221221 125253 5 9 ,356,53.32839203,5.931404591,29.09,0,0,0,256.31,256.31,0.01,523,18,47,334,76,140,7.34,100393,100.22
UTC 221221 125254 5 9 ,357,53.32838058,5.931331158,29.06,0,0,0,256.62,256.62,0.01,523,18,47,334,76,140,7.34,100396,100.22
UTC 221221 125254 5 9 ,358,53.32836914,5.931259155,29.02,0,0,0,256.53,256.53,0.01,534,20,47,335,77,140,7.34,100401,91.83
UTC 221221 125256 5 9 ,359,53.32836151,5.931184769,28.98,0,0,0,256.87,256.87,0.01,519,18,48,335,76,140,7.33,100397,100.22
UTC 221221 125257 5 9 ,360,53.32835007,5.931110859,28.94,0,0,0,257.33,257.33,0.01,519,18,47,334,76,140,7.33,100394,100.22
UTC 221221 125258 5 9 ,361,53.32834244,5.931040764,28.93,0,0,0,256.22,256.22,0.01,519,18,47,335,76,140,7.34,100404,91.83
UTC 221221 125259 5 9 ,362,53.32834244,5.930976868,28.9,0,0,0,275.88,275.88,0.01,526,19,47,335,76,141,7.34,100399,100.22
UTC 221221 125300 5 9 ,363,53.32836151,5.930916786,28.82,0,0,0,311.46,311.46,0.01,543,21,47,335,76,141,7.37,100427,91.83
UTC 221221 125301 5 9 ,364,53.32839966,5.930883408,28.69,0,0,0,341.66,341.66,0.01,548,22,47,334,77,140,7.42,100439,91.83
UTC 221221 125301 5 9 ,365,53.32843781,5.930871964,28.62,0,0,0,349.86,349.86,0.01,548,22,47,334,77,141,7.47,100434,91.83
UTC 221221 125303 5 9 ,366,53.32847977,5.930884838,28.58,0,0,0,19.04,19.04,0.01,543,21,48,333,76,141,7.5,100447,91.83
UTC 221221 125304 5 9 ,367,53.32851028,5.93092823,28.61,0,0,0,50.16,50.16,0.01,555,23,48,334,77,141,7.53,100457,91.83
UTC 221221 125305 5 9 ,368,53.32852554,5.930988312,28.65,0,0,0,74,74,0.01,572,26,48,334,76,141,7.58,100461,91.83
UTC 221221 125306 5 9 ,369,53.32853317,5.931050777,28.69,0,0,0,76.67,76.67,0.01,572,26,48,335,76,140,7.63,100461,91.83
UTC 221221 125307 5 9 ,370,53.3285408,5.931123734,28.72,0,0,0,76.83,76.83,0.01,561,24,48,334,76,141,7.67,100461,91.83
UTC 221221 125308 5 9 ,371,53.32854843,5.931197643,28.74,0,0,0,76.92,76.92,0.01,572,26,48,335,76,141,7.69,100462,91.83
UTC 221221 125309 5 9 ,372,53.32855988,5.931274891,28.77,0,0,0,77.26,77.26,0.01,567,25,48,334,77,140,7.73,100462,91.83
UTC 221221 125310 5 9 ,373,53.3285675,5.931349754,28.79,0,0,0,77.42,77.42,0.01,572,26,48,334,77,141,7.76,100465,91.83
UTC 221221 125311 5 9 ,374,53.32857895,5.931424141,28.82,0,0,0,77.47,77.47,0.01,586,28,48,334,76,140,7.79,100460,91.83
UTC 221221 125312 5 9 ,375,53.32858658,5.931497574,28.85,0,0,0,77.42,77.42,0.01,572,26,48,334,76,140,7.83,100459,91.83
UTC 221221 125313 5 9 ,376,53.32859802,5.931569576,28.88,0,0,0,77.56,77.56,0.01,572,26,49,333,76,140,7.84,100455,91.83
UTC 221221 125314 5 9 ,377,53.32860947,5.931644917,28.93,0,0,0,77.16,77.16,0.01,567,25,48,333,76,140,7.87,100458,91.83
UTC 221221 125315 5 9 ,378,53.3286171,5.93171835,28.95,0,0,0,77.3,77.3,0.01,575,26,48,334,77,140,7.9,100456,91.83
UTC 221221 125316 5 9 ,379,53.32862854,5.931792259,28.98,0,0,0,77.16,77.16,0.01,589,28,48,334,77,140,7.94,100457,91.83
UTC 221221 125317 5 9 ,380,53.32863617,5.931863308,29.01,0,0,0,77.33,77.33,0.01,575,26,48,333,76,140,7.96,100455,91.83
UTC 221221 125318 5 9 ,381,53.32864761,5.931938171,29.03,0,0,0,77.19,77.19,0.01,575,26,48,332,76,141,7.98,100458,91.83
UTC 221221 125319 5 9 ,382,53.32865524,5.932010651,29.06,0,0,0,77.45,77.45,0.01,572,26,48,333,77,140,8,100457,91.83
UTC 221221 125320 5 9 ,383,53.32866669,5.932085514,29.08,0,0,0,77.42,77.42,0.01,575,26,48,333,76,140,8.02,100453,91.83
UTC 221221 125321 5 9 ,384,53.32867432,5.932159424,29.12,0,0,0,77.21,77.21,0.01,586,28,48,333,76,140,8.04,100456,91.83
UTC 221221 125321 5 9 ,385,53.32868576,5.932230949,29.15,0,0,0,77.29,77.29,0.01,572,25,48,333,76,140,8.06,100455,91.83
UTC 221221 125323 5 9 ,386,53.32869339,5.932305813,29.19,0,0,0,77.37,77.37,0.01,575,26,48,333,76,140,8.08,100455,91.83
UTC 221221 125324 5 9 ,387,53.32870483,5.932379723,29.23,0,0,0,77.4,77.4,0.01,575,26,48,333,77,140,8.09,100455,91.83
UTC 221221 125325 5 9 ,388,53.32871246,5.932450771,29.25,0,0,0,76.97,76.97,0.01,561,24,48,333,76,140,8.11,100455,91.83
UTC 221221 125326 5 9 ,389,53.32872391,5.932525158,29.3,0,0,0,76.82,76.82,0.01,567,25,48,332,76,140,8.13,100458,91.83
UTC 221221 125327 5 9 ,390,53.32873535,5.932597637,29.32,0,0,0,76.69,76.69,0.01,561,24,49,332,76,140,8.15,100457,91.83
UTC 221221 125327 5 9 ,391,53.32874298,5.932670593,29.33,0,0,0,77.58,77.58,0.01,567,25,48,332,76,140,8.17,100453,91.83
UTC 221221 125329 5 9 ,392,53.32875443,5.932744503,29.38,0,0,0,77.29,77.29,0.01,575,26,48,331,76,140,8.16,100453,91.83
UTC 221221 125330 5 9 ,393,53.32876205,5.932819843,29.43,0,0,0,77.46,77.46,0.01,561,24,48,332,76,140,8.17,100458,91.83
UTC 221221 125331 5 9 ,394,53.3287735,5.932892323,29.46,0,0,0,77.43,77.43,0.01,555,23,48,332,76,140,8.18,100454,91.83
UTC 221221 125332 5 9 ,395,53.32878494,5.932967663,29.49,0,0,0,77.32,77.32,0.01,561,24,48,332,76,140,8.18,100450,91.83
UTC 221221 125333 5 9 ,396,53.32879257,5.933040619,29.52,0,0,0,77.2,77.2,0.01,561,24,48,332,77,140,8.19,100446,91.83
UTC 221221 125334 5 9 ,397,53.3288002,5.933113098,29.55,0,0,0,77.2,77.2,0.01,575,26,47,331,76,140,8.19,100449,91.83
UTC 221221 125335 5 9 ,398,53.32881165,5.933184624,29.57,0,0,0,77.37,77.37,0.01,555,23,47,331,76,140,8.19,100451,91.83
UTC 221221 125336 5 9 ,399,53.32882309,5.933259964,29.59,0,0,0,77.3,77.3,0.01,552,23,47,331,76,140,8.2,100452,91.83
UTC 221221 125337 5 9 ,400,53.32883072,5.933333397,29.62,0,0,0,77.28,77.28,0.01,552,23,48,331,76,140,8.21,100454,91.83
UTC 221221 125338 5 9 ,401,53.32884216,5.93340826,29.66,0,0,0,77.61,77.61,0.01,561,24,47,331,76,139,8.21,100448,91.83
UTC 221221 125339 5 9 ,402,53.32885361,5.933480263,29.69,0,0,0,77.35,77.35,0.01,567,25,48,330,76,139,8.21,100450,91.83
UTC 221221 125340 5 9 ,403,53.32886124,5.933554649,29.72,0,0,0,77.46,77.46,0.01,567,25,47,331,76,140,8.22,100450,91.83
UTC 221221 125341 5 9 ,404,53.32887268,5.933626652,29.77,0,0,0,77.58,77.58,0.01,555,23,47,330,77,140,8.23,100448,91.83
UTC 221221 125342 5 9 ,405,53.32888031,5.933701515,29.8,0,0,0,77.31,77.31,0.01,552,23,48,331,76,140,8.23,100448,91.83
UTC 221221 125343 5 9 ,406,53.32889175,5.933773994,29.83,0,0,0,77,77,0.01,561,24,48,330,76,140,8.24,100450,91.83
UTC 221221 125343 5 9 ,407,53.32889938,5.933844566,29.88,0,0,0,76.92,76.92,0.01,561,24,48,331,77,140,8.23,100448,91.83
UTC 221221 125343 5 9 ,408,53.32891083,5.933917046,29.93,0,0,0,77.07,77.07,0.01,561,24,48,331,76,139,8.22,100443,91.83
UTC 221221 125346 5 9 ,409,53.32891846,5.93399334,29.94,0,0,0,77.55,77.55,0.01,552,23,48,330,76,140,8.22,100445,91.83
UTC 221221 125347 5 9 ,410,53.3289299,5.934067726,29.98,0,0,0,77.11,77.11,0.01,552,23,48,331,76,140,8.22,100448,91.83
UTC 221221 125348 5 9 ,411,53.32894135,5.934141636,29.99,0,0,0,77.29,77.29,0.01,552,23,48,331,76,140,8.21,100441,91.83
UTC 221221 125349 5 9 ,412,53.32894897,5.934214592,30.03,0,0,0,77,77,0.01,555,23,48,330,76,140,8.2,100447,91.83
UTC 221221 125350 5 9 ,413,53.32896042,5.934288502,30.04,0,0,0,77.26,77.26,0.01,567,25,48,330,76,139,8.21,100450,91.83
UTC 221221 125351 5 9 ,414,53.32897186,5.934361458,30.06,0,0,0,77.5,77.5,0.01,552,23,48,330,76,139,8.23,100453,91.83
UTC 221221 125352 5 9 ,415,53.32897949,5.934436321,30.1,0,0,0,77.29,77.29,0.01,552,23,48,330,76,139,8.24,100450,91.83
UTC 221221 125353 5 9 ,416,53.32899094,5.934510231,30.14,0,0,0,77.74,77.74,0.01,552,23,48,330,76,139,8.25,100444,91.83
UTC 221221 125354 5 9 ,417,53.32899857,5.934582233,30.19,0,0,0,77.4,77.4,0.01,552,23,47,330,76,139,8.25,100446,91.83
UTC 221221 125355 5 9 ,418,53.32901001,5.93465662,30.22,0,0,0,77.57,77.57,0.01,567,25,47,330,76,139,8.25,100443,91.83
UTC 221221 125356 5 9 ,419,53.32901764,5.934730053,30.23,0,0,0,77.39,77.39,0.01,548,22,47,330,76,138,8.26,100449,91.83
UTC 221221 125357 5 9 ,420,53.32902908,5.934801579,30.26,0,0,0,77.11,77.11,0.01,552,23,47,330,76,139,8.28,100451,91.83
UTC 221221 125358 5 9 ,421,53.32903671,5.934875965,30.31,0,0,0,77.37,77.37,0.01,543,21,47,330,76,139,8.27,100446,91.83
UTC 221221 125359 5 9 ,422,53.32904816,5.934947491,30.34,0,0,0,77.53,77.53,0.01,548,22,47,330,76,139,8.26,100445,91.83
UTC 221221 125400 5 9 ,423,53.3290596,5.935022354,30.36,0,0,0,77.48,77.48,0.01,561,24,47,330,76,139,8.28,100449,91.83
UTC 221221 125400 5 9 ,424,53.32906723,5.935094357,30.38,0,0,0,77.02,77.02,0.01,552,23,47,330,76,139,8.28,100448,91.83
UTC 221221 125402 5 9 ,425,53.32907867,5.935166836,30.42,0,0,0,77.84,77.84,0.01,548,22,47,330,76,139,8.3,100444,91.83
UTC 221221 125403 5 9 ,426,53.3290863,5.935233116,30.46,0,0,0,70.63,70.63,0.01,543,21,47,330,75,139,8.3,100431,91.83
UTC 221221 125404 5 9 ,427,53.32911301,5.935284615,30.38,0,0,0,37.96,37.96,0.01,548,22,46,330,75,138,8.31,100431,91.83
UTC 221221 125405 5 9 ,428,53.32915115,5.935303688,30.26,0,0,0,2.87,2.87,0.01,561,24,46,328,76,139,8.32,100427,91.83
UTC 221221 125406 5 9 ,429,53.32919312,5.935291767,30.15,0,0,0,346.85,346.85,0.01,548,22,46,330,76,139,8.33,100416,91.83
UTC 221221 125407 5 9 ,430,53.32922745,5.935264111,30.02,0,0,0,330.1,330.1,0.01,534,20,46,330,76,140,8.33,100419,91.83
UTC 221221 125408 5 9 ,431,53.32925415,5.935216427,29.92,0,0,0,301.21,301.21,0.01,537,20,47,330,76,140,8.32,100407,91.83
UTC 221221 125409 5 9 ,432,53.32926178,5.935155392,29.85,0,0,0,273.76,273.76,0.01,537,20,47,330,75,139,8.27,100390,100.22
UTC 221221 125410 5 9 ,433,53.32925415,5.935094357,29.88,0,0,0,259.23,259.23,0.01,530,19,46,330,76,139,8.21,100386,100.22
UTC 221221 125411 5 9 ,434,53.32924652,5.935029984,29.84,0,0,0,258.13,258.13,0.01,526,19,46,330,75,139,8.14,100372,100.22
UTC 221221 125412 5 9 ,435,53.32923508,5.934959412,29.82,0,0,0,258.4,258.4,0.01,519,18,46,330,76,138,8.08,100365,100.22
UTC 221221 125413 5 9 ,436,53.32922745,5.934885025,29.75,0,0,0,257.84,257.84,0.01,506,16,46,330,75,138,8.04,100364,100.22
UTC 221221 125414 5 9 ,437,53.329216,5.934810638,29.69,0,0,0,258.2,258.2,0.01,498,14,46,330,76,139,7.99,100360,100.22
UTC 221221 125415 5 9 ,438,53.32920837,5.934736729,29.73,0,0,0,257.33,257.33,0.01,496,14,46,330,76,139,7.94,100380,100.22
UTC 221221 125416 5 9 ,439,53.32919693,5.934662342,29.7,0,0,0,256.69,256.69,0,506,16,46,330,76,139,7.9,100378,100.22
UTC 221221 125417 5 9 ,440,53.32918549,5.934589863,29.68,0,0,0,256.79,256.79,0,492,14,46,330,76,139,7.85,100374,100.22
UTC 221221 125418 5 9 ,441,53.32917404,5.934514046,29.66,0,0,0,257.3,257.3,0,492,14,46,331,76,139,7.8,100384,100.22
UTC 221221 125419 5 9 ,442,53.3291626,5.934440136,29.65,0,0,0,257.19,257.19,0,496,14,46,331,76,139,7.76,100377,100.22
UTC 221221 125420 5 9 ,443,53.32915497,5.934366703,29.58,0,0,0,256.71,256.71,0,492,14,47,330,76,139,7.74,100380,100.22
UTC 221221 125421 5 9 ,444,53.32914352,5.934292793,29.56,0,0,0,256.88,256.88,0,506,16,46,332,76,140,7.7,100377,100.22
UTC 221221 125421 5 9 ,445,53.32913208,5.934221745,29.52,0,0,0,256.83,256.83,0,492,14,47,331,76,139,7.67,100384,100.22
UTC 221221 125423 5 9 ,446,53.32912445,5.934147358,29.51,0,0,0,257.19,257.19,0,486,13,46,331,76,139,7.63,100374,100.22
UTC 221221 125424 5 9 ,447,53.32911301,5.934073925,29.49,0,0,0,256.91,256.91,0,492,14,46,332,76,139,7.6,100375,100.22
UTC 221221 125425 5 9 ,448,53.32910538,5.934000492,29.45,0,0,0,257.08,257.08,0,486,13,46,332,76,139,7.57,100382,100.22
UTC 221221 125426 5 9 ,449,53.32909393,5.933926582,29.41,0,0,0,257.53,257.53,0,498,14,46,332,76,139,7.54,100376,100.22
UTC 221221 125427 5 9 ,450,53.3290863,5.933852196,29.39,0,0,0,257.52,257.52,0,498,14,47,332,76,139,7.53,100385,100.22
UTC 221221 125428 5 9 ,451,53.32907486,5.933777332,29.41,0,0,0,256.66,256.66,0,496,14,47,331,76,140,7.53,100370,100.22
UTC 221221 125429 5 9 ,452,53.32906723,5.933704853,29.37,0,0,0,257.18,257.18,0,498,14,47,331,76,139,7.52,100389,100.22
UTC 221221 125430 5 9 ,453,53.32905579,5.933633804,29.36,0,0,0,256.89,256.89,0,496,14,47,331,75,139,7.51,100372,100.22
UTC 221221 125431 5 9 ,454,53.32904816,5.933558464,29.33,0,0,0,257.12,257.12,0.01,502,15,47,331,75,139,7.49,100379,100.22
UTC 221221 125432 5 9 ,455,53.32903671,5.933485508,29.28,0,0,0,256.57,256.57,0.01,502,15,47,331,76,139,7.48,100395,100.22
UTC 221221 125433 5 9 ,456,53.32902527,5.933413029,29.24,0,0,0,256.59,256.59,0.01,492,14,47,331,76,139,7.48,100388,100.22
UTC 221221 125434 5 9 ,457,53.32901382,5.93334198,29.27,0,0,0,256.03,256.03,0.01,492,14,46,332,76,140,7.45,100395,100.22
UTC 221221 125435 5 9 ,458,53.3290062,5.93326664,29.23,0,0,0,255.84,255.84,0.01,486,13,47,332,76,139,7.42,100400,91.83
UTC 221221 125436 5 9 ,459,53.32899475,5.93319273,29.19,0,0,0,256.92,256.92,0.01,492,14,47,331,76,139,7.39,100396,100.22
UTC 221221 125437 5 9 ,460,53.32898712,5.933119297,29.13,0,0,0,257.16,257.16,0.01,514,17,47,332,76,139,7.39,100392,100.22
UTC 221221 125438 5 9 ,461,53.32897568,5.933045864,29.09,0,0,0,257.66,257.66,0.01,486,13,47,331,75,139,7.38,100386,100.22
UTC 221221 125439 5 9 ,462,53.32896805,5.932972908,29.08,0,0,0,257.33,257.33,0.01,492,14,47,331,76,140,7.37,100381,100.22
UTC 221221 125440 5 9 ,463,53.32896042,5.932899475,29.08,0,0,0,257.12,257.12,0.01,496,14,47,332,75,139,7.37,100390,100.22
UTC 221221 125441 5 9 ,464,53.32894897,5.932826042,29.05,0,0,0,256.82,256.82,0.01,496,14,47,332,76,139,7.35,100392,100.22
UTC 221221 125442 5 9 ,465,53.32893753,5.932753563,29.02,0,0,0,256.9,256.9,0.01,506,16,47,332,76,139,7.35,100396,100.22
UTC 221221 125443 5 9 ,466,53.3289299,5.932677746,28.97,0,0,0,257.01,257.01,0.01,502,15,47,332,76,140,7.35,100397,100.22
UTC 221221 125444 5 9 ,467,53.32891846,5.932604313,28.93,0,0,0,256.81,256.81,0.01,502,15,47,332,76,140,7.35,100397,100.22
UTC 221221 125445 5 9 ,468,53.32890701,5.932532787,28.91,0,0,0,256.94,256.94,0.01,506,16,48,331,76,139,7.33,100398,100.22
UTC 221221 125446 5 9 ,469,53.32889938,5.932457924,28.9,0,0,0,256.7,256.7,0.01,496,14,48,332,76,139,7.32,100406,91.83
UTC 221221 125447 5 9 ,470,53.32888794,5.932384491,28.89,0,0,0,257.09,257.09,0.01,498,14,48,330,75,139,7.31,100399,100.22
UTC 221221 125448 5 9 ,471,53.32888031,5.932311535,28.89,0,0,0,256.95,256.95,0.01,502,15,48,331,76,139,7.31,100402,91.83
UTC 221221 125449 5 9 ,472,53.32886887,5.932236671,28.86,0,0,0,256.99,256.99,0.01,498,14,48,331,76,140,7.31,100399,100.22
UTC 221221 125450 5 9 ,473,53.32886124,5.932163715,28.81,0,0,0,257.2,257.2,0.01,519,18,47,331,75,139,7.31,100403,91.83
UTC 221221 125451 5 9 ,474,53.32884979,5.93209219,28.78,0,0,0,256.9,256.9,0.01,498,14,48,331,76,139,7.31,100401,91.83
UTC 221221 125452 5 9 ,475,53.32884216,5.932017803,28.76,0,0,0,256.62,256.62,0.01,496,14,48,332,75,139,7.31,100402,91.83
UTC 221221 125453 5 9 ,476,53.32883072,5.931945801,28.73,0,0,0,256.91,256.91,0.01,498,14,47,331,75,139,7.3,100406,91.83
UTC 221221 125454 5 9 ,477,53.32882309,5.931870937,28.7,0,0,0,256.99,256.99,0.01,498,14,48,332,76,139,7.3,100404,91.83
UTC 221221 125455 5 9 ,478,53.32881165,5.931797504,28.67,0,0,0,257.15,257.15,0.01,523,18,48,333,76,139,7.3,100404,91.83
UTC 221221 125456 5 9 ,479,53.32880402,5.931723595,28.63,0,0,0,257.39,257.39,0.01,496,14,47,331,76,139,7.3,100376,100.22
UTC 221221 125457 5 9 ,480,53.32879257,5.931652546,28.61,0,0,0,258.48,258.48,0.01,496,14,47,332,76,139,7.28,100372,100.22
UTC 221221 125458 5 9 ,481,53.32878876,5.931583881,28.52,0,0,0,258.42,258.42,0.01,482,12,47,331,76,139,7.26,100348,100.22
UTC 221221 125459 5 9 ,482,53.32877731,5.931509018,28.54,0,0,0,257.65,257.65,0.01,486,13,47,332,75,139,7.22,100375,100.22
UTC 221221 125500 5 9 ,483,53.32876968,5.931435108,28.54,0,0,0,258.1,258.1,0.01,496,14,47,333,76,139,7.21,100377,100.22
UTC 221221 125501 5 9 ,484,53.32875824,5.931361198,28.52,0,0,0,257.46,257.46,0.01,492,14,46,333,75,139,7.19,100379,100.22
UTC 221221 125502 5 9 ,485,53.3287468,5.931286335,28.52,0,0,0,256.85,256.85,0.01,482,12,47,332,75,139,7.18,100373,100.22
UTC 221221 125503 5 9 ,486,53.32873535,5.931211472,28.55,0,0,0,259.06,259.06,0.01,486,13,46,332,75,139,7.17,100360,100.22
UTC 221221 125504 5 9 ,487,53.32872772,5.931135654,28.5,0,0,0,258.34,258.34,0.01,492,14,46,333,75,139,7.19,100371,100.22
UTC 221221 125505 5 9 ,488,53.32872009,5.931060314,28.46,0,0,0,257.41,257.41,0.01,498,14,46,333,75,139,7.21,100381,100.22
UTC 221221 125506 5 9 ,489,53.32870865,5.930986881,28.42,0,0,0,256.73,256.73,0.01,506,16,46,333,76,140,7.22,100376,100.22
UTC 221221 125507 5 9 ,490,53.3286972,5.930916309,28.43,0,0,0,255.8,255.8,0.01,502,15,46,333,75,139,7.24,100389,100.22
UTC 221221 125508 5 9 ,491,53.32869339,5.930850506,28.42,0,0,0,275.71,275.71,0.01,506,16,46,333,75,139,7.24,100414,91.83
UTC 221221 125509 5 9 ,492,53.32871246,5.930790901,28.28,0,0,0,311.94,311.94,0.01,514,17,46,333,75,139,7.27,100428,91.83
UTC 221221 125510 5 9 ,493,53.3287468,5.930762291,28.13,0,0,0,340.34,340.34,0.01,526,19,46,332,75,140,7.34,100441,91.83
UTC 221221 125511 5 9 ,494,53.32878113,5.930752754,28.08,0,0,0,347.95,347.95,0.01,543,21,46,332,75,139,7.38,100441,91.83
UTC 221221 125512 5 9 ,495,53.32882309,5.930760384,28.04,0,0,0,11.56,11.56,0.01,526,19,46,332,75,139,7.42,100448,91.83
