TimeStamp (UTC)," ""TriggerID"""," ""Latitude"""," ""Longitude"""," ""Altitude (Meter AGL)""",Gimbal Roll," ""Gimbal Pitch"""," ""Gimbal Yaw"""," ""Drone Yaw"""," ""Combined Yaw""",HCHO (ppm),CO2 (ppm),TVOC (ppb),NO2 (ppm),C2H5OH (ppm),VOC (ppm),CO (ppm),Temp (Celcius),Pressure (pa),Altitude (meter)
UTC 221221 121247 5 9 ,1,53.32789993,5.93431139,0.26,0,0,0,346.25,346.25,0.01,466,10,99,321,153,150,10.67,100825,58.34
UTC 221221 121248 5 9 ,2,53.32789993,5.93431139,0.84,0,0,0,345.32,345.32,0.01,466,10,99,321,152,150,10.62,100796,66.7
UTC 221221 121249 5 9 ,3,53.32790375,5.934312344,1.18,0,0,0,345.4,345.4,0.01,463,9,98,321,152,150,10.62,100790,66.7
UTC 221221 121250 5 9 ,4,53.32790375,5.934313297,2.81,0,0,0,345.08,345.08,0.01,451,7,98,320,152,150,10.6,100772,66.7
UTC 221221 121251 5 9 ,5,53.32790375,5.934313297,6.05,0,0,0,345.12,345.12,0.01,444,6,96,316,151,149,10.57,100736,66.7
UTC 221221 121252 5 9 ,6,53.32790375,5.934311867,9.19,0,0,0,345.39,345.39,0.01,442,6,95,315,151,149,10.49,100696,75.07
UTC 221221 121253 5 9 ,7,53.32790375,5.93431139,12.14,0,0,0,345.72,345.72,0.01,438,5,94,322,150,149,10.45,100661,75.07
UTC 221221 121253 5 9 ,8,53.32790375,5.93431139,15.26,0,0,0,345.45,345.45,0.01,433,5,94,323,151,148,10.38,100620,75.07
UTC 221221 121255 5 9 ,9,53.32790375,5.934312344,18.23,0,0,0,345.67,345.67,0.01,433,5,93,322,151,149,10.35,100583,83.45
UTC 221221 121256 5 9 ,10,53.32790375,5.934313297,19.37,0,0,0,347.02,347.02,0.01,423,3,93,322,150,149,10.34,100577,83.45
UTC 221221 121257 5 9 ,11,53.32790375,5.934311867,19.21,0,0,0,63.18,63.18,0.01,425,3,92,322,149,149,10.32,100597,83.45
UTC 221221 121258 5 9 ,12,53.32790375,5.934310436,19.07,0,0,0,69.08,69.08,0.01,433,5,92,322,149,148,10.32,100600,75.07
UTC 221221 121259 5 9 ,13,53.32790756,5.934323788,19,0,0,0,68.62,68.62,0.01,438,5,91,321,149,149,10.31,100600,75.07
UTC 221221 121300 5 9 ,14,53.32791519,5.934362412,18.91,0,0,0,69.47,69.47,0.01,451,7,91,321,149,148,10.3,100600,75.07
UTC 221221 121301 5 9 ,15,53.32792664,5.934416771,18.88,0,0,0,69.09,69.09,0.01,442,6,91,321,148,148,10.3,100599,83.45
UTC 221221 121301 5 9 ,16,53.32794189,5.934477806,18.88,0,0,0,69.1,69.1,0.01,442,6,90,320,148,149,10.28,100600,75.07
UTC 221221 121303 5 9 ,17,53.32795715,5.934546471,18.87,0,0,0,69.06,69.06,0.01,442,6,89,321,149,148,10.26,100602,75.07
UTC 221221 121304 5 9 ,18,53.32797241,5.93461895,18.85,0,0,0,69.68,69.68,0.01,444,6,89,321,148,148,10.25,100608,75.07
UTC 221221 121305 5 9 ,19,53.32799149,5.934693813,18.84,0,0,0,69.45,69.45,0.01,451,7,88,321,148,148,10.25,100606,75.07
UTC 221221 121306 5 9 ,20,53.32800674,5.934767246,18.82,0,0,0,69.54,69.54,0.01,447,7,88,320,148,147,10.25,100605,75.07
UTC 221221 121307 5 9 ,21,53.328022,5.934837818,18.83,0,0,0,69.39,69.39,0.01,444,6,88,321,147,147,10.27,100602,75.07
UTC 221221 121308 5 9 ,22,53.32803726,5.934907913,18.83,0,0,0,69.63,69.63,0.01,444,6,87,321,147,147,10.28,100603,75.07
UTC 221221 121309 5 9 ,23,53.32805252,5.934977055,18.84,0,0,0,69.51,69.51,0.01,444,6,88,320,147,147,10.26,100605,75.07
UTC 221221 121310 5 9 ,24,53.32806778,5.935041428,18.85,0,0,0,69.12,69.12,0.01,451,7,87,321,147,147,10.24,100602,75.07
UTC 221221 121311 5 9 ,25,53.32808685,5.93511343,18.84,0,0,0,69.2,69.2,0.01,447,7,86,320,147,147,10.22,100607,75.07
UTC 221221 121312 5 9 ,26,53.32810211,5.935181141,18.83,0,0,0,69.68,69.68,0.01,442,6,87,320,147,147,10.2,100604,75.07
UTC 221221 121312 5 9 ,27,53.32811737,5.93525362,18.86,0,0,0,69.62,69.62,0.01,442,6,86,321,147,147,10.13,100604,75.07
UTC 221221 121314 5 9 ,28,53.32813263,5.935325623,18.85,0,0,0,69.73,69.73,0.01,442,6,86,321,146,147,10.11,100603,75.07
UTC 221221 121315 5 9 ,29,53.32814789,5.935398102,18.81,0,0,0,69.1,69.1,0.01,444,6,86,320,146,148,10.09,100604,75.07
UTC 221221 121316 5 9 ,30,53.32816696,5.935471535,18.81,0,0,0,69.45,69.45,0.01,451,7,86,321,146,148,10.06,100610,75.07
UTC 221221 121317 5 9 ,31,53.32818222,5.935540676,18.82,0,0,0,69.98,69.98,0.01,444,6,85,320,145,148,10.1,100608,75.07
UTC 221221 121318 5 9 ,32,53.32819366,5.93558979,18.81,0,0,0,70.12,70.12,0.01,442,6,86,321,145,147,10.07,100608,75.07
UTC 221221 121319 5 9 ,33,53.32819366,5.935596466,18.79,0,0,0,21.67,21.67,0.01,438,5,85,317,145,148,10.05,100583,83.45
UTC 221221 121320 5 9 ,34,53.32819366,5.935589314,18.8,0,0,0,293.91,293.91,0.01,433,5,85,321,145,148,10.03,100576,83.45
UTC 221221 121321 5 9 ,35,53.32819366,5.935584545,18.81,0,0,0,256.73,256.73,0.01,442,6,85,321,145,147,9.99,100566,83.45
UTC 221221 121322 5 9 ,36,53.32818985,5.935572147,18.82,0,0,0,256.07,256.07,0.01,423,3,85,321,145,147,9.86,100565,83.45
UTC 221221 121323 5 9 ,37,53.32818604,5.935542584,18.84,0,0,0,255.93,255.93,0.01,421,3,84,321,145,147,9.74,100559,83.45
UTC 221221 121324 5 9 ,38,53.32817841,5.935495377,18.81,0,0,0,254.96,254.96,0.01,421,3,84,320,145,147,9.63,100565,83.45
UTC 221221 121325 5 9 ,39,53.32816696,5.935441494,18.83,0,0,0,254.87,254.87,0.01,413,1,83,321,144,147,9.52,100561,83.45
UTC 221221 121326 5 9 ,40,53.32815933,5.935379982,18.8,0,0,0,255.18,255.18,0.01,421,3,83,321,144,146,9.42,100557,83.45
UTC 221221 121327 5 9 ,41,53.32814789,5.935308456,18.77,0,0,0,255.4,255.4,0.01,407,1,82,321,144,147,9.26,100550,83.45
UTC 221221 121328 5 9 ,42,53.32814026,5.935231686,18.71,0,0,0,256.2,256.2,0.01,400,0,82,321,143,147,9.1,100531,83.45
UTC 221221 121329 5 9 ,43,53.32812881,5.935154438,18.69,0,0,0,256.38,256.38,0.01,403,0,82,320,143,146,8.97,100532,83.45
UTC 221221 121330 5 9 ,44,53.32812119,5.935081959,18.69,0,0,0,256.28,256.28,0.01,400,0,81,321,143,146,8.84,100530,83.45
UTC 221221 121331 5 9 ,45,53.32810974,5.93500948,18.7,0,0,0,255.94,255.94,0.01,400,0,81,321,143,147,8.73,100542,83.45
UTC 221221 121332 5 9 ,46,53.3280983,5.934935093,18.71,0,0,0,255.34,255.34,0.01,408,1,81,322,143,146,8.66,100546,83.45
UTC 221221 121333 5 9 ,47,53.32808685,5.934861183,18.7,0,0,0,255.54,255.54,0.01,403,0,80,322,143,147,8.59,100546,83.45
UTC 221221 121334 5 9 ,48,53.32807541,5.934783936,18.65,0,0,0,255.26,255.26,0.01,403,0,80,322,143,146,8.53,100545,83.45
UTC 221221 121335 5 9 ,49,53.32806396,5.934714317,18.65,0,0,0,255.32,255.32,0.01,408,1,80,321,143,146,8.47,100544,83.45
UTC 221221 121336 5 9 ,50,53.32805252,5.934641361,18.61,0,0,0,255.44,255.44,0.01,405,0,80,322,142,146,8.38,100529,83.45
UTC 221221 121337 5 9 ,51,53.32804108,5.934568882,18.58,0,0,0,255.98,255.98,0.01,413,1,79,321,142,147,8.33,100534,83.45
UTC 221221 121338 5 9 ,52,53.32802963,5.934495449,18.56,0,0,0,255.94,255.94,0.01,400,0,79,321,141,146,8.28,100542,83.45
UTC 221221 121339 5 9 ,53,53.328022,5.934422493,18.54,0,0,0,255.96,255.96,0.01,400,0,78,323,141,146,8.23,100537,83.45
UTC 221221 121340 5 9 ,54,53.32801056,5.934348583,18.51,0,0,0,255.2,255.2,0.01,400,0,78,322,141,146,8.19,100547,83.45
UTC 221221 121341 5 9 ,55,53.3279953,5.93427515,18.49,0,0,0,255.15,255.15,0.01,400,0,77,322,141,146,8.14,100544,83.45
UTC 221221 121342 5 9 ,56,53.32798386,5.934201717,18.48,0,0,0,255.23,255.23,0.01,411,1,76,321,141,146,8.1,100543,83.45
UTC 221221 121343 5 9 ,57,53.32797623,5.934129238,18.46,0,0,0,255.09,255.09,0.01,400,0,76,323,141,146,8.07,100544,83.45
UTC 221221 121344 5 9 ,58,53.32796097,5.934053421,18.45,0,0,0,255.22,255.22,0.01,402,0,76,323,141,146,8.03,100540,83.45
UTC 221221 121345 5 9 ,59,53.32795334,5.933982372,18.4,0,0,0,255.95,255.95,0.01,400,0,77,322,140,145,7.98,100539,83.45
UTC 221221 121346 5 9 ,60,53.32794189,5.933908939,18.39,0,0,0,256.51,256.51,0.01,400,0,76,322,140,146,7.94,100528,83.45
UTC 221221 121347 5 9 ,61,53.32793427,5.933838368,18.35,0,0,0,256.84,256.84,0.01,410,1,76,322,140,145,7.92,100528,83.45
UTC 221221 121348 5 9 ,62,53.32792282,5.933764458,18.34,0,0,0,256.31,256.31,0.01,406,0,75,323,140,146,7.9,100532,83.45
UTC 221221 121349 5 9 ,63,53.32791138,5.933688164,18.32,0,0,0,256.12,256.12,0.01,403,0,75,322,140,146,7.89,100533,83.45
UTC 221221 121350 5 9 ,64,53.32789993,5.933616638,18.29,0,0,0,256.08,256.08,0.01,400,0,74,322,140,145,7.86,100531,83.45
UTC 221221 121351 5 9 ,65,53.32788849,5.933546066,18.3,0,0,0,255.95,255.95,0.01,403,0,75,323,140,145,7.84,100528,83.45
UTC 221221 121352 5 9 ,66,53.32787704,5.933473587,18.31,0,0,0,254.9,254.9,0.01,406,0,74,323,139,145,7.83,100545,83.45
UTC 221221 121353 5 9 ,67,53.3278656,5.933400631,18.27,0,0,0,255.14,255.14,0.01,414,2,74,323,139,145,7.79,100532,83.45
UTC 221221 121354 5 9 ,68,53.32785416,5.933325291,18.21,0,0,0,255.51,255.51,0.01,403,0,74,323,139,145,7.76,100540,83.45
UTC 221221 121355 5 9 ,69,53.32784653,5.933256626,18.18,0,0,0,256.29,256.29,0.01,400,0,73,322,139,145,7.74,100523,83.45
UTC 221221 121356 5 9 ,70,53.32783508,5.933182716,18.17,0,0,0,256.33,256.33,0.01,400,0,73,323,139,146,7.72,100528,83.45
UTC 221221 121357 5 9 ,71,53.32782364,5.933110237,18.17,0,0,0,255.97,255.97,0.01,400,0,74,322,138,145,7.7,100533,83.45
UTC 221221 121358 5 9 ,72,53.32781219,5.933037281,18.16,0,0,0,256.12,256.12,0.01,416,2,73,322,138,145,7.69,100526,83.45
UTC 221221 121359 5 9 ,73,53.32780075,5.932962894,18.15,0,0,0,255.69,255.69,0.01,400,0,73,322,138,145,7.67,100534,83.45
UTC 221221 121359 5 9 ,74,53.32778931,5.932889462,18.14,0,0,0,256.02,256.02,0.01,402,0,73,323,138,145,7.66,100529,83.45
UTC 221221 121401 5 9 ,75,53.32777786,5.932814598,18.12,0,0,0,255.96,255.96,0.01,400,0,72,323,138,145,7.64,100532,83.45
UTC 221221 121401 5 9 ,76,53.32777023,5.932742119,18.09,0,0,0,255.18,255.18,0.01,402,0,72,323,137,144,7.63,100534,83.45
UTC 221221 121401 5 9 ,77,53.32775879,5.932682991,18.1,0,0,0,255.23,255.23,0.01,416,2,73,324,138,145,7.63,100541,83.45
UTC 221221 121401 5 9 ,78,53.3277626,5.932642937,18.07,0,0,0,286.54,286.54,0.01,416,2,72,324,138,145,7.65,100565,83.45
UTC 221221 121401 5 9 ,79,53.32778549,5.932612896,18.06,0,0,0,331.89,331.89,0.01,432,4,73,324,137,145,7.72,100575,83.45
UTC 221221 121401 5 9 ,80,53.32781219,5.932603359,18,0,0,0,348.91,348.91,0.01,424,3,73,324,138,145,7.8,100571,83.45
UTC 221221 121407 5 9 ,81,53.3278389,5.932623386,18.01,0,0,0,36.4,36.4,0.01,424,3,73,324,136,145,7.87,100603,75.07
UTC 221221 121408 5 9 ,82,53.32785416,5.93266964,18.01,0,0,0,74.1,74.1,0.01,432,4,72,324,137,144,7.94,100623,75.07
UTC 221221 121409 5 9 ,83,53.32786179,5.932718277,18.05,0,0,0,74.65,74.65,0.01,436,5,73,324,137,145,8.01,100624,75.07
UTC 221221 121409 5 9 ,84,53.3278656,5.932778359,18.08,0,0,0,75.74,75.74,0.01,444,6,73,323,136,145,8.08,100617,75.07
UTC 221221 121411 5 9 ,85,53.32787704,5.932849407,18.06,0,0,0,75.42,75.42,0.01,450,7,73,324,137,144,8.14,100619,75.07
UTC 221221 121412 5 9 ,86,53.32788849,5.93292141,18.07,0,0,0,75.9,75.9,0.01,444,6,72,324,136,144,8.19,100622,75.07
UTC 221221 121412 5 9 ,87,53.32789993,5.933000565,18.09,0,0,0,75.94,75.94,0.01,446,7,73,324,136,144,8.23,100616,75.07
UTC 221221 121412 5 9 ,88,53.32791138,5.933074951,18.12,0,0,0,75.97,75.97,0.01,446,7,72,324,136,144,8.28,100618,75.07
UTC 221221 121415 5 9 ,89,53.32791901,5.933146954,18.13,0,0,0,75.79,75.79,0.01,446,7,73,324,136,144,8.32,100615,75.07
UTC 221221 121416 5 9 ,90,53.32793045,5.933221817,18.16,0,0,0,76.07,76.07,0.01,463,9,72,323,136,144,8.36,100613,75.07
UTC 221221 121417 5 9 ,91,53.32794189,5.933294296,18.21,0,0,0,75.92,75.92,0.01,450,7,72,324,136,144,8.41,100613,75.07
UTC 221221 121418 5 9 ,92,53.32795334,5.933367252,18.23,0,0,0,76.01,76.01,0.01,455,8,72,323,136,144,8.44,100609,75.07
UTC 221221 121419 5 9 ,93,53.32796478,5.933440208,18.23,0,0,0,76.19,76.19,0.01,455,8,72,323,136,144,8.48,100617,75.07
UTC 221221 121420 5 9 ,94,53.32797241,5.933509827,18.26,0,0,0,75.79,75.79,0.01,455,8,71,323,135,144,8.51,100621,75.07
UTC 221221 121421 5 9 ,95,53.32798386,5.933581829,18.28,0,0,0,75.84,75.84,0.01,463,9,72,323,135,144,8.53,100620,75.07
UTC 221221 121422 5 9 ,96,53.3279953,5.933657646,18.3,0,0,0,75.94,75.94,0.01,461,9,73,324,135,144,8.57,100618,75.07
UTC 221221 121423 5 9 ,97,53.32800674,5.933727264,18.33,0,0,0,75.89,75.89,0.01,459,8,73,324,135,143,8.57,100614,75.07
UTC 221221 121423 5 9 ,98,53.32801819,5.933803082,18.35,0,0,0,75.92,75.92,0.01,459,8,73,323,135,144,8.59,100618,75.07
UTC 221221 121425 5 9 ,99,53.32802963,5.933876991,18.38,0,0,0,75.97,75.97,0.01,459,8,72,324,135,144,8.61,100612,75.07
UTC 221221 121426 5 9 ,100,53.32804108,5.933950901,18.41,0,0,0,76.1,76.1,0.01,465,9,73,324,135,144,8.62,100614,75.07
UTC 221221 121427 5 9 ,101,53.32805252,5.934024811,18.42,0,0,0,76.05,76.05,0.01,463,9,73,323,134,143,8.65,100609,75.07
UTC 221221 121428 5 9 ,102,53.32806015,5.934098244,18.44,0,0,0,75.97,75.97,0.01,461,9,72,323,134,144,8.68,100610,75.07
UTC 221221 121429 5 9 ,103,53.32807159,5.9341712,18.46,0,0,0,75.99,75.99,0.01,459,8,73,323,135,144,8.71,100612,75.07
UTC 221221 121430 5 9 ,104,53.32808304,5.934243202,18.48,0,0,0,75.89,75.89,0.01,461,9,72,323,134,144,8.74,100617,75.07
UTC 221221 121431 5 9 ,105,53.32809448,5.934317112,18.49,0,0,0,76.01,76.01,0.01,461,9,72,324,134,144,8.75,100619,75.07
UTC 221221 121432 5 9 ,106,53.32810593,5.934389591,18.52,0,0,0,76.02,76.02,0.01,472,10,72,323,134,143,8.76,100615,75.07
UTC 221221 121433 5 9 ,107,53.32811737,5.934460163,18.55,0,0,0,75.99,75.99,0.01,459,8,72,323,134,143,8.77,100613,75.07
UTC 221221 121434 5 9 ,108,53.32812881,5.934536457,18.58,0,0,0,75.99,75.99,0.01,459,8,72,323,133,144,8.78,100612,75.07
UTC 221221 121435 5 9 ,109,53.32813644,5.93460846,18.61,0,0,0,75.97,75.97,0.01,461,9,72,324,134,144,8.79,100607,75.07
UTC 221221 121436 5 9 ,110,53.32814789,5.934679031,18.62,0,0,0,75.99,75.99,0.01,463,9,72,324,133,144,8.79,100609,75.07
UTC 221221 121437 5 9 ,111,53.32815933,5.934751511,18.63,0,0,0,75.78,75.78,0.01,481,12,72,324,133,144,8.81,100610,75.07
UTC 221221 121438 5 9 ,112,53.32817078,5.93482399,18.65,0,0,0,75.89,75.89,0.01,465,9,73,324,134,144,8.82,100607,75.07
UTC 221221 121438 5 9 ,113,53.32818222,5.934900284,18.67,0,0,0,75.72,75.72,0.01,463,9,72,324,133,144,8.81,100605,75.07
UTC 221221 121438 5 9 ,114,53.32818985,5.934972286,18.69,0,0,0,75.78,75.78,0.01,461,9,72,324,134,145,8.81,100606,75.07
UTC 221221 121441 5 9 ,115,53.32820129,5.93504858,18.71,0,0,0,76.52,76.52,0.01,463,9,73,324,133,145,8.83,100606,75.07
UTC 221221 121442 5 9 ,116,53.32821274,5.93512249,18.72,0,0,0,76.17,76.17,0.01,477,11,72,324,134,145,8.85,100609,75.07
UTC 221221 121443 5 9 ,117,53.32822418,5.935195446,18.74,0,0,0,76.09,76.09,0.01,477,11,73,324,133,144,8.85,100607,75.07
UTC 221221 121444 5 9 ,118,53.32823563,5.935267925,18.76,0,0,0,75.9,75.9,0.01,465,9,73,324,133,144,8.87,100609,75.07
UTC 221221 121445 5 9 ,119,53.32824707,5.935340881,18.8,0,0,0,76.02,76.02,0.01,465,9,72,324,133,145,8.88,100602,75.07
UTC 221221 121446 5 9 ,120,53.32825851,5.935412884,18.8,0,0,0,75.68,75.68,0.01,472,10,72,324,132,145,8.88,100607,75.07
UTC 221221 121447 5 9 ,121,53.32826614,5.93547678,18.82,0,0,0,76.6,76.6,0.01,477,11,72,324,133,144,8.88,100601,75.07
UTC 221221 121448 5 9 ,122,53.32827759,5.935513973,18.8,0,0,0,55.32,55.32,0.01,477,11,73,324,133,144,8.88,100602,75.07
UTC 221221 121449 5 9 ,123,53.32830048,5.935527325,18.87,0,0,0,5.54,5.54,0.01,477,11,73,324,133,145,8.9,100602,75.07
UTC 221221 121450 5 9 ,124,53.32832718,5.93551302,18.88,0,0,0,343.48,343.48,0.01,465,9,73,324,132,145,8.91,100583,83.45
UTC 221221 121451 5 9 ,125,53.32835007,5.935480595,18.9,0,0,0,306.98,306.98,0.01,472,10,73,324,133,144,8.95,100571,83.45
UTC 221221 121452 5 9 ,126,53.32835388,5.93543148,18.9,0,0,0,263.46,263.46,0,465,9,74,324,133,145,8.89,100563,83.45
UTC 221221 121453 5 9 ,127,53.32835007,5.935381889,18.89,0,0,0,256.34,256.34,0,477,11,73,324,133,145,8.82,100565,83.45
UTC 221221 121454 5 9 ,128,53.32833862,5.935323238,18.87,0,0,0,255.56,255.56,0,450,7,73,324,132,145,8.74,100561,83.45
UTC 221221 121455 5 9 ,129,53.32833099,5.935256004,18.88,0,0,0,255.18,255.18,0,446,7,73,324,132,145,8.67,100560,83.45
UTC 221221 121456 5 9 ,130,53.32831955,5.935185909,18.86,0,0,0,254.71,254.71,0,444,6,72,324,132,145,8.58,100555,83.45
UTC 221221 121457 5 9 ,131,53.32830811,5.935110092,18.79,0,0,0,255.09,255.09,0,444,6,73,325,132,145,8.5,100544,83.45
UTC 221221 121458 5 9 ,132,53.32829666,5.935032368,18.84,0,0,0,255.43,255.43,0,455,8,73,324,132,145,8.42,100548,83.45
UTC 221221 121459 5 9 ,133,53.32828522,5.934958935,18.79,0,0,0,256.6,256.6,0,432,4,72,324,132,144,8.36,100539,83.45
UTC 221221 121500 5 9 ,134,53.32827377,5.934886932,18.79,0,0,0,256.13,256.13,0,424,3,72,324,131,144,8.27,100534,83.45
UTC 221221 121501 5 9 ,135,53.32826614,5.934813976,18.76,0,0,0,256.42,256.42,0,424,3,71,323,132,144,8.2,100528,83.45
UTC 221221 121502 5 9 ,136,53.3282547,5.934742451,18.75,0,0,0,255.79,255.79,0,421,3,71,323,131,144,8.13,100531,83.45
UTC 221221 121503 5 9 ,137,53.32824326,5.934669972,18.75,0,0,0,255.74,255.74,0,424,3,71,323,131,144,8.06,100529,83.45
UTC 221221 121504 5 9 ,138,53.32823181,5.934597492,18.72,0,0,0,256.16,256.16,0,420,3,70,322,130,144,8,100524,83.45
UTC 221221 121505 5 9 ,139,53.32822037,5.934525967,18.68,0,0,0,256.34,256.34,0,411,1,70,324,130,144,7.93,100520,83.45
UTC 221221 121506 5 9 ,140,53.32820892,5.934452534,18.69,0,0,0,255.91,255.91,0,409,1,70,324,131,143,7.87,100518,83.45
UTC 221221 121507 5 9 ,141,53.32819748,5.934378147,18.67,0,0,0,255.86,255.86,0,409,1,70,324,131,144,7.82,100529,83.45
UTC 221221 121508 5 9 ,142,53.32818604,5.934303761,18.64,0,0,0,255.8,255.8,0,411,1,69,325,131,144,7.78,100530,83.45
UTC 221221 121509 5 9 ,143,53.32817459,5.934231281,18.63,0,0,0,255.32,255.32,0,411,1,69,324,130,144,7.72,100530,83.45
UTC 221221 121510 5 9 ,144,53.32816315,5.934157372,18.62,0,0,0,255.64,255.64,0,402,0,69,325,131,144,7.69,100534,83.45
UTC 221221 121511 5 9 ,145,53.3281517,5.934082985,18.58,0,0,0,255.72,255.72,0,406,0,68,324,130,144,7.65,100537,83.45
UTC 221221 121512 5 9 ,146,53.32814407,5.934010029,18.54,0,0,0,256.09,256.09,0,400,0,69,324,131,144,7.62,100536,83.45
UTC 221221 121513 5 9 ,147,53.32813263,5.933937073,18.59,0,0,0,254.96,254.96,0,402,0,69,325,130,144,7.59,100549,83.45
UTC 221221 121514 5 9 ,148,53.32811737,5.93386364,18.6,0,0,0,254.29,254.29,0,413,1,68,325,130,143,7.54,100554,83.45
UTC 221221 121515 5 9 ,149,53.32810974,5.933791161,18.56,0,0,0,255.17,255.17,0.01,407,1,69,325,130,143,7.5,100548,83.45
UTC 221221 121516 5 9 ,150,53.3280983,5.933719635,18.55,0,0,0,255.23,255.23,0.01,413,1,68,325,130,144,7.48,100550,83.45
UTC 221221 121517 5 9 ,151,53.32808685,5.933646202,18.52,0,0,0,255.64,255.64,0.01,409,1,69,325,130,144,7.47,100551,83.45
UTC 221221 121518 5 9 ,152,53.32807541,5.933572292,18.48,0,0,0,255.8,255.8,0.01,418,2,69,325,129,144,7.47,100550,83.45
UTC 221221 121519 5 9 ,153,53.32806778,5.933496475,18.46,0,0,0,256.42,256.42,0.01,427,4,68,325,130,144,7.47,100542,83.45
UTC 221221 121520 5 9 ,154,53.32805634,5.933426857,18.44,0,0,0,255.43,255.43,0.01,416,2,68,325,129,144,7.46,100539,83.45
UTC 221221 121521 5 9 ,155,53.32804489,5.933353424,18.45,0,0,0,256.09,256.09,0.01,418,2,69,324,130,144,7.47,100545,83.45
UTC 221221 121522 5 9 ,156,53.32803345,5.933277607,18.41,0,0,0,255.71,255.71,0.01,418,2,68,324,129,144,7.47,100542,83.45
UTC 221221 121523 5 9 ,157,53.328022,5.933204651,18.39,0,0,0,255.62,255.62,0.01,418,2,68,325,129,144,7.46,100542,83.45
UTC 221221 121524 5 9 ,158,53.32801056,5.933131695,18.35,0,0,0,255.82,255.82,0.01,418,2,69,325,129,143,7.45,100542,83.45
UTC 221221 121525 5 9 ,159,53.32800293,5.933058262,18.34,0,0,0,255.28,255.28,0.01,416,2,68,324,129,144,7.44,100547,83.45
UTC 221221 121526 5 9 ,160,53.32798767,5.932985306,18.33,0,0,0,255.3,255.3,0.01,423,3,68,325,129,144,7.43,100549,83.45
UTC 221221 121527 5 9 ,161,53.32798004,5.932911396,18.32,0,0,0,255.86,255.86,0.01,427,4,68,324,128,143,7.43,100544,83.45
UTC 221221 121528 5 9 ,162,53.3279686,5.93283844,18.31,0,0,0,255.79,255.79,0.01,423,3,68,325,129,143,7.44,100548,83.45
UTC 221221 121529 5 9 ,163,53.32795715,5.932765484,18.3,0,0,0,255.43,255.43,0.01,418,2,68,325,129,143,7.43,100545,83.45
UTC 221221 121530 5 9 ,164,53.32794571,5.932693481,18.28,0,0,0,255.78,255.78,0.01,418,2,68,325,128,144,7.43,100543,83.45
UTC 221221 121531 5 9 ,165,53.32793808,5.932625294,18.27,0,0,0,254.45,254.45,0.01,426,3,68,324,128,143,7.43,100546,83.45
UTC 221221 121532 5 9 ,166,53.32793427,5.932584286,18.25,0,0,0,265.89,265.89,0.01,439,5,68,325,128,143,7.43,100552,83.45
UTC 221221 121533 5 9 ,167,53.32794571,5.932546139,18.25,0,0,0,311.44,311.44,0.01,433,5,68,325,129,144,7.47,100574,83.45
UTC 221221 121534 5 9 ,168,53.32797623,5.932528019,18.22,0,0,0,342.04,342.04,0.01,444,6,68,325,128,144,7.56,100577,83.45
UTC 221221 121535 5 9 ,169,53.32800293,5.932531834,18.26,0,0,0,12.76,12.76,0.01,444,6,67,324,128,143,7.63,100589,83.45
UTC 221221 121536 5 9 ,170,53.328022,5.932567596,18.28,0,0,0,60.74,60.74,0.01,447,7,68,325,128,144,7.68,100619,75.07
UTC 221221 121537 5 9 ,171,53.32803345,5.932617664,18.3,0,0,0,74.88,74.88,0.01,462,9,68,325,129,144,7.75,100618,75.07
UTC 221221 121538 5 9 ,172,53.32803726,5.932671547,18.33,0,0,0,75.62,75.62,0.01,462,9,69,325,128,143,7.81,100614,75.07
UTC 221221 121539 5 9 ,173,53.32804489,5.932740688,18.34,0,0,0,75.6,75.6,0.01,457,8,69,325,128,144,7.85,100613,75.07
UTC 221221 121539 5 9 ,174,53.32805634,5.93280983,18.35,0,0,0,75.51,75.51,0.01,462,9,69,325,128,143,7.89,100617,75.07
UTC 221221 121541 5 9 ,175,53.32806778,5.932885647,18.38,0,0,0,75.95,75.95,0.01,465,9,69,324,128,143,7.95,100613,75.07
UTC 221221 121542 5 9 ,176,53.32807922,5.932960033,18.42,0,0,0,75.61,75.61,0.01,470,10,69,325,127,144,7.99,100612,75.07
UTC 221221 121543 5 9 ,177,53.32809067,5.93303442,18.46,0,0,0,75.9,75.9,0.01,473,11,69,325,127,143,8.04,100614,75.07
UTC 221221 121544 5 9 ,178,53.3280983,5.933107376,18.49,0,0,0,76.04,76.04,0.01,465,9,69,324,127,144,8.08,100609,75.07
UTC 221221 121545 5 9 ,179,53.32810974,5.933179379,18.51,0,0,0,75.81,75.81,0.01,465,9,69,324,127,143,8.12,100614,75.07
UTC 221221 121546 5 9 ,180,53.32812119,5.933253765,18.55,0,0,0,75.82,75.82,0.01,470,10,69,324,127,143,8.16,100613,75.07
UTC 221221 121547 5 9 ,181,53.32813263,5.933328629,18.58,0,0,0,75.94,75.94,0.01,473,11,68,324,127,143,8.2,100611,75.07
UTC 221221 121548 5 9 ,182,53.32814407,5.933401585,18.61,0,0,0,75.77,75.77,0.01,476,11,68,324,127,143,8.24,100615,75.07
UTC 221221 121549 5 9 ,183,53.32815552,5.933475018,18.64,0,0,0,75.95,75.95,0.01,470,10,68,324,126,143,8.27,100613,75.07
UTC 221221 121549 5 9 ,184,53.32816696,5.933547497,18.63,0,0,0,75.72,75.72,0.01,465,9,68,324,127,143,8.29,100614,75.07
UTC 221221 121551 5 9 ,185,53.32817841,5.933621407,18.63,0,0,0,76.2,76.2,0.01,465,9,68,324,126,143,8.33,100614,75.07
UTC 221221 121552 5 9 ,186,53.32818985,5.93369627,18.65,0,0,0,76.03,76.03,0.01,465,9,68,324,126,143,8.37,100613,75.07
UTC 221221 121552 5 9 ,187,53.32819748,5.933769226,18.68,0,0,0,76.21,76.21,0.01,480,12,68,324,126,143,8.41,100617,75.07
UTC 221221 121552 5 9 ,188,53.32820892,5.933841229,18.69,0,0,0,75.92,75.92,0.01,465,9,68,324,126,142,8.44,100611,75.07
UTC 221221 121555 5 9 ,189,53.32822037,5.933913231,18.71,0,0,0,75.92,75.92,0.01,470,10,67,324,126,142,8.47,100615,75.07
UTC 221221 121556 5 9 ,190,53.32823181,5.933987618,18.73,0,0,0,76.1,76.1,0.01,470,10,68,324,126,143,8.49,100609,75.07
UTC 221221 121557 5 9 ,191,53.32823944,5.934058666,18.74,0,0,0,75.99,75.99,0.01,470,10,68,324,126,143,8.51,100611,75.07
UTC 221221 121558 5 9 ,192,53.32825089,5.934130192,18.76,0,0,0,76.07,76.07,0.01,480,12,68,324,126,143,8.52,100605,75.07
UTC 221221 121559 5 9 ,193,53.32826233,5.934206486,18.78,0,0,0,76,76,0.01,473,11,67,324,126,142,8.54,100606,75.07
UTC 221221 121600 5 9 ,194,53.32827377,5.934279442,18.81,0,0,0,76.09,76.09,0.01,470,10,67,324,126,143,8.55,100605,75.07
UTC 221221 121601 5 9 ,195,53.32828522,5.934352875,18.85,0,0,0,75.9,75.9,0.01,473,11,68,324,125,143,8.56,100608,75.07
UTC 221221 121602 5 9 ,196,53.32829666,5.934423447,18.86,0,0,0,76.04,76.04,0.01,473,11,68,324,125,143,8.58,100609,75.07
UTC 221221 121602 5 9 ,197,53.32830811,5.934498787,18.88,0,0,0,76.09,76.09,0.01,476,11,68,324,125,143,8.58,100611,75.07
UTC 221221 121604 5 9 ,198,53.32831955,5.93457222,18.88,0,0,0,76.15,76.15,0.01,480,12,67,324,125,143,8.6,100612,75.07
UTC 221221 121605 5 9 ,199,53.32833099,5.934644699,18.89,0,0,0,75.91,75.91,0.01,470,10,67,324,125,143,8.62,100614,75.07
UTC 221221 121606 5 9 ,200,53.32833862,5.934717178,18.9,0,0,0,76.07,76.07,0.01,470,10,67,324,125,143,8.62,100611,75.07
UTC 221221 121607 5 9 ,201,53.32835007,5.934790611,18.94,0,0,0,76.01,76.01,0.01,470,10,67,324,124,143,8.64,100606,75.07
UTC 221221 121608 5 9 ,202,53.32836151,5.934864998,18.96,0,0,0,75.86,75.86,0.01,473,11,67,324,125,144,8.64,100603,75.07
UTC 221221 121609 5 9 ,203,53.32837296,5.93493557,18.97,0,0,0,75.66,75.66,0.01,485,12,68,325,125,143,8.63,100604,75.07
UTC 221221 121610 5 9 ,204,53.3283844,5.93501091,18.99,0,0,0,75.98,75.98,0.01,470,10,67,324,124,143,8.62,100609,75.07
UTC 221221 121611 5 9 ,205,53.32839203,5.935081959,19.05,0,0,0,75.55,75.55,0.01,470,10,68,325,125,144,8.64,100604,75.07
UTC 221221 121612 5 9 ,206,53.32840347,5.935155869,19.05,0,0,0,75.92,75.92,0.01,470,10,68,325,125,143,8.64,100603,75.07
UTC 221221 121613 5 9 ,207,53.32841492,5.935230255,19.07,0,0,0,75.88,75.88,0.01,476,11,68,324,125,143,8.65,100604,75.07
UTC 221221 121614 5 9 ,208,53.32842636,5.935304642,19.07,0,0,0,75.78,75.78,0.01,488,13,68,324,125,143,8.67,100603,75.07
UTC 221221 121615 5 9 ,209,53.32843781,5.93537426,19.11,0,0,0,76.97,76.97,0.01,476,11,68,324,125,143,8.67,100605,75.07
UTC 221221 121616 5 9 ,210,53.32844543,5.935422421,19.1,0,0,0,71.23,71.23,0.01,476,11,68,324,125,143,8.69,100606,75.07
UTC 221221 121617 5 9 ,211,53.32846451,5.9354496,19.15,0,0,0,25.83,25.83,0.01,470,10,67,322,125,143,8.7,100579,83.45
UTC 221221 121618 5 9 ,212,53.32849503,5.935445309,19.22,0,0,0,345.69,345.69,0.01,462,9,67,325,125,144,8.68,100563,83.45
UTC 221221 121619 5 9 ,213,53.32851791,5.935423374,19.27,0,0,0,327.34,327.34,0.01,462,9,68,324,124,144,8.69,100563,83.45
UTC 221221 121620 5 9 ,214,53.32853317,5.935375214,19.28,0,0,0,280.25,280.25,0.01,462,9,67,324,125,143,8.73,100540,83.45
UTC 221221 121621 5 9 ,215,53.32852936,5.935327053,19.32,0,0,0,257.98,257.98,0.01,451,7,68,324,125,143,8.59,100521,83.45
UTC 221221 121622 5 9 ,216,53.32852173,5.935274601,19.32,0,0,0,256.37,256.37,0.01,447,7,67,324,123,143,8.48,100532,83.45
UTC 221221 121623 5 9 ,217,53.32851028,5.935214996,19.31,0,0,0,256.48,256.48,0.01,444,6,67,324,123,144,8.39,100534,83.45
UTC 221221 121624 5 9 ,218,53.32849884,5.935142994,19.24,0,0,0,256.81,256.81,0.01,444,6,67,324,124,143,8.31,100518,83.45
UTC 221221 121625 5 9 ,219,53.32849121,5.935072899,19.22,0,0,0,255.91,255.91,0.01,439,5,66,323,124,144,8.23,100522,83.45
UTC 221221 121626 5 9 ,220,53.32847977,5.934994221,19.21,0,0,0,256.61,256.61,0.01,426,3,66,325,124,143,8.15,100509,83.45
UTC 221221 121627 5 9 ,221,53.32846451,5.934920788,19.23,0,0,0,255.66,255.66,0,426,3,66,324,124,143,8.09,100525,83.45
UTC 221221 121628 5 9 ,222,53.32845306,5.934847832,19.2,0,0,0,255.17,255.17,0,423,3,66,324,123,143,8.03,100520,83.45
UTC 221221 121629 5 9 ,223,53.32844162,5.934774399,19.16,0,0,0,254.53,254.53,0,423,3,65,324,123,142,7.96,100540,83.45
UTC 221221 121630 5 9 ,224,53.32843018,5.934701443,19.15,0,0,0,254.82,254.82,0,426,3,66,325,124,143,7.89,100536,83.45
UTC 221221 121631 5 9 ,225,53.32841873,5.934631825,19.11,0,0,0,255.48,255.48,0,413,1,66,325,123,143,7.83,100528,83.45
UTC 221221 121632 5 9 ,226,53.32840729,5.934556007,19.09,0,0,0,255.88,255.88,0,413,1,66,325,124,143,7.77,100519,83.45
UTC 221221 121633 5 9 ,227,53.32839966,5.934483051,19.05,0,0,0,256.46,256.46,0,413,1,66,323,123,143,7.72,100525,83.45
UTC 221221 121634 5 9 ,228,53.32838821,5.934410095,19.03,0,0,0,256.45,256.45,0,413,1,65,325,123,142,7.68,100523,83.45
UTC 221221 121635 5 9 ,229,53.32837677,5.934335709,19.01,0,0,0,256.27,256.27,0,418,2,65,325,123,143,7.65,100529,83.45
UTC 221221 121636 5 9 ,230,53.32836533,5.934260845,19,0,0,0,255.81,255.81,0,418,2,65,324,123,142,7.63,100534,83.45
UTC 221221 121637 5 9 ,231,53.32835388,5.934186459,18.98,0,0,0,255.69,255.69,0,416,2,65,325,123,143,7.61,100532,83.45
UTC 221221 121638 5 9 ,232,53.32834625,5.934116364,18.93,0,0,0,256.03,256.03,0,416,2,65,324,123,143,7.59,100526,83.45
UTC 221221 121639 5 9 ,233,53.32833481,5.9340415,18.88,0,0,0,256.27,256.27,0,413,1,65,324,123,143,7.56,100519,83.45
UTC 221221 121640 5 9 ,234,53.32832336,5.933970451,18.88,0,0,0,256.35,256.35,0,416,2,65,325,122,142,7.53,100527,83.45
UTC 221221 121641 5 9 ,235,53.32831192,5.93389988,18.89,0,0,0,255.75,255.75,0.01,413,1,65,326,122,142,7.49,100521,83.45
UTC 221221 121642 5 9 ,236,53.32830048,5.933824062,18.85,0,0,0,256.24,256.24,0.01,409,1,65,325,123,143,7.46,100521,83.45
UTC 221221 121643 5 9 ,237,53.32828903,5.933753967,18.8,0,0,0,256.14,256.14,0.01,407,1,64,324,122,142,7.44,100527,83.45
UTC 221221 121644 5 9 ,238,53.32827759,5.933677197,18.78,0,0,0,256.24,256.24,0.01,407,1,64,326,123,142,7.43,100531,83.45
UTC 221221 121645 5 9 ,239,53.32826614,5.933601856,18.79,0,0,0,255.96,255.96,0.01,407,1,64,326,122,142,7.42,100525,83.45
UTC 221221 121646 5 9 ,240,53.32825851,5.933528423,18.76,0,0,0,255.82,255.82,0.01,407,1,64,325,123,143,7.4,100534,83.45
UTC 221221 121647 5 9 ,241,53.32824707,5.933459759,18.75,0,0,0,255.67,255.67,0.01,409,1,64,324,122,143,7.4,100533,83.45
UTC 221221 121648 5 9 ,242,53.32823563,5.933382511,18.73,0,0,0,255.82,255.82,0.01,423,3,64,325,122,143,7.39,100534,83.45
UTC 221221 121649 5 9 ,243,53.32822418,5.933310032,18.67,0,0,0,255.58,255.58,0.01,413,1,64,325,122,142,7.38,100537,83.45
UTC 221221 121650 5 9 ,244,53.32821274,5.93323803,18.64,0,0,0,256.03,256.03,0.01,413,1,63,325,122,142,7.38,100535,83.45
UTC 221221 121651 5 9 ,245,53.32820129,5.93316412,18.61,0,0,0,255.75,255.75,0.01,413,1,63,325,122,143,7.37,100534,83.45
UTC 221221 121652 5 9 ,246,53.32818985,5.933090687,18.59,0,0,0,255.61,255.61,0.01,413,1,64,325,122,142,7.36,100536,83.45
UTC 221221 121653 5 9 ,247,53.32817841,5.933016777,18.57,0,0,0,255.52,255.52,0.01,418,2,64,325,122,143,7.35,100541,83.45
UTC 221221 121654 5 9 ,248,53.32816696,5.932943344,18.56,0,0,0,255.31,255.31,0.01,416,2,63,326,121,142,7.35,100545,83.45
UTC 221221 121655 5 9 ,249,53.32815552,5.932870388,18.53,0,0,0,255.1,255.1,0.01,409,1,63,326,122,143,7.35,100545,83.45
UTC 221221 121656 5 9 ,250,53.32814407,5.932797432,18.51,0,0,0,254.74,254.74,0.01,407,1,63,326,121,143,7.33,100551,83.45
UTC 221221 121657 5 9 ,251,53.32813263,5.932724476,18.47,0,0,0,255.88,255.88,0.01,413,1,63,325,121,142,7.32,100536,83.45
UTC 221221 121658 5 9 ,252,53.328125,5.932651997,18.43,0,0,0,255.96,255.96,0.01,416,2,63,325,121,143,7.32,100544,83.45
UTC 221221 121659 5 9 ,253,53.32811356,5.932579041,18.4,0,0,0,255.24,255.24,0.01,418,2,63,326,121,142,7.31,100542,83.45
UTC 221221 121700 5 9 ,254,53.32810593,5.932521343,18.4,0,0,0,255.41,255.41,0.01,416,2,63,325,121,143,7.32,100548,83.45
UTC 221221 121701 5 9 ,255,53.32810593,5.932480812,18.39,0,0,0,286.89,286.89,0.01,423,3,64,325,121,142,7.34,100569,83.45
UTC 221221 121702 5 9 ,256,53.32813263,5.932451248,18.32,0,0,0,333.43,333.43,0.01,433,5,64,326,121,143,7.41,100583,83.45
UTC 221221 121703 5 9 ,257,53.32815933,5.932442665,18.26,0,0,0,349.27,349.27,0.01,427,4,64,326,121,143,7.49,100585,83.45
UTC 221221 121704 5 9 ,258,53.32818604,5.932462215,18.27,0,0,0,36.62,36.62,0.01,454,8,64,326,121,143,7.54,100617,75.07
UTC 221221 121705 5 9 ,259,53.32819748,5.932506084,18.29,0,0,0,73.46,73.46,0.01,444,6,65,326,121,143,7.61,100617,75.07
UTC 221221 121706 5 9 ,260,53.32820511,5.932552338,18.35,0,0,0,75.24,75.24,0.01,447,7,65,326,121,143,7.67,100612,75.07
UTC 221221 121707 5 9 ,261,53.32821274,5.932608604,18.35,0,0,0,75.46,75.46,0.01,451,7,65,326,120,143,7.71,100614,75.07
UTC 221221 121708 5 9 ,262,53.32822037,5.932673931,18.38,0,0,0,75.54,75.54,0.01,454,8,65,325,121,142,7.76,100617,75.07
UTC 221221 121709 5 9 ,263,53.32823181,5.932741642,18.39,0,0,0,75.66,75.66,0.01,465,9,65,325,120,143,7.82,100620,75.07
UTC 221221 121710 5 9 ,264,53.32824326,5.932816029,18.43,0,0,0,75.91,75.91,0.01,465,9,66,325,121,142,7.88,100615,75.07
UTC 221221 121711 5 9 ,265,53.3282547,5.932893753,18.47,0,0,0,75.78,75.78,0.01,462,9,65,325,120,142,7.92,100619,75.07
UTC 221221 121712 5 9 ,266,53.32826614,5.93296814,18.5,0,0,0,75.9,75.9,0.01,462,9,65,325,121,142,7.97,100620,75.07
UTC 221221 121713 5 9 ,267,53.32827759,5.933041096,18.53,0,0,0,75.76,75.76,0.01,462,9,65,325,120,142,8.01,100620,75.07
UTC 221221 121714 5 9 ,268,53.32828903,5.933113575,18.59,0,0,0,75.82,75.82,0.01,470,10,65,324,120,142,8.04,100614,75.07
UTC 221221 121715 5 9 ,269,53.32829666,5.933187962,18.61,0,0,0,76.12,76.12,0.01,470,10,65,325,120,142,8.09,100617,75.07
UTC 221221 121716 5 9 ,270,53.32830811,5.933261871,18.65,0,0,0,76.11,76.11,0.01,462,9,65,324,120,142,8.14,100615,75.07
UTC 221221 121716 5 9 ,271,53.32831955,5.933334827,18.69,0,0,0,76.02,76.02,0.01,462,9,65,325,120,142,8.17,100614,75.07
UTC 221221 121716 5 9 ,272,53.32832718,5.933404446,18.72,0,0,0,76.03,76.03,0.01,462,9,65,325,119,142,8.2,100614,75.07
UTC 221221 121719 5 9 ,273,53.32833862,5.933478355,18.79,0,0,0,76,76,0.01,470,10,64,325,119,141,8.23,100606,75.07
UTC 221221 121720 5 9 ,274,53.32835007,5.933552742,18.81,0,0,0,75.85,75.85,0.01,480,12,65,324,120,142,8.25,100609,75.07
UTC 221221 121721 5 9 ,275,53.32836151,5.933625698,18.84,0,0,0,75.9,75.9,0.01,470,10,65,325,119,142,8.28,100606,75.07
UTC 221221 121722 5 9 ,276,53.32837296,5.933697224,18.86,0,0,0,76.03,76.03,0.01,470,10,64,324,120,143,8.3,100615,75.07
UTC 221221 121723 5 9 ,277,53.3283844,5.933772564,18.9,0,0,0,75.81,75.81,0.01,470,10,64,325,119,141,8.33,100606,75.07
UTC 221221 121724 5 9 ,278,53.32839584,5.933845997,18.92,0,0,0,75.85,75.85,0.01,470,10,64,325,120,142,8.36,100611,75.07
UTC 221221 121725 5 9 ,279,53.32840729,5.933918953,18.95,0,0,0,76.29,76.29,0.01,480,12,64,325,119,141,8.4,100617,75.07
UTC 221221 121726 5 9 ,280,53.32841873,5.933992386,18.98,0,0,0,76.04,76.04,0.01,470,10,64,324,119,143,8.41,100612,75.07
UTC 221221 121727 5 9 ,281,53.32842636,5.934065819,19.03,0,0,0,75.91,75.91,0.01,470,10,64,324,119,142,8.42,100613,75.07
UTC 221221 121728 5 9 ,282,53.32843781,5.934138298,19.07,0,0,0,75.94,75.94,0.01,465,9,64,324,119,141,8.44,100610,75.07
UTC 221221 121729 5 9 ,283,53.32844925,5.934211254,19.12,0,0,0,76.47,76.47,0.01,470,10,64,325,119,142,8.45,100602,75.07
UTC 221221 121730 5 9 ,284,53.32845688,5.93428278,19.14,0,0,0,75.65,75.65,0.01,480,12,65,325,119,143,8.45,100603,75.07
UTC 221221 121731 5 9 ,285,53.32846832,5.93435812,19.16,0,0,0,75.91,75.91,0.01,476,11,64,325,119,142,8.46,100602,75.07
UTC 221221 121732 5 9 ,286,53.32847977,5.934432507,19.2,0,0,0,76.04,76.04,0.01,473,11,65,325,119,142,8.49,100605,75.07
UTC 221221 121733 5 9 ,287,53.32849121,5.934506893,19.24,0,0,0,75.84,75.84,0.01,473,11,65,325,119,142,8.51,100602,75.07
UTC 221221 121734 5 9 ,288,53.32850266,5.934579849,19.26,0,0,0,75.95,75.95,0.01,473,11,64,325,119,142,8.51,100605,75.07
UTC 221221 121735 5 9 ,289,53.3285141,5.934652329,19.3,0,0,0,75.97,75.97,0.01,485,12,64,324,119,142,8.53,100604,75.07
UTC 221221 121736 5 9 ,290,53.32852554,5.934724331,19.33,0,0,0,76.07,76.07,0.01,485,12,65,325,119,142,8.55,100604,75.07
UTC 221221 121737 5 9 ,291,53.32853699,5.93479681,19.37,0,0,0,76.19,76.19,0.01,476,11,64,325,118,142,8.57,100603,75.07
UTC 221221 121737 5 9 ,292,53.32854843,5.934869766,19.41,0,0,0,76.07,76.07,0.01,476,11,65,325,118,142,8.59,100606,75.07
UTC 221221 121737 5 9 ,293,53.32855988,5.934942722,19.43,0,0,0,75.49,75.49,0.01,476,11,64,325,118,142,8.6,100611,75.07
UTC 221221 121740 5 9 ,294,53.32857132,5.935015202,19.47,0,0,0,75.92,75.92,0.01,480,12,65,325,119,143,8.61,100605,75.07
UTC 221221 121741 5 9 ,295,53.32857895,5.935088158,19.49,0,0,0,76.24,76.24,0.01,492,14,65,325,119,142,8.63,100604,75.07
UTC 221221 121742 5 9 ,296,53.32859039,5.935161591,19.53,0,0,0,75.71,75.71,0.01,476,11,65,325,118,142,8.64,100602,75.07
UTC 221221 121743 5 9 ,297,53.32860184,5.9352355,19.55,0,0,0,76.3,76.3,0.01,476,11,65,324,118,142,8.66,100608,75.07
UTC 221221 121744 5 9 ,298,53.32861328,5.935306549,19.58,0,0,0,77.49,77.49,0.01,470,10,65,325,118,142,8.67,100611,75.07
UTC 221221 121744 5 9 ,299,53.32862091,5.935349941,19.62,0,0,0,67.07,67.07,0.01,473,11,65,324,119,142,8.69,100606,75.07
UTC 221221 121746 5 9 ,300,53.3286438,5.935373306,19.71,0,0,0,19.73,19.73,0.01,485,12,64,322,118,142,8.69,100572,83.45
UTC 221221 121747 5 9 ,301,53.3286705,5.935364723,19.82,0,0,0,344.33,344.33,0.01,465,9,65,325,118,142,8.68,100557,83.45
UTC 221221 121748 5 9 ,302,53.32869339,5.935339928,19.91,0,0,0,322.05,322.05,0.01,465,9,65,325,118,142,8.69,100558,83.45
UTC 221221 121749 5 9 ,303,53.32870483,5.93529129,19.94,0,0,0,276.59,276.59,0.01,462,9,65,324,118,143,8.67,100531,83.45
UTC 221221 121750 5 9 ,304,53.32870102,5.93524456,19.93,0,0,0,257.48,257.48,0.01,451,7,65,325,118,142,8.53,100533,83.45
UTC 221221 121751 5 9 ,305,53.32869339,5.935192585,19.93,0,0,0,255.93,255.93,0.01,454,8,65,324,117,142,8.42,100522,83.45
UTC 221221 121752 5 9 ,306,53.32868195,5.93513298,19.9,0,0,0,255.84,255.84,0.01,439,5,65,325,118,142,8.29,100523,83.45
UTC 221221 121753 5 9 ,307,53.3286705,5.935065746,19.86,0,0,0,255.84,255.84,0.01,433,5,64,324,118,142,8.23,100527,83.45
UTC 221221 121754 5 9 ,308,53.32866287,5.934989929,19.78,0,0,0,256.15,256.15,0.01,426,3,64,324,118,142,8.16,100521,83.45
UTC 221221 121755 5 9 ,309,53.32865143,5.934915066,19.75,0,0,0,256.33,256.33,0.01,427,4,64,325,118,142,8.09,100524,83.45
UTC 221221 121756 5 9 ,310,53.32863998,5.934839249,19.72,0,0,0,255.31,255.31,0.01,433,5,64,326,118,142,8.03,100526,83.45
UTC 221221 121757 5 9 ,311,53.32862473,5.934766293,19.68,0,0,0,255.12,255.12,0.01,433,5,64,324,118,142,7.97,100535,83.45
UTC 221221 121758 5 9 ,312,53.32861328,5.93469286,19.62,0,0,0,255.15,255.15,0.01,426,3,64,326,117,142,7.92,100530,83.45
UTC 221221 121759 5 9 ,313,53.32860565,5.934622288,19.55,0,0,0,255.49,255.49,0.01,423,3,64,325,117,143,7.86,100530,83.45
UTC 221221 121800 5 9 ,314,53.32859421,5.934548855,19.51,0,0,0,255.79,255.79,0.01,416,2,63,324,117,142,7.81,100532,83.45
UTC 221221 121801 5 9 ,315,53.32858276,5.934475422,19.49,0,0,0,256.45,256.45,0.01,418,2,63,324,117,142,7.76,100524,83.45
UTC 221221 121802 5 9 ,316,53.32857132,5.934402943,19.42,0,0,0,256.67,256.67,0.01,426,3,63,325,117,142,7.72,100524,83.45
UTC 221221 121803 5 9 ,317,53.32856369,5.934329987,19.41,0,0,0,256.12,256.12,0.01,413,1,63,324,117,142,7.68,100522,83.45
UTC 221221 121804 5 9 ,318,53.32855225,5.934256077,19.37,0,0,0,255.87,255.87,0.01,413,1,62,325,117,142,7.65,100524,83.45
UTC 221221 121805 5 9 ,319,53.3285408,5.934185505,19.34,0,0,0,255.59,255.59,0.01,416,2,62,325,117,141,7.62,100525,83.45
UTC 221221 121806 5 9 ,320,53.32852936,5.934111595,19.28,0,0,0,255.51,255.51,0.01,413,1,62,325,117,142,7.59,100524,83.45
UTC 221221 121807 5 9 ,321,53.32851791,5.934040546,19.23,0,0,0,255.77,255.77,0.01,416,2,62,324,116,142,7.56,100530,83.45
UTC 221221 121808 5 9 ,322,53.32850647,5.933966637,19.18,0,0,0,255.76,255.76,0.01,416,2,62,325,117,142,7.53,100528,83.45
UTC 221221 121809 5 9 ,323,53.32849503,5.933889866,19.13,0,0,0,256.19,256.19,0.01,426,3,62,325,117,142,7.53,100529,83.45
UTC 221221 121810 5 9 ,324,53.32848358,5.933814526,19.08,0,0,0,255.93,255.93,0.01,423,3,62,326,116,142,7.52,100531,83.45
UTC 221221 121811 5 9 ,325,53.32847214,5.933741093,19.07,0,0,0,255.54,255.54,0.01,416,2,62,325,117,142,7.5,100533,83.45
UTC 221221 121812 5 9 ,326,53.32846069,5.93366766,19.07,0,0,0,255.76,255.76,0.01,418,2,62,326,117,142,7.48,100528,83.45
UTC 221221 121813 5 9 ,327,53.32844925,5.933594704,19.02,0,0,0,255.68,255.68,0.01,418,2,62,326,117,142,7.48,100532,83.45
UTC 221221 121814 5 9 ,328,53.32844162,5.933522701,18.96,0,0,0,255.6,255.6,0.01,423,3,62,325,116,142,7.46,100531,83.45
UTC 221221 121815 5 9 ,329,53.32843018,5.933450699,18.9,0,0,0,255.61,255.61,0.01,427,4,62,325,117,143,7.46,100541,83.45
UTC 221221 121816 5 9 ,330,53.32841873,5.93337822,18.83,0,0,0,255.97,255.97,0.01,416,2,61,325,117,142,7.45,100529,83.45
UTC 221221 121817 5 9 ,331,53.32840729,5.933306217,18.77,0,0,0,255.77,255.77,0.01,416,2,62,326,116,142,7.43,100536,83.45
UTC 221221 121818 5 9 ,332,53.32839584,5.933233261,18.76,0,0,0,255.93,255.93,0.01,416,2,62,324,116,142,7.42,100528,83.45
UTC 221221 121819 5 9 ,333,53.32838821,5.933157921,18.7,0,0,0,255.89,255.89,0.01,416,2,62,326,117,141,7.41,100535,83.45
UTC 221221 121820 5 9 ,334,53.32837677,5.933085442,18.66,0,0,0,255.72,255.72,0.01,426,3,62,325,116,142,7.39,100534,83.45
UTC 221221 121821 5 9 ,335,53.32836533,5.933012009,18.63,0,0,0,255.61,255.61,0.01,416,2,61,324,116,142,7.38,100533,83.45
UTC 221221 121822 5 9 ,336,53.32835388,5.932942867,18.58,0,0,0,255.73,255.73,0.01,416,2,61,326,116,142,7.37,100544,83.45
UTC 221221 121823 5 9 ,337,53.32834244,5.932869434,18.54,0,0,0,256.07,256.07,0.01,413,1,61,326,116,142,7.37,100530,83.45
UTC 221221 121824 5 9 ,338,53.32833099,5.932796955,18.48,0,0,0,256.07,256.07,0.01,413,1,61,326,115,141,7.36,100538,83.45
UTC 221221 121825 5 9 ,339,53.32831955,5.932720661,18.43,0,0,0,255.56,255.56,0.01,416,2,61,325,116,142,7.34,100537,83.45
UTC 221221 121826 5 9 ,340,53.32830811,5.932647228,18.38,0,0,0,255.87,255.87,0.01,418,2,61,326,115,142,7.33,100534,83.45
UTC 221221 121827 5 9 ,341,53.32830048,5.932572842,18.37,0,0,0,255.82,255.82,0.01,413,1,61,326,116,142,7.33,100544,83.45
UTC 221221 121828 5 9 ,342,53.32828903,5.932498455,18.33,0,0,0,255.21,255.21,0.01,418,2,61,326,116,142,7.34,100546,83.45
UTC 221221 121829 5 9 ,343,53.32827759,5.932438374,18.32,0,0,0,254.84,254.84,0.01,423,3,61,326,116,141,7.35,100555,83.45
UTC 221221 121830 5 9 ,344,53.32827759,5.932398796,18.25,0,0,0,284.8,284.8,0.01,436,5,61,326,116,142,7.37,100567,83.45
UTC 221221 121831 5 9 ,345,53.32830048,5.932369232,18.2,0,0,0,331.81,331.81,0.01,444,6,62,326,116,142,7.43,100587,83.45
UTC 221221 121832 5 9 ,346,53.32833099,5.932360172,18.15,0,0,0,348.65,348.65,0.01,436,5,62,326,116,142,7.51,100587,83.45
UTC 221221 121833 5 9 ,347,53.3283577,5.932379246,18.15,0,0,0,34.38,34.38,0.01,444,6,62,325,115,143,7.57,100605,75.07
UTC 221221 121834 5 9 ,348,53.32837296,5.932424069,18.18,0,0,0,73.09,73.09,0.01,451,7,62,326,115,141,7.62,100623,75.07
UTC 221221 121835 5 9 ,349,53.32838058,5.932470799,18.21,0,0,0,74.84,74.84,0.01,451,7,63,326,115,142,7.69,100623,75.07
UTC 221221 121835 5 9 ,350,53.32838821,5.932529926,18.26,0,0,0,75.28,75.28,0.01,465,9,62,325,115,141,7.75,100622,75.07
UTC 221221 121835 5 9 ,351,53.32839584,5.932596207,18.29,0,0,0,75.67,75.67,0.01,451,7,62,325,115,141,7.81,100621,75.07
UTC 221221 121838 5 9 ,352,53.32840729,5.932667732,18.34,0,0,0,75.6,75.6,0.01,457,8,62,325,114,141,7.86,100615,75.07
UTC 221221 121839 5 9 ,353,53.32841492,5.932741165,18.42,0,0,0,75.77,75.77,0.01,457,8,62,325,115,142,7.9,100616,75.07
UTC 221221 121840 5 9 ,354,53.32842636,5.932816029,18.48,0,0,0,75.89,75.89,0.01,457,8,61,325,115,141,7.95,100615,75.07
UTC 221221 121841 5 9 ,355,53.32843781,5.932893276,18.54,0,0,0,75.84,75.84,0.01,476,11,61,325,115,141,7.99,100611,75.07
UTC 221221 121842 5 9 ,356,53.32844925,5.932966709,18.61,0,0,0,75.87,75.87,0.01,465,9,61,325,115,142,8.04,100609,75.07
UTC 221221 121843 5 9 ,357,53.32846069,5.933040619,18.68,0,0,0,75.94,75.94,0.01,465,9,62,325,115,141,8.08,100609,75.07
UTC 221221 121844 5 9 ,358,53.32846832,5.933113098,18.72,0,0,0,75.8,75.8,0.01,465,9,61,325,115,141,8.12,100609,75.07
UTC 221221 121845 5 9 ,359,53.32847977,5.933183193,18.79,0,0,0,75.81,75.81,0.01,470,10,62,326,115,142,8.15,100610,75.07
UTC 221221 121846 5 9 ,360,53.32849121,5.933258534,18.85,0,0,0,75.95,75.95,0.01,476,11,62,325,114,142,8.18,100607,75.07
UTC 221221 121847 5 9 ,361,53.32850266,5.933332443,18.91,0,0,0,75.95,75.95,0.01,476,11,62,325,114,141,8.21,100607,75.07
UTC 221221 121848 5 9 ,362,53.3285141,5.933406353,18.95,0,0,0,75.85,75.85,0.01,473,11,62,325,114,141,8.24,100612,75.07
UTC 221221 121849 5 9 ,363,53.32852554,5.933480263,19.01,0,0,0,75.77,75.77,0.01,473,11,62,324,114,141,8.28,100606,75.07
UTC 221221 121850 5 9 ,364,53.32853699,5.933553219,19.07,0,0,0,76.14,76.14,0.01,470,10,62,325,114,141,8.31,100608,75.07
UTC 221221 121851 5 9 ,365,53.32854843,5.933627129,19.13,0,0,0,75.89,75.89,0.01,476,11,61,324,114,141,8.33,100607,75.07
UTC 221221 121852 5 9 ,366,53.32855988,5.933700085,19.2,0,0,0,75.95,75.95,0.01,485,12,61,324,114,141,8.36,100607,75.07
UTC 221221 121852 5 9 ,367,53.3285675,5.933772087,19.24,0,0,0,75.88,75.88,0.01,473,11,61,325,114,141,8.38,100604,75.07
UTC 221221 121852 5 9 ,368,53.32857895,5.933843136,19.29,0,0,0,75.84,75.84,0.01,476,11,61,324,113,141,8.39,100606,75.07
UTC 221221 121855 5 9 ,369,53.32859039,5.933915615,19.32,0,0,0,75.8,75.8,0.01,473,11,61,324,114,140,8.41,100609,75.07
UTC 221221 121856 5 9 ,370,53.32860184,5.933990955,19.4,0,0,0,75.82,75.82,0.01,473,11,61,324,114,140,8.44,100601,75.07
UTC 221221 121857 5 9 ,371,53.32861328,5.934062481,19.46,0,0,0,76.27,76.27,0.01,485,12,61,325,114,141,8.45,100604,75.07
UTC 221221 121858 5 9 ,372,53.32862473,5.934134483,19.5,0,0,0,76.44,76.44,0.01,470,10,61,324,114,141,8.49,100602,75.07
UTC 221221 121859 5 9 ,373,53.32863617,5.934208393,19.54,0,0,0,76,76,0.01,465,9,61,324,113,140,8.52,100605,75.07
UTC 221221 121900 5 9 ,374,53.32864761,5.93428278,19.6,0,0,0,76,76,0.01,465,9,61,324,113,141,8.55,100603,75.07
UTC 221221 121901 5 9 ,375,53.32865524,5.934355259,19.66,0,0,0,75.97,75.97,0.01,470,10,61,324,114,140,8.58,100606,75.07
UTC 221221 121902 5 9 ,376,53.32866669,5.934428215,19.72,0,0,0,76.07,76.07,0.01,476,11,61,324,113,141,8.61,100607,75.07
UTC 221221 121903 5 9 ,377,53.32867813,5.934501171,19.78,0,0,0,76.08,76.08,0.01,470,10,61,324,113,140,8.63,100609,75.07
UTC 221221 121904 5 9 ,378,53.32868958,5.934575081,19.84,0,0,0,76.04,76.04,0.01,465,9,61,324,113,141,8.65,100601,75.07
UTC 221221 121905 5 9 ,379,53.32870102,5.934648037,19.89,0,0,0,76.05,76.05,0.01,465,9,61,324,112,141,8.67,100604,75.07
UTC 221221 121906 5 9 ,380,53.32871246,5.93472147,19.97,0,0,0,76,76,0.01,465,9,60,325,113,141,8.69,100599,83.45
UTC 221221 121907 5 9 ,381,53.32872009,5.934794426,20.02,0,0,0,76.05,76.05,0.01,473,11,60,324,113,140,8.7,100596,83.45
UTC 221221 121908 5 9 ,382,53.32873154,5.934866905,20.07,0,0,0,75.98,75.98,0.01,470,10,60,325,113,140,8.71,100604,75.07
UTC 221221 121909 5 9 ,383,53.32874298,5.934939385,20.12,0,0,0,76.01,76.01,0.01,462,9,60,324,112,141,8.73,100597,83.45
UTC 221221 121909 5 9 ,384,53.32875443,5.935011864,20.17,0,0,0,76.01,76.01,0.01,462,9,61,324,113,141,8.75,100597,83.45
UTC 221221 121911 5 9 ,385,53.32876587,5.935083389,20.2,0,0,0,76.13,76.13,0.01,462,9,60,324,112,141,8.77,100598,83.45
UTC 221221 121911 5 9 ,386,53.3287735,5.935155869,20.25,0,0,0,75.88,75.88,0.01,470,10,60,324,113,140,8.78,100595,83.45
UTC 221221 121913 5 9 ,387,53.32878494,5.93522501,20.3,0,0,0,77.22,77.22,0.01,473,11,61,324,113,141,8.78,100599,83.45
UTC 221221 121914 5 9 ,388,53.32879257,5.935269356,20.34,0,0,0,64.75,64.75,0.01,470,10,60,324,112,141,8.78,100590,83.45
UTC 221221 121915 5 9 ,389,53.32881546,5.93529129,20.43,0,0,0,17.01,17.01,0.01,465,9,61,324,113,141,8.78,100567,83.45
UTC 221221 121916 5 9 ,390,53.32884216,5.935283184,20.55,0,0,0,344.08,344.08,0.01,457,8,61,324,112,141,8.78,100556,83.45
UTC 221221 121917 5 9 ,391,53.32886505,5.935258865,20.6,0,0,0,320,320,0.01,457,8,61,325,112,142,8.78,100549,83.45
UTC 221221 121918 5 9 ,392,53.3288765,5.935209751,20.6,0,0,0,274.94,274.94,0.01,473,11,62,324,112,141,8.74,100526,83.45
UTC 221221 121919 5 9 ,393,53.32887268,5.93516016,20.62,0,0,0,257.17,257.17,0.01,447,7,61,324,113,141,8.61,100533,83.45
UTC 221221 121920 5 9 ,394,53.32886505,5.935105801,20.58,0,0,0,256.16,256.16,0.01,436,5,61,324,112,142,8.51,100521,83.45
UTC 221221 121921 5 9 ,395,53.32885361,5.935040951,20.55,0,0,0,256.39,256.39,0.01,436,5,60,325,112,142,8.41,100529,83.45
UTC 221221 121922 5 9 ,396,53.32884216,5.934969425,20.49,0,0,0,256.07,256.07,0.01,433,5,60,324,112,141,8.31,100514,83.45
UTC 221221 121923 5 9 ,397,53.32883072,5.934894085,20.42,0,0,0,255.88,255.88,0.01,439,5,61,325,112,141,8.22,100518,83.45
UTC 221221 121924 5 9 ,398,53.32881927,5.934819222,20.33,0,0,0,255.86,255.86,0.01,427,4,61,325,112,141,8.14,100517,83.45
UTC 221221 121925 5 9 ,399,53.32880783,5.934745789,20.24,0,0,0,256,256,0.01,418,2,61,324,112,141,8.05,100513,83.45
UTC 221221 121926 5 9 ,400,53.3288002,5.934672833,20.2,0,0,0,256.09,256.09,0.01,416,2,60,324,112,141,8,100509,83.45
UTC 221221 121927 5 9 ,401,53.32878876,5.934599876,20.15,0,0,0,256.05,256.05,0.01,413,1,60,324,112,141,7.94,100505,83.45
UTC 221221 121928 5 9 ,402,53.32877731,5.934528828,20.07,0,0,0,256.1,256.1,0.01,423,3,60,325,112,141,7.86,100507,83.45
UTC 221221 121929 5 9 ,403,53.32876587,5.934454441,20.03,0,0,0,256.09,256.09,0.01,409,1,60,325,112,141,7.8,100506,83.45
UTC 221221 121930 5 9 ,404,53.32875443,5.934381485,19.97,0,0,0,256.48,256.48,0.01,413,1,59,325,112,141,7.75,100508,83.45
UTC 221221 121931 5 9 ,405,53.32874298,5.934307098,19.91,0,0,0,256.15,256.15,0.01,418,2,60,325,112,141,7.72,100511,83.45
UTC 221221 121932 5 9 ,406,53.32873154,5.934234619,19.84,0,0,0,256.04,256.04,0.01,415,2,60,326,111,141,7.68,100514,83.45
UTC 221221 121933 5 9 ,407,53.32872009,5.934161663,19.79,0,0,0,255.45,255.45,0.01,413,1,59,326,112,141,7.63,100520,83.45
UTC 221221 121934 5 9 ,408,53.32870865,5.934089661,19.73,0,0,0,255.99,255.99,0.01,413,1,59,325,111,141,7.59,100514,83.45
UTC 221221 121935 5 9 ,409,53.32870102,5.934015751,19.65,0,0,0,256.06,256.06,0.01,415,2,59,325,112,141,7.57,100517,83.45
UTC 221221 121936 5 9 ,410,53.32868958,5.933941364,19.6,0,0,0,255.67,255.67,0.01,428,4,59,326,112,141,7.55,100524,83.45
UTC 221221 121937 5 9 ,411,53.32867813,5.933868408,19.53,0,0,0,255.62,255.62,0.01,415,2,59,326,112,141,7.53,100522,83.45
UTC 221221 121938 5 9 ,412,53.32866669,5.933794498,19.48,0,0,0,254.93,254.93,0.01,413,1,59,326,112,141,7.51,100530,83.45
UTC 221221 121939 5 9 ,413,53.32865524,5.933721066,19.4,0,0,0,254.85,254.85,0.01,415,2,59,326,112,141,7.49,100539,83.45
UTC 221221 121940 5 9 ,414,53.3286438,5.933648586,19.31,0,0,0,255.46,255.46,0.01,415,2,59,325,111,141,7.47,100539,83.45
UTC 221221 121941 5 9 ,415,53.32863235,5.933576584,19.23,0,0,0,255.99,255.99,0.01,424,3,59,326,112,141,7.46,100536,83.45
UTC 221221 121942 5 9 ,416,53.32862091,5.93350172,19.15,0,0,0,256.27,256.27,0.01,422,3,59,326,112,141,7.45,100536,83.45
UTC 221221 121943 5 9 ,417,53.32861328,5.933427811,19.09,0,0,0,256.06,256.06,0.01,422,3,59,325,111,141,7.45,100531,83.45
UTC 221221 121944 5 9 ,418,53.32860184,5.933355808,19.02,0,0,0,256.12,256.12,0.01,418,2,59,326,111,141,7.43,100521,83.45
UTC 221221 121945 5 9 ,419,53.32859039,5.933283329,18.93,0,0,0,255.97,255.97,0.01,415,2,59,325,111,140,7.42,100523,83.45
UTC 221221 121946 5 9 ,420,53.32857895,5.933209896,18.89,0,0,0,256.09,256.09,0.01,422,3,59,325,111,141,7.42,100527,83.45
UTC 221221 121947 5 9 ,421,53.3285675,5.933135986,18.85,0,0,0,255.96,255.96,0.01,424,3,59,325,111,141,7.41,100539,83.45
UTC 221221 121948 5 9 ,422,53.32855606,5.9330616,18.76,0,0,0,256.37,256.37,0.01,418,2,59,326,111,141,7.41,100527,83.45
UTC 221221 121949 5 9 ,423,53.32854843,5.932988167,18.69,0,0,0,256.65,256.65,0.01,422,3,59,325,110,141,7.41,100529,83.45
UTC 221221 121950 5 9 ,424,53.32853699,5.932915211,18.63,0,0,0,255.74,255.74,0.01,422,3,59,326,111,141,7.41,100534,83.45
UTC 221221 121951 5 9 ,425,53.32852554,5.932841778,18.61,0,0,0,254.7,254.7,0.01,428,4,59,325,111,141,7.41,100546,83.45
UTC 221221 121952 5 9 ,426,53.32851028,5.932769775,18.53,0,0,0,254.69,254.69,0.01,435,5,59,325,111,141,7.4,100544,83.45
UTC 221221 121953 5 9 ,427,53.32849884,5.932697773,18.44,0,0,0,255.61,255.61,0.01,422,3,59,325,110,141,7.38,100537,83.45
UTC 221221 121954 5 9 ,428,53.32849121,5.93262434,18.36,0,0,0,256.17,256.17,0.01,422,3,59,326,111,140,7.38,100539,83.45
UTC 221221 121955 5 9 ,429,53.32847977,5.932551861,18.3,0,0,0,256.16,256.16,0.01,424,3,59,326,111,141,7.38,100541,83.45
UTC 221221 121955 5 9 ,430,53.32846832,5.932476997,18.23,0,0,0,255.77,255.77,0.01,428,4,59,326,111,141,7.39,100545,83.45
UTC 221221 121955 5 9 ,431,53.32845688,5.932407379,18.17,0,0,0,254.08,254.08,0.01,439,5,60,325,110,141,7.39,100554,83.45
UTC 221221 121955 5 9 ,432,53.32844925,5.932351112,18.15,0,0,0,256.45,256.45,0.01,434,5,59,326,111,141,7.39,100562,83.45
UTC 221221 121955 5 9 ,433,53.32845306,5.932312012,18.06,0,0,0,294.27,294.27,0.01,435,5,59,326,111,141,7.42,100581,83.45
UTC 221221 121955 5 9 ,434,53.32847977,5.932286739,17.97,0,0,0,337.88,337.88,0.01,450,7,60,326,111,141,7.48,100591,83.45
UTC 221221 121955 5 9 ,435,53.32850647,5.932281494,17.97,0,0,0,354.03,354.03,0.01,445,6,60,326,111,141,7.58,100596,83.45
UTC 221221 121955 5 9 ,436,53.32853317,5.932306767,18.01,0,0,0,44.21,44.21,0.01,463,9,61,326,110,142,7.62,100615,75.07
UTC 221221 122003 5 9 ,437,53.32854462,5.932350636,18.06,0,0,0,74.57,74.57,0.01,463,9,61,325,111,141,7.7,100618,75.07
UTC 221221 122004 5 9 ,438,53.32855225,5.932400703,18.11,0,0,0,75.35,75.35,0.01,460,9,61,325,111,142,7.76,100618,75.07
UTC 221221 122005 5 9 ,439,53.32855988,5.932463169,18.17,0,0,0,75.43,75.43,0.01,463,9,61,325,110,141,7.82,100622,75.07
UTC 221221 122006 5 9 ,440,53.32857132,5.932533264,18.23,0,0,0,75.61,75.61,0.01,470,10,60,325,111,141,7.86,100619,75.07
UTC 221221 122007 5 9 ,441,53.32858276,5.932609081,18.3,0,0,0,76.29,76.29,0.01,475,11,61,325,110,141,7.9,100613,75.07
UTC 221221 122008 5 9 ,442,53.32859039,5.932683468,18.39,0,0,0,75.72,75.72,0.01,482,12,61,325,110,141,7.94,100616,75.07
UTC 221221 122009 5 9 ,443,53.32860184,5.932755947,18.45,0,0,0,75.94,75.94,0.01,475,11,61,325,110,141,7.99,100620,75.07
UTC 221221 122010 5 9 ,444,53.32861328,5.932830811,18.52,0,0,0,75.83,75.83,0.01,475,11,61,325,110,141,8.03,100610,75.07
UTC 221221 122011 5 9 ,445,53.32862473,5.93290329,18.61,0,0,0,75.81,75.81,0.01,475,11,61,325,110,140,8.06,100618,75.07
UTC 221221 122012 5 9 ,446,53.32863617,5.9329772,18.68,0,0,0,75.86,75.86,0.01,477,11,61,325,110,141,8.08,100611,75.07
UTC 221221 122012 5 9 ,447,53.32864761,5.933050156,18.76,0,0,0,75.54,75.54,0.01,486,13,61,325,110,141,8.12,100602,75.07
UTC 221221 122012 5 9 ,448,53.32865906,5.933122158,18.83,0,0,0,75.79,75.79,0.01,477,11,61,325,110,141,8.15,100608,75.07
UTC 221221 122015 5 9 ,449,53.3286705,5.933195591,18.88,0,0,0,75.96,75.96,0.01,477,11,61,325,110,141,8.18,100607,75.07
UTC 221221 122016 5 9 ,450,53.32867813,5.933271885,18.96,0,0,0,75.98,75.98,0.01,477,11,62,325,110,141,8.21,100610,75.07
UTC 221221 122017 5 9 ,451,53.32868958,5.93334198,19.02,0,0,0,75.66,75.66,0.01,477,11,62,325,110,141,8.24,100603,75.07
UTC 221221 122018 5 9 ,452,53.32870102,5.93341589,19.09,0,0,0,76.14,76.14,0.01,486,13,62,325,110,140,8.26,100603,75.07
UTC 221221 122019 5 9 ,453,53.32871246,5.933489323,19.16,0,0,0,75.97,75.97,0.01,482,12,61,324,110,141,8.28,100603,75.07
UTC 221221 122020 5 9 ,454,53.32872391,5.933563709,19.23,0,0,0,75.84,75.84,0.01,477,11,61,325,110,141,8.31,100606,75.07
UTC 221221 122021 5 9 ,455,53.32873535,5.933637619,19.29,0,0,0,75.88,75.88,0.01,480,12,61,325,110,141,8.36,100606,75.07
UTC 221221 122022 5 9 ,456,53.3287468,5.933709621,19.37,0,0,0,75.9,75.9,0.01,480,12,61,324,109,141,8.38,100603,75.07
UTC 221221 122023 5 9 ,457,53.32875443,5.933782101,19.42,0,0,0,75.69,75.69,0.01,486,13,61,325,110,141,8.4,100605,75.07
UTC 221221 122024 5 9 ,458,53.32876587,5.933855057,19.49,0,0,0,75.72,75.72,0.01,492,14,62,325,109,141,8.41,100601,75.07
UTC 221221 122025 5 9 ,459,53.32877731,5.933928013,19.56,0,0,0,75.7,75.7,0.01,482,12,61,325,110,141,8.43,100603,75.07
UTC 221221 122026 5 9 ,460,53.32878876,5.934002876,19.64,0,0,0,76.21,76.21,0.01,482,12,61,325,110,140,8.46,100604,75.07
UTC 221221 122027 5 9 ,461,53.3288002,5.934076309,19.7,0,0,0,75.94,75.94,0.01,480,12,61,325,109,141,8.48,100603,75.07
UTC 221221 122028 5 9 ,462,53.32881165,5.934149265,19.78,0,0,0,76.01,76.01,0.01,486,13,62,325,110,141,8.5,100595,83.45
UTC 221221 122029 5 9 ,463,53.32882309,5.934221745,19.84,0,0,0,75.86,75.86,0.01,496,14,61,324,110,141,8.51,100599,83.45
UTC 221221 122029 5 9 ,464,53.32883072,5.934295178,19.92,0,0,0,76.1,76.1,0.01,486,13,62,325,110,141,8.52,100594,83.45
UTC 221221 122031 5 9 ,465,53.32884216,5.934366226,19.98,0,0,0,75.87,75.87,0.01,486,13,62,325,110,141,8.54,100595,83.45
UTC 221221 122031 5 9 ,466,53.32885361,5.934439182,20.05,0,0,0,75.99,75.99,0.01,486,13,62,325,109,141,8.55,100594,83.45
UTC 221221 122033 5 9 ,467,53.32886505,5.934511185,20.13,0,0,0,75.88,75.88,0.01,482,12,62,325,110,141,8.55,100593,83.45
UTC 221221 122034 5 9 ,468,53.3288765,5.934582233,20.2,0,0,0,75.86,75.86,0.01,496,14,62,325,109,141,8.55,100597,83.45
UTC 221221 122035 5 9 ,469,53.32888794,5.934655666,20.27,0,0,0,75.73,75.73,0.01,482,12,62,325,110,142,8.55,100592,83.45
UTC 221221 122035 5 9 ,470,53.32889938,5.934732437,20.32,0,0,0,76.14,76.14,0.01,480,12,61,324,109,141,8.58,100591,83.45
UTC 221221 122035 5 9 ,471,53.32890701,5.934803963,20.41,0,0,0,76.03,76.03,0.01,482,12,62,324,109,140,8.59,100591,83.45
UTC 221221 122038 5 9 ,472,53.32891846,5.934876919,20.48,0,0,0,75.76,75.76,0.01,482,12,61,325,109,141,8.59,100594,83.45
UTC 221221 122039 5 9 ,473,53.3289299,5.934950352,20.54,0,0,0,75.92,75.92,0.01,496,14,61,324,109,141,8.62,100592,83.45
UTC 221221 122040 5 9 ,474,53.32894135,5.935024262,20.6,0,0,0,75.86,75.86,0.01,492,14,61,324,109,140,8.63,100593,83.45
UTC 221221 122041 5 9 ,475,53.32895279,5.935097694,20.69,0,0,0,76.13,76.13,0.01,486,13,61,324,109,140,8.64,100586,83.45
UTC 221221 122042 5 9 ,476,53.32896423,5.935162067,20.76,0,0,0,77.31,77.31,0.01,482,12,61,325,109,141,8.64,100585,83.45
UTC 221221 122043 5 9 ,477,53.32897186,5.935200214,20.76,0,0,0,55.47,55.47,0.01,480,12,61,324,109,140,8.67,100582,83.45
UTC 221221 122044 5 9 ,478,53.32899857,5.935215473,20.75,0,0,0,5.65,5.65,0.01,482,12,61,325,109,141,8.67,100564,83.45
UTC 221221 122045 5 9 ,479,53.32902527,5.935202122,20.72,0,0,0,342.81,342.81,0.01,480,12,62,325,109,141,8.68,100549,83.45
UTC 221221 122046 5 9 ,480,53.32904434,5.935169697,20.67,0,0,0,307.05,307.05,0.01,475,11,62,325,109,141,8.71,100543,83.45
UTC 221221 122047 5 9 ,481,53.32905197,5.935119152,20.62,0,0,0,265.98,265.98,0.01,475,11,61,324,109,140,8.68,100528,83.45
UTC 221221 122048 5 9 ,482,53.32904434,5.935072422,20.6,0,0,0,257.6,257.6,0.01,463,9,61,324,108,141,8.55,100521,83.45
UTC 221221 122049 5 9 ,483,53.32903671,5.935017586,20.57,0,0,0,256.27,256.27,0.01,457,8,62,325,109,141,8.44,100520,83.45
UTC 221221 122050 5 9 ,484,53.32902527,5.934956551,20.5,0,0,0,255.96,255.96,0.01,463,9,61,324,109,141,8.36,100527,83.45
UTC 221221 122051 5 9 ,485,53.32901764,5.934887409,20.42,0,0,0,255.82,255.82,0.01,435,5,61,324,109,141,8.26,100520,83.45
UTC 221221 122052 5 9 ,486,53.3290062,5.93481493,20.38,0,0,0,255.79,255.79,0.01,450,7,61,324,109,141,8.18,100520,83.45
UTC 221221 122053 5 9 ,487,53.32899475,5.934740067,20.32,0,0,0,255.49,255.49,0.01,439,5,61,325,109,141,8.12,100522,83.45
UTC 221221 122054 5 9 ,488,53.32898331,5.93466568,20.26,0,0,0,255.52,255.52,0.01,434,5,60,325,108,141,8.04,100518,83.45
UTC 221221 122055 5 9 ,489,53.32897186,5.934592247,20.2,0,0,0,255.8,255.8,0.01,434,5,61,325,109,140,7.99,100522,83.45
UTC 221221 122056 5 9 ,490,53.32896042,5.93451786,20.13,0,0,0,255.66,255.66,0,434,5,61,324,108,141,7.95,100523,83.45
UTC 221221 122057 5 9 ,491,53.32894897,5.934444904,20.07,0,0,0,255.77,255.77,0,439,5,61,325,109,141,7.89,100524,83.45
UTC 221221 122058 5 9 ,492,53.32893753,5.934371471,20.01,0,0,0,255.8,255.8,0,443,6,60,325,108,142,7.85,100528,83.45
UTC 221221 122059 5 9 ,493,53.32892609,5.934298515,19.94,0,0,0,255.6,255.6,0,428,4,60,325,109,141,7.82,100524,83.45
UTC 221221 122100 5 9 ,494,53.32891464,5.934227943,19.86,0,0,0,255.59,255.59,0,428,4,60,325,108,141,7.79,100526,83.45
UTC 221221 122101 5 9 ,495,53.3289032,5.934154034,19.81,0,0,0,255.22,255.22,0,434,5,60,325,108,141,7.75,100534,83.45
UTC 221221 122102 5 9 ,496,53.32889557,5.934081078,19.74,0,0,0,255.89,255.89,0,434,5,60,324,108,141,7.73,100532,83.45
