TimeStamp (UTC)," ""TriggerID"""," ""Latitude"""," ""Longitude"""," ""Altitude (Meter AGL)""",Gimbal Roll," ""Gimbal Pitch"""," ""Gimbal Yaw"""," ""Drone Yaw"""," ""Combined Yaw""",HCHO (ppm),CO2 (ppm),TVOC (ppb),NO2 (ppm),C2H5OH (ppm),VOC (ppm),CO (ppm),Temp (Celcius),Pressure (pa),Altitude (meter)
UTC 221221 113428 5 9 ,1,53.32790375,5.934310436,0.87,0,0,0,348.57,348.57,0.01,416,2,153,306,268,146,9.85,100864,58.34
UTC 221221 113430 5 9 ,2,53.32790375,5.934310436,1.22,0,0,0,348.44,348.44,0.01,413,1,151,307,267,146,9.82,100854,58.34
UTC 221221 113431 5 9 ,3,53.32790375,5.934310436,3.09,0,0,0,348.7,348.7,0.01,402,0,152,307,267,146,9.78,100838,58.34
UTC 221221 113432 5 9 ,4,53.32790375,5.934310436,6.24,0,0,0,348.27,348.27,0.01,400,0,150,306,267,146,9.74,100799,66.7
UTC 221221 113433 5 9 ,5,53.32790375,5.934309483,9.12,0,0,0,348.68,348.68,0.01,400,0,149,301,266,145,9.69,100770,66.7
UTC 221221 113433 5 9 ,6,53.32790375,5.934309959,9.92,0,0,0,344.02,344.02,0.01,409,1,149,307,266,146,9.65,100744,66.7
UTC 221221 113435 5 9 ,7,53.32790375,5.93431139,9.78,0,0,0,338.07,338.07,0.01,409,1,148,306,264,145,9.66,100736,66.7
UTC 221221 113436 5 9 ,8,53.32791138,5.934308052,9.69,0,0,0,338.77,338.77,0.01,400,0,147,305,264,145,9.65,100733,66.7
UTC 221221 113437 5 9 ,9,53.32793427,5.934292316,9.59,0,0,0,338.23,338.23,0.01,406,0,147,305,264,145,9.59,100748,66.7
UTC 221221 113438 5 9 ,10,53.3279686,5.934269905,9.55,0,0,0,338.15,338.15,0.01,409,1,146,305,263,145,9.56,100755,66.7
UTC 221221 113439 5 9 ,11,53.32800674,5.934245586,9.55,0,0,0,338.18,338.18,0.01,413,1,146,305,262,145,9.54,100754,66.7
UTC 221221 113440 5 9 ,12,53.32805252,5.934216976,9.54,0,0,0,338.24,338.24,0.01,428,4,146,306,263,145,9.52,100759,66.7
UTC 221221 113441 5 9 ,13,53.3280983,5.934188843,9.53,0,0,0,338.47,338.47,0.01,415,2,147,306,262,146,9.52,100756,66.7
UTC 221221 113442 5 9 ,14,53.32814026,5.934161186,9.52,0,0,0,338.36,338.36,0.01,413,1,147,306,262,145,9.51,100761,66.7
UTC 221221 113443 5 9 ,15,53.32818222,5.934133053,9.51,0,0,0,338.36,338.36,0.01,413,1,147,306,261,145,9.49,100752,66.7
UTC 221221 113443 5 9 ,16,53.32822037,5.934109211,9.52,0,0,0,337.58,337.58,0.01,413,1,147,306,261,145,9.51,100756,66.7
UTC 221221 113445 5 9 ,17,53.32823563,5.934099674,9.5,0,0,0,335.5,335.5,0.01,418,2,147,306,261,145,9.51,100749,66.7
UTC 221221 113445 5 9 ,18,53.32823181,5.934102058,9.51,0,0,0,256.49,256.49,0.01,413,1,145,306,261,145,9.54,100747,66.7
UTC 221221 113447 5 9 ,19,53.328228,5.934107781,9.52,0,0,0,253.46,253.46,0.01,409,1,145,305,260,146,9.43,100729,66.7
UTC 221221 113448 5 9 ,20,53.32822037,5.934097767,9.49,0,0,0,254.33,254.33,0.01,400,0,144,305,260,144,9.31,100725,66.7
UTC 221221 113449 5 9 ,21,53.32821274,5.934066296,9.47,0,0,0,253.82,253.82,0.01,400,0,143,305,259,144,9.18,100721,66.7
UTC 221221 113450 5 9 ,22,53.32820511,5.934020996,9.45,0,0,0,253.36,253.36,0.01,408,1,141,305,258,144,9.03,100720,66.7
UTC 221221 113451 5 9 ,23,53.32819366,5.933969498,9.4,0,0,0,253.44,253.44,0.01,403,0,141,304,258,144,8.88,100716,66.7
UTC 221221 113452 5 9 ,24,53.32818604,5.933910847,9.37,0,0,0,253.3,253.3,0.01,405,0,140,305,258,144,8.71,100715,66.7
UTC 221221 113453 5 9 ,25,53.32817459,5.933845043,9.34,0,0,0,253.46,253.46,0.01,400,0,138,305,257,144,8.56,100712,66.7
UTC 221221 113454 5 9 ,26,53.32815933,5.933773518,9.29,0,0,0,253.17,253.17,0.01,400,0,139,304,256,144,8.42,100717,66.7
UTC 221221 113455 5 9 ,27,53.32814789,5.933698654,9.27,0,0,0,253.1,253.1,0.01,408,1,138,305,256,144,8.31,100711,66.7
UTC 221221 113456 5 9 ,28,53.32813263,5.933625221,9.24,0,0,0,252.83,252.83,0.01,416,2,137,305,256,143,8.18,100717,66.7
UTC 221221 113456 5 9 ,29,53.32812119,5.933550835,9.18,0,0,0,253.19,253.19,0.01,405,0,137,305,255,143,8.08,100721,66.7
UTC 221221 113458 5 9 ,30,53.32810593,5.933477879,9.18,0,0,0,253.29,253.29,0.01,400,0,137,306,255,143,8.02,100721,66.7
UTC 221221 113459 5 9 ,31,53.32809448,5.933405876,9.13,0,0,0,254.03,254.03,0.01,405,0,136,306,254,143,7.92,100731,66.7
UTC 221221 113500 5 9 ,32,53.32808685,5.93333149,9.04,0,0,0,255.01,255.01,0.01,408,1,135,305,254,143,7.84,100731,66.7
UTC 221221 113501 5 9 ,33,53.32807541,5.933259487,8.99,0,0,0,255.47,255.47,0.01,416,2,135,305,253,143,7.77,100727,66.7
UTC 221221 113502 5 9 ,34,53.32806396,5.933185101,8.93,0,0,0,256.13,256.13,0.01,402,0,135,306,253,142,7.69,100723,66.7
UTC 221221 113503 5 9 ,35,53.32805634,5.933113098,8.87,0,0,0,256.83,256.83,0.01,400,0,134,305,252,143,7.6,100729,66.7
UTC 221221 113503 5 9 ,36,53.32804489,5.933040142,8.83,0,0,0,257.37,257.37,0.01,403,0,133,305,252,143,7.54,100723,66.7
UTC 221221 113505 5 9 ,37,53.32803726,5.932974815,8.83,0,0,0,256.31,256.31,0.01,400,0,132,305,252,143,7.49,100726,66.7
UTC 221221 113506 5 9 ,38,53.32802963,5.932929993,8.75,0,0,0,246.26,246.26,0.01,414,2,132,305,251,142,7.47,100732,66.7
UTC 221221 113507 5 9 ,39,53.32801056,5.932880402,8.74,0,0,0,241.7,241.7,0.01,406,0,132,305,251,142,7.45,100733,66.7
UTC 221221 113508 5 9 ,40,53.32800674,5.932833195,8.76,0,0,0,304.62,304.62,0.01,406,0,133,306,251,143,7.41,100752,66.7
UTC 221221 113509 5 9 ,41,53.32802963,5.932824135,8.55,0,0,0,3.84,3.84,0.01,414,2,133,306,250,142,7.49,100762,66.7
UTC 221221 113510 5 9 ,42,53.32804871,5.932852745,8.56,0,0,0,72.92,72.92,0.01,422,3,132,306,250,143,7.56,100794,66.7
UTC 221221 113511 5 9 ,43,53.32805252,5.932890892,8.61,0,0,0,91.18,91.18,0.01,435,5,133,306,249,143,7.62,100789,66.7
UTC 221221 113512 5 9 ,44,53.32804871,5.932936668,8.69,0,0,0,90.33,90.33,0.01,439,5,132,306,249,142,7.67,100791,66.7
UTC 221221 113513 5 9 ,45,53.32805252,5.932991028,8.75,0,0,0,75.23,75.23,0.01,435,5,132,306,249,142,7.72,100784,66.7
UTC 221221 113514 5 9 ,46,53.32806015,5.933041573,8.77,0,0,0,73,73,0.01,439,5,131,307,249,142,7.78,100784,66.7
UTC 221221 113515 5 9 ,47,53.32807159,5.933102608,8.83,0,0,0,73.62,73.62,0.01,443,6,132,307,248,143,7.82,100786,66.7
UTC 221221 113516 5 9 ,48,53.32808304,5.933170795,8.86,0,0,0,73.39,73.39,0.01,450,7,131,307,248,142,7.88,100788,66.7
UTC 221221 113517 5 9 ,49,53.32809448,5.933246136,8.92,0,0,0,73.47,73.47,0.01,454,8,131,306,247,142,7.92,100785,66.7
UTC 221221 113518 5 9 ,50,53.32810974,5.933319092,8.98,0,0,0,73.24,73.24,0.01,443,6,131,306,248,143,7.94,100783,66.7
UTC 221221 113519 5 9 ,51,53.32812119,5.933389664,9.02,0,0,0,73.49,73.49,0.01,445,6,130,306,247,142,7.98,100783,66.7
UTC 221221 113520 5 9 ,52,53.32813263,5.933464527,9.08,0,0,0,73.64,73.64,0.01,450,7,130,307,247,143,7.99,100783,66.7
UTC 221221 113521 5 9 ,53,53.32814789,5.933539391,9.13,0,0,0,73.66,73.66,0.01,450,7,130,306,246,142,8.03,100779,66.7
UTC 221221 113521 5 9 ,54,53.32815933,5.933611393,9.19,0,0,0,73.67,73.67,0.01,459,8,130,307,246,142,8.05,100779,66.7
UTC 221221 113521 5 9 ,55,53.32817078,5.933684349,9.25,0,0,0,73.58,73.58,0.01,450,7,129,306,245,142,8.08,100778,66.7
UTC 221221 113524 5 9 ,56,53.32818604,5.933754921,9.3,0,0,0,73.72,73.72,0.01,450,7,129,306,245,142,8.1,100780,66.7
UTC 221221 113525 5 9 ,57,53.32819748,5.9338274,9.34,0,0,0,73.42,73.42,0.01,445,6,129,306,244,142,8.11,100781,66.7
UTC 221221 113526 5 9 ,58,53.32820892,5.93390131,9.38,0,0,0,73.65,73.65,0.01,445,6,128,306,244,142,8.14,100781,66.7
UTC 221221 113527 5 9 ,59,53.32822418,5.933972359,9.44,0,0,0,73.56,73.56,0.01,459,8,128,307,244,142,8.15,100777,66.7
UTC 221221 113527 5 9 ,60,53.32823563,5.934043884,9.48,0,0,0,74.73,74.73,0.01,455,8,127,306,243,141,8.17,100772,66.7
UTC 221221 113527 5 9 ,61,53.32824326,5.934094429,9.5,0,0,0,74.75,74.75,0.01,454,8,127,306,242,141,8.2,100773,66.7
UTC 221221 113530 5 9 ,62,53.32825089,5.934109211,9.5,0,0,0,32.78,32.78,0.01,454,8,127,305,242,142,8.23,100766,66.7
UTC 221221 113531 5 9 ,63,53.32826233,5.934100151,9.51,0,0,0,338.93,338.93,0.01,443,6,127,306,242,142,8.24,100740,66.7
UTC 221221 113532 5 9 ,64,53.32826614,5.934076786,9.52,0,0,0,273.7,273.7,0.01,454,8,127,306,242,142,8.28,100731,66.7
UTC 221221 113533 5 9 ,65,53.32826233,5.934048653,9.54,0,0,0,254.44,254.44,0.01,450,7,127,307,241,142,8.18,100730,66.7
UTC 221221 113534 5 9 ,66,53.32825851,5.934008598,9.51,0,0,0,253.8,253.8,0.01,439,5,127,307,241,142,8.07,100719,66.7
UTC 221221 113534 5 9 ,67,53.32824707,5.933951855,9.47,0,0,0,253.23,253.23,0.01,443,6,126,307,241,142,8,100730,66.7
UTC 221221 113534 5 9 ,68,53.32823563,5.933887959,9.4,0,0,0,253.36,253.36,0.01,424,3,126,306,241,142,7.9,100722,66.7
UTC 221221 113537 5 9 ,69,53.32822418,5.933817864,9.35,0,0,0,253.05,253.05,0.01,418,2,126,307,240,143,7.81,100721,66.7
UTC 221221 113538 5 9 ,70,53.32820892,5.933743477,9.32,0,0,0,252.78,252.78,0.01,415,2,126,306,241,143,7.72,100724,66.7
UTC 221221 113539 5 9 ,71,53.32819748,5.93366909,9.25,0,0,0,253.21,253.21,0.01,415,2,126,307,240,141,7.64,100719,66.7
UTC 221221 113540 5 9 ,72,53.32818604,5.933598995,9.2,0,0,0,252.98,252.98,0.01,418,2,126,307,240,142,7.57,100730,66.7
UTC 221221 113541 5 9 ,73,53.32817078,5.933522224,9.17,0,0,0,252.98,252.98,0,415,2,125,307,240,142,7.51,100722,66.7
UTC 221221 113542 5 9 ,74,53.32815933,5.933452606,9.14,0,0,0,252.97,252.97,0,410,1,125,308,240,142,7.45,100724,66.7
UTC 221221 113543 5 9 ,75,53.32814789,5.933380604,9.07,0,0,0,253.52,253.52,0,406,0,125,306,239,142,7.38,100720,66.7
UTC 221221 113544 5 9 ,76,53.32813644,5.933308125,9.01,0,0,0,253.76,253.76,0,403,0,123,305,238,141,7.32,100719,66.7
UTC 221221 113545 5 9 ,77,53.328125,5.933237076,8.97,0,0,0,253.63,253.63,0,414,2,123,306,238,141,7.27,100718,66.7
UTC 221221 113545 5 9 ,78,53.32810974,5.933160305,8.92,0,0,0,253.58,253.58,0,410,1,122,306,237,142,7.23,100723,66.7
UTC 221221 113545 5 9 ,79,53.3280983,5.933089733,8.88,0,0,0,253.5,253.5,0,406,0,123,307,236,141,7.2,100721,66.7
UTC 221221 113548 5 9 ,80,53.32808304,5.9330163,8.83,0,0,0,253.18,253.18,0,401,0,122,307,236,141,7.15,100725,66.7
UTC 221221 113549 5 9 ,81,53.32807159,5.932943821,8.78,0,0,0,252.73,252.73,0,401,0,122,307,236,142,7.12,100731,66.7
UTC 221221 113550 5 9 ,82,53.32806015,5.932871819,8.75,0,0,0,252.4,252.4,0,407,1,122,307,237,141,7.1,100745,66.7
UTC 221221 113551 5 9 ,83,53.32804489,5.932797909,8.7,0,0,0,252.64,252.64,0,416,2,122,308,237,141,7.07,100747,66.7
UTC 221221 113552 5 9 ,84,53.32803345,5.932725906,8.66,0,0,0,252.34,252.34,0,407,1,122,307,236,141,7.04,100739,66.7
UTC 221221 113553 5 9 ,85,53.32802582,5.932677269,8.65,0,0,0,252.82,252.82,0,411,1,122,308,236,142,7.03,100738,66.7
UTC 221221 113554 5 9 ,86,53.32802582,5.932659149,8.57,0,0,0,294.63,294.63,0.01,416,2,122,307,235,141,7.06,100751,66.7
UTC 221221 113555 5 9 ,87,53.32804108,5.932655811,8.54,0,0,0,344.5,344.5,0.01,420,3,122,308,235,142,7.14,100765,66.7
UTC 221221 113556 5 9 ,88,53.32805634,5.932672501,8.59,0,0,0,58.82,58.82,0.01,441,6,123,307,235,141,7.22,100792,66.7
UTC 221221 113556 5 9 ,89,53.32806015,5.932698727,8.62,0,0,0,72.53,72.53,0.01,435,5,122,307,235,141,7.3,100784,66.7
UTC 221221 113558 5 9 ,90,53.32806778,5.932741165,8.65,0,0,0,73.27,73.27,0.01,436,5,122,307,234,141,7.36,100788,66.7
UTC 221221 113559 5 9 ,91,53.32807541,5.932793617,8.68,0,0,0,73.43,73.43,0.01,436,5,122,307,234,141,7.41,100789,66.7
UTC 221221 113600 5 9 ,92,53.32808304,5.93285656,8.72,0,0,0,73.54,73.54,0.01,444,6,123,308,234,141,7.45,100782,66.7
UTC 221221 113601 5 9 ,93,53.3280983,5.932926655,8.78,0,0,0,73.39,73.39,0.01,455,8,122,308,234,141,7.48,100785,66.7
UTC 221221 113602 5 9 ,94,53.32810974,5.933001041,8.85,0,0,0,73.22,73.22,0.01,446,7,122,308,234,141,7.51,100784,66.7
UTC 221221 113603 5 9 ,95,53.32812119,5.933075428,8.88,0,0,0,73.49,73.49,0.01,444,6,122,308,233,142,7.56,100786,66.7
UTC 221221 113604 5 9 ,96,53.32813644,5.933149338,8.94,0,0,0,73.34,73.34,0.01,444,6,122,308,232,141,7.59,100784,66.7
UTC 221221 113605 5 9 ,97,53.32814789,5.933220863,9,0,0,0,73.54,73.54,0.01,444,6,121,308,233,141,7.62,100791,66.7
UTC 221221 113606 5 9 ,98,53.32816315,5.933295727,9.04,0,0,0,73.88,73.88,0.01,455,8,122,308,232,141,7.65,100787,66.7
UTC 221221 113607 5 9 ,99,53.32817459,5.933368683,9.09,0,0,0,73.73,73.73,0.01,455,8,122,307,232,141,7.67,100782,66.7
UTC 221221 113608 5 9 ,100,53.32818604,5.933440685,9.14,0,0,0,73.63,73.63,0.01,446,7,122,308,232,141,7.71,100780,66.7
UTC 221221 113609 5 9 ,101,53.32819748,5.933512688,9.19,0,0,0,73.45,73.45,0.01,446,7,122,307,232,141,7.74,100772,66.7
UTC 221221 113610 5 9 ,102,53.32820892,5.933582783,9.24,0,0,0,73.45,73.45,0.01,446,7,122,308,231,141,7.77,100771,66.7
UTC 221221 113610 5 9 ,103,53.32822418,5.933657646,9.29,0,0,0,73.73,73.73,0.01,455,8,121,308,231,141,7.79,100777,66.7
UTC 221221 113612 5 9 ,104,53.32823563,5.933731079,9.31,0,0,0,73.75,73.75,0.01,463,9,121,308,230,140,7.82,100780,66.7
UTC 221221 113613 5 9 ,105,53.32824707,5.933804512,9.38,0,0,0,73.85,73.85,0.01,455,8,120,307,229,141,7.85,100778,66.7
UTC 221221 113614 5 9 ,106,53.32826233,5.933876991,9.43,0,0,0,73.53,73.53,0.01,455,8,121,307,230,141,7.88,100777,66.7
UTC 221221 113615 5 9 ,107,53.32827377,5.93394804,9.48,0,0,0,73.69,73.69,0.01,456,8,120,307,229,140,7.89,100778,66.7
UTC 221221 113616 5 9 ,108,53.32828522,5.934018612,9.54,0,0,0,74.48,74.48,0.01,460,9,121,308,229,141,7.91,100774,66.7
UTC 221221 113617 5 9 ,109,53.32829285,5.934068203,9.55,0,0,0,74.7,74.7,0.01,472,10,120,308,229,140,7.92,100780,66.7
UTC 221221 113618 5 9 ,110,53.32830048,5.934085846,9.56,0,0,0,38.49,38.49,0.01,456,8,120,306,229,141,7.95,100757,66.7
UTC 221221 113619 5 9 ,111,53.32831192,5.934076786,9.59,0,0,0,341.29,341.29,0.01,446,7,121,308,229,141,7.95,100736,66.7
UTC 221221 113620 5 9 ,112,53.32831955,5.934051037,9.6,0,0,0,273.69,273.69,0.01,446,7,121,308,228,141,7.99,100728,66.7
UTC 221221 113620 5 9 ,113,53.32831573,5.934023857,9.61,0,0,0,254.75,254.75,0.01,444,6,121,308,228,140,7.91,100727,66.7
UTC 221221 113622 5 9 ,114,53.32830811,5.933982849,9.56,0,0,0,253.53,253.53,0.01,444,6,121,308,228,141,7.82,100729,66.7
UTC 221221 113623 5 9 ,115,53.32830048,5.933929443,9.53,0,0,0,253.81,253.81,0.01,435,5,120,307,227,140,7.71,100717,66.7
UTC 221221 113624 5 9 ,116,53.32828903,5.933867931,9.48,0,0,0,253.64,253.64,0.01,420,3,120,308,228,140,7.63,100714,66.7
UTC 221221 113625 5 9 ,117,53.32827759,5.933800221,9.43,0,0,0,253.34,253.34,0.01,420,3,119,308,227,140,7.55,100721,66.7
UTC 221221 113626 5 9 ,118,53.32826233,5.933722019,9.41,0,0,0,252.85,252.85,0.01,420,3,119,308,227,141,7.49,100714,66.7
UTC 221221 113627 5 9 ,119,53.32825089,5.933648109,9.36,0,0,0,253.13,253.13,0.01,423,3,119,307,226,141,7.41,100712,66.7
UTC 221221 113628 5 9 ,120,53.32823944,5.93357563,9.3,0,0,0,253.21,253.21,0.01,416,2,118,308,226,140,7.35,100718,66.7
UTC 221221 113628 5 9 ,121,53.32822418,5.933502197,9.24,0,0,0,253.31,253.31,0.01,415,2,119,307,227,141,7.29,100730,66.7
UTC 221221 113630 5 9 ,122,53.32821274,5.933427811,9.19,0,0,0,253.27,253.27,0.01,411,1,118,308,226,140,7.25,100724,66.7
UTC 221221 113631 5 9 ,123,53.32820129,5.933355808,9.15,0,0,0,253.69,253.69,0.01,405,0,118,307,226,140,7.19,100716,66.7
UTC 221221 113632 5 9 ,124,53.32818604,5.933283806,9.11,0,0,0,253.27,253.27,0.01,411,1,117,307,225,140,7.13,100720,66.7
UTC 221221 113633 5 9 ,125,53.32817459,5.933211327,9.06,0,0,0,252.68,252.68,0.01,420,3,117,308,225,140,7.11,100727,66.7
UTC 221221 113634 5 9 ,126,53.32815933,5.933138371,9,0,0,0,252.62,252.62,0.01,407,1,117,309,225,140,7.07,100732,66.7
UTC 221221 113635 5 9 ,127,53.32814789,5.933066368,8.93,0,0,0,252.77,252.77,0.01,405,0,117,308,225,141,7.02,100730,66.7
UTC 221221 113635 5 9 ,128,53.32813644,5.932991982,8.89,0,0,0,253.55,253.55,0.01,405,0,117,308,224,141,7,100723,66.7
UTC 221221 113637 5 9 ,129,53.328125,5.932920456,8.82,0,0,0,253.64,253.64,0.01,407,1,117,308,224,140,6.99,100726,66.7
UTC 221221 113638 5 9 ,130,53.32811356,5.932847977,8.79,0,0,0,253.41,253.41,0.01,420,3,116,309,224,140,6.97,100723,66.7
UTC 221221 113639 5 9 ,131,53.3280983,5.932775974,8.72,0,0,0,253.36,253.36,0.01,407,1,116,308,224,140,6.95,100730,66.7
UTC 221221 113640 5 9 ,132,53.32808685,5.93270731,8.69,0,0,0,252.48,252.48,0.01,405,0,117,308,224,140,6.93,100729,66.7
UTC 221221 113641 5 9 ,133,53.32807541,5.93265152,8.68,0,0,0,252.27,252.27,0.01,407,1,116,308,223,140,6.92,100735,66.7
UTC 221221 113642 5 9 ,134,53.32807541,5.932631016,8.6,0,0,0,284.71,284.71,0.01,415,2,116,309,223,141,6.93,100758,66.7
UTC 221221 113643 5 9 ,135,53.32809067,5.932625771,8.55,0,0,0,339.98,339.98,0.01,425,3,116,309,223,140,7.02,100755,66.7
UTC 221221 113643 5 9 ,136,53.32810211,5.932638645,8.58,0,0,0,47.65,47.65,0.01,425,3,116,308,223,141,7.09,100790,66.7
UTC 221221 113645 5 9 ,137,53.32810974,5.932664394,8.62,0,0,0,72.48,72.48,0.01,432,4,117,309,222,140,7.14,100791,66.7
UTC 221221 113646 5 9 ,138,53.32811737,5.932704449,8.65,0,0,0,73.31,73.31,0.01,435,5,117,308,222,140,7.21,100792,66.7
UTC 221221 113647 5 9 ,139,53.328125,5.93275547,8.69,0,0,0,73.19,73.19,0.01,436,5,116,309,222,140,7.25,100792,66.7
UTC 221221 113648 5 9 ,140,53.32813263,5.932816982,8.74,0,0,0,73.46,73.46,0.01,451,7,115,307,222,140,7.31,100788,66.7
UTC 221221 113649 5 9 ,141,53.32814407,5.932887554,8.81,0,0,0,73.68,73.68,0.01,446,7,115,308,221,140,7.34,100783,66.7
UTC 221221 113650 5 9 ,142,53.32815933,5.932958126,8.87,0,0,0,73.19,73.19,0.01,441,6,115,308,221,140,7.37,100787,66.7
UTC 221221 113651 5 9 ,143,53.32817078,5.93303442,8.94,0,0,0,73.29,73.29,0.01,441,6,114,308,220,140,7.41,100783,66.7
UTC 221221 113652 5 9 ,144,53.32818604,5.933107376,8.99,0,0,0,73.57,73.57,0.01,444,6,116,309,220,140,7.45,100788,66.7
UTC 221221 113652 5 9 ,145,53.32819748,5.933184147,9.06,0,0,0,73.79,73.79,0.01,451,7,115,308,221,140,7.48,100786,66.7
UTC 221221 113654 5 9 ,146,53.32820892,5.933255673,9.12,0,0,0,73.82,73.82,0.01,456,8,115,307,220,139,7.52,100788,66.7
UTC 221221 113655 5 9 ,147,53.32822037,5.933325768,9.18,0,0,0,73.7,73.7,0.01,446,7,114,308,220,140,7.57,100785,66.7
UTC 221221 113656 5 9 ,148,53.32823563,5.933399677,9.23,0,0,0,73.75,73.75,0.01,446,7,115,308,219,139,7.6,100789,66.7
UTC 221221 113657 5 9 ,149,53.32824707,5.933474541,9.3,0,0,0,73.62,73.62,0.01,451,7,114,308,219,139,7.63,100783,66.7
UTC 221221 113657 5 9 ,150,53.32825851,5.93354702,9.36,0,0,0,73.77,73.77,0.01,455,8,113,307,219,140,7.67,100780,66.7
UTC 221221 113659 5 9 ,151,53.32827377,5.933619499,9.41,0,0,0,73.87,73.87,0.01,455,8,114,308,218,139,7.7,100777,66.7
UTC 221221 113700 5 9 ,152,53.32828522,5.933691025,9.45,0,0,0,73.99,73.99,0.01,455,8,114,308,218,140,7.73,100775,66.7
UTC 221221 113701 5 9 ,153,53.32829666,5.933759213,9.51,0,0,0,73.7,73.7,0.01,463,9,114,308,218,140,7.75,100773,66.7
UTC 221221 113702 5 9 ,154,53.32830811,5.933833599,9.58,0,0,0,73.64,73.64,0.01,460,9,115,308,218,140,7.76,100774,66.7
UTC 221221 113703 5 9 ,155,53.32831955,5.933903694,9.64,0,0,0,73.49,73.49,0.01,455,8,114,308,218,140,7.78,100772,66.7
UTC 221221 113704 5 9 ,156,53.32833481,5.933977604,9.69,0,0,0,74.2,74.2,0.01,460,9,114,308,218,140,7.8,100775,66.7
UTC 221221 113705 5 9 ,157,53.32834625,5.934035301,9.71,0,0,0,74.88,74.88,0.01,456,8,114,308,217,140,7.82,100771,66.7
UTC 221221 113706 5 9 ,158,53.32835007,5.934057713,9.72,0,0,0,49.27,49.27,0.01,463,9,114,307,217,139,7.85,100761,66.7
UTC 221221 113707 5 9 ,159,53.32836151,5.934051514,9.8,0,0,0,345.25,345.25,0.01,456,8,114,308,218,140,7.87,100745,66.7
UTC 221221 113708 5 9 ,160,53.32836914,5.934027195,9.83,0,0,0,285.82,285.82,0.01,451,7,115,308,218,140,7.92,100744,66.7
UTC 221221 113709 5 9 ,161,53.32836914,5.934000015,9.83,0,0,0,254.31,254.31,0.01,451,7,114,308,217,140,7.87,100730,66.7
UTC 221221 113710 5 9 ,162,53.32836151,5.933961391,9.8,0,0,0,254.19,254.19,0.01,446,7,115,308,216,140,7.8,100724,66.7
UTC 221221 113711 5 9 ,163,53.32835388,5.933907509,9.74,0,0,0,253.45,253.45,0.01,441,6,114,309,217,140,7.72,100723,66.7
UTC 221221 113712 5 9 ,164,53.32834244,5.933847904,9.69,0,0,0,253.31,253.31,0.01,444,6,114,309,217,139,7.63,100721,66.7
UTC 221221 113713 5 9 ,165,53.32832718,5.933775425,9.63,0,0,0,253.1,253.1,0.01,425,3,114,309,217,140,7.55,100724,66.7
UTC 221221 113714 5 9 ,166,53.32831573,5.933701038,9.57,0,0,0,252.89,252.89,0.01,420,3,114,309,217,140,7.49,100716,66.7
UTC 221221 113715 5 9 ,167,53.32830429,5.933629513,9.49,0,0,0,253.29,253.29,0.01,423,3,114,309,216,140,7.42,100721,66.7
UTC 221221 113716 5 9 ,168,53.32828903,5.933554649,9.42,0,0,0,253.55,253.55,0.01,420,3,113,308,216,140,7.35,100725,66.7
UTC 221221 113717 5 9 ,169,53.32827759,5.933482647,9.36,0,0,0,253.28,253.28,0.01,432,4,113,308,216,140,7.29,100724,66.7
UTC 221221 113718 5 9 ,170,53.32826614,5.933407307,9.3,0,0,0,252.86,252.86,0.01,411,1,113,308,216,140,7.23,100727,66.7
UTC 221221 113719 5 9 ,171,53.32825089,5.933335304,9.25,0,0,0,252.92,252.92,0.01,411,1,113,308,216,140,7.18,100728,66.7
UTC 221221 113720 5 9 ,172,53.32823944,5.933263779,9.18,0,0,0,253.06,253.06,0.01,411,1,112,309,215,139,7.12,100723,66.7
UTC 221221 113721 5 9 ,173,53.328228,5.933189869,9.12,0,0,0,253.19,253.19,0.01,407,1,112,308,215,139,7.08,100726,66.7
UTC 221221 113722 5 9 ,174,53.32821274,5.933120728,9.06,0,0,0,253.29,253.29,0.01,415,2,112,307,214,140,7.04,100727,66.7
UTC 221221 113723 5 9 ,175,53.32820129,5.933048725,8.99,0,0,0,253.57,253.57,0.01,407,1,112,307,214,140,6.98,100723,66.7
UTC 221221 113724 5 9 ,176,53.32818985,5.932972908,8.93,0,0,0,253.78,253.78,0.01,405,0,112,308,214,139,6.95,100723,66.7
UTC 221221 113725 5 9 ,177,53.32817841,5.932902336,8.89,0,0,0,253.18,253.18,0.01,401,0,112,309,214,140,6.92,100727,66.7
UTC 221221 113726 5 9 ,178,53.32816315,5.932827473,8.83,0,0,0,253.83,253.83,0.01,405,0,111,308,213,139,6.89,100720,66.7
UTC 221221 113727 5 9 ,179,53.3281517,5.932758331,8.75,0,0,0,254.1,254.1,0.01,411,1,110,308,213,140,6.87,100725,66.7
UTC 221221 113728 5 9 ,180,53.32814026,5.932686329,8.71,0,0,0,252.59,252.59,0.01,411,1,111,308,213,139,6.85,100730,66.7
UTC 221221 113729 5 9 ,181,53.32812881,5.932627678,8.7,0,0,0,251.79,251.79,0.01,405,0,110,308,213,139,6.84,100729,66.7
UTC 221221 113730 5 9 ,182,53.328125,5.932602406,8.61,0,0,0,276.17,276.17,0.01,407,1,110,308,213,139,6.84,100750,66.7
UTC 221221 113731 5 9 ,183,53.32814026,5.932594776,8.53,0,0,0,336.23,336.23,0.01,416,2,110,309,213,140,6.92,100755,66.7
UTC 221221 113732 5 9 ,184,53.32815552,5.93260479,8.56,0,0,0,38.2,38.2,0.01,423,3,111,309,212,140,6.98,100780,66.7
UTC 221221 113733 5 9 ,185,53.32815933,5.932629585,8.59,0,0,0,72.38,72.38,0.01,444,6,111,309,212,140,7.06,100786,66.7
UTC 221221 113734 5 9 ,186,53.32816696,5.932668209,8.63,0,0,0,73.15,73.15,0.01,432,4,111,308,212,140,7.11,100788,66.7
UTC 221221 113735 5 9 ,187,53.32817078,5.932718754,8.68,0,0,0,73.35,73.35,0.01,441,6,112,309,212,140,7.18,100787,66.7
UTC 221221 113736 5 9 ,188,53.32818222,5.932778835,8.73,0,0,0,73.34,73.34,0.01,441,6,111,309,212,139,7.23,100788,66.7
UTC 221221 113737 5 9 ,189,53.32819366,5.932845593,8.79,0,0,0,73.49,73.49,0.01,444,6,111,309,212,139,7.26,100793,66.7
UTC 221221 113738 5 9 ,190,53.32820892,5.932919502,8.86,0,0,0,73.61,73.61,0.01,460,9,112,309,211,139,7.31,100787,66.7
UTC 221221 113739 5 9 ,191,53.32822037,5.932991505,8.94,0,0,0,73.8,73.8,0.01,446,7,111,308,210,139,7.35,100788,66.7
UTC 221221 113740 5 9 ,192,53.32823181,5.933064461,9.01,0,0,0,73.57,73.57,0.01,446,7,111,309,210,139,7.39,100787,66.7
UTC 221221 113741 5 9 ,193,53.32824707,5.933137894,9.1,0,0,0,73.89,73.89,0.01,451,7,111,308,211,139,7.44,100790,66.7
UTC 221221 113742 5 9 ,194,53.32825851,5.933212757,9.16,0,0,0,73.57,73.57,0.01,451,7,111,308,210,139,7.47,100786,66.7
UTC 221221 113742 5 9 ,195,53.32826996,5.933285236,9.25,0,0,0,73.83,73.83,0.01,463,9,111,308,210,139,7.52,100787,66.7
UTC 221221 113744 5 9 ,196,53.3282814,5.933355331,9.32,0,0,0,73.51,73.51,0.01,456,8,110,308,210,138,7.55,100783,66.7
UTC 221221 113745 5 9 ,197,53.32829666,5.93342638,9.39,0,0,0,73.48,73.48,0.01,455,8,111,309,210,139,7.57,100779,66.7
UTC 221221 113746 5 9 ,198,53.32830811,5.93350172,9.47,0,0,0,73.63,73.63,0.01,456,8,111,308,210,139,7.61,100780,66.7
UTC 221221 113747 5 9 ,199,53.32831955,5.933573246,9.55,0,0,0,73.23,73.23,0.01,455,8,111,309,209,139,7.63,100783,66.7
UTC 221221 113748 5 9 ,200,53.32833099,5.933641434,9.61,0,0,0,73.53,73.53,0.01,460,9,110,308,209,139,7.64,100777,66.7
UTC 221221 113749 5 9 ,201,53.32834625,5.933715344,9.68,0,0,0,73.56,73.56,0.01,456,8,110,308,209,139,7.67,100781,66.7
UTC 221221 113750 5 9 ,202,53.3283577,5.9337883,9.75,0,0,0,73.72,73.72,0.01,451,7,110,308,208,139,7.69,100779,66.7
UTC 221221 113751 5 9 ,203,53.32837296,5.933862209,9.81,0,0,0,73.58,73.58,0.01,451,7,110,308,208,139,7.71,100776,66.7
UTC 221221 113752 5 9 ,204,53.3283844,5.933931351,9.87,0,0,0,73.68,73.68,0.01,451,7,110,308,209,139,7.73,100771,66.7
UTC 221221 113753 5 9 ,205,53.32839584,5.933996677,9.93,0,0,0,74.71,74.71,0.01,456,8,110,308,208,138,7.74,100772,66.7
UTC 221221 113754 5 9 ,206,53.32839966,5.934027672,9.94,0,0,0,62.78,62.78,0.01,460,9,109,308,208,139,7.76,100768,66.7
UTC 221221 113755 5 9 ,207,53.3284111,5.934027195,10,0,0,0,350.96,350.96,0.01,446,7,109,309,208,139,7.77,100740,66.7
UTC 221221 113756 5 9 ,208,53.32842255,5.934009075,10.04,0,0,0,303.85,303.85,0.01,444,6,109,309,207,139,7.81,100731,66.7
UTC 221221 113757 5 9 ,209,53.32841873,5.933980942,10.04,0,0,0,255.87,255.87,0.01,444,6,110,309,208,139,7.79,100720,66.7
UTC 221221 113758 5 9 ,210,53.32841492,5.933947563,9.99,0,0,0,254.75,254.75,0.01,444,6,109,308,207,139,7.71,100715,66.7
UTC 221221 113759 5 9 ,211,53.32840729,5.933897972,9.96,0,0,0,254.02,254.02,0.01,451,7,109,308,207,140,7.64,100713,66.7
UTC 221221 113800 5 9 ,212,53.32839584,5.933840752,9.9,0,0,0,253.55,253.55,0.01,432,4,109,308,206,139,7.59,100714,66.7
UTC 221221 113801 5 9 ,213,53.3283844,5.933773518,9.81,0,0,0,253.83,253.83,0.01,432,4,109,309,206,140,7.53,100709,66.7
UTC 221221 113802 5 9 ,214,53.32837296,5.933699608,9.76,0,0,0,253.38,253.38,0.01,423,3,109,309,207,139,7.47,100710,66.7
UTC 221221 113803 5 9 ,215,53.3283577,5.933624268,9.71,0,0,0,252.59,252.59,0.01,425,3,109,309,206,139,7.43,100710,66.7
UTC 221221 113804 5 9 ,216,53.32834625,5.933550358,9.64,0,0,0,252.3,252.3,0.01,432,4,108,309,207,139,7.38,100730,66.7
UTC 221221 113805 5 9 ,217,53.32833099,5.933478832,9.55,0,0,0,252.42,252.42,0.01,423,3,109,309,207,139,7.32,100729,66.7
UTC 221221 113806 5 9 ,218,53.32831955,5.933405399,9.46,0,0,0,253.1,253.1,0.01,415,2,109,309,206,140,7.26,100711,66.7
UTC 221221 113807 5 9 ,219,53.32830811,5.933336258,9.38,0,0,0,253.23,253.23,0.01,415,2,109,309,206,139,7.19,100721,66.7
UTC 221221 113808 5 9 ,220,53.32829666,5.933262825,9.31,0,0,0,253.8,253.8,0.01,411,1,109,309,206,139,7.13,100714,66.7
UTC 221221 113809 5 9 ,221,53.3282814,5.933189869,9.22,0,0,0,253.8,253.8,0.01,415,2,109,309,205,139,7.07,100721,66.7
UTC 221221 113809 5 9 ,222,53.32826996,5.93311882,9.15,0,0,0,253.25,253.25,0.01,411,1,109,308,205,139,7.03,100719,66.7
UTC 221221 113809 5 9 ,223,53.32825851,5.933043957,9.08,0,0,0,253.54,253.54,0.01,408,1,107,308,205,139,6.99,100719,66.7
UTC 221221 113809 5 9 ,224,53.32824707,5.932972908,9,0,0,0,253.21,253.21,0.01,405,0,108,309,205,139,6.94,100724,66.7
UTC 221221 113813 5 9 ,225,53.32823181,5.932899952,8.93,0,0,0,252.94,252.94,0.01,408,1,108,309,205,140,6.9,100726,66.7
UTC 221221 113814 5 9 ,226,53.32822037,5.932826996,8.85,0,0,0,253.15,253.15,0.01,408,1,108,309,205,139,6.87,100724,66.7
UTC 221221 113815 5 9 ,227,53.32820511,5.93275547,8.78,0,0,0,252.84,252.84,0.01,410,1,108,309,205,139,6.84,100732,66.7
UTC 221221 113816 5 9 ,228,53.32819366,5.932682514,8.68,0,0,0,253.49,253.49,0.01,403,0,107,309,204,139,6.8,100729,66.7
UTC 221221 113817 5 9 ,229,53.32818222,5.932616234,8.65,0,0,0,252.16,252.16,0.01,400,0,107,309,205,139,6.77,100730,66.7
UTC 221221 113818 5 9 ,230,53.32817459,5.932578564,8.6,0,0,0,256.59,256.59,0.01,408,1,107,309,204,139,6.75,100745,66.7
UTC 221221 113819 5 9 ,231,53.32818222,5.932566166,8.49,0,0,0,321.54,321.54,0.01,422,3,107,309,204,139,6.8,100758,66.7
UTC 221221 113820 5 9 ,232,53.32819748,5.932567596,8.48,0,0,0,8.65,8.65,0.01,423,3,107,305,203,139,6.89,100767,66.7
UTC 221221 113821 5 9 ,233,53.32820892,5.932589054,8.52,0,0,0,70.76,70.76,0.01,432,4,109,309,204,139,6.95,100793,66.7
UTC 221221 113822 5 9 ,234,53.32821655,5.932619572,8.57,0,0,0,72.61,72.61,0.01,444,6,109,309,204,139,7.01,100791,66.7
UTC 221221 113822 5 9 ,235,53.32822037,5.932666302,8.62,0,0,0,72.81,72.81,0.01,447,7,108,309,204,139,7.08,100786,66.7
UTC 221221 113824 5 9 ,236,53.328228,5.932723522,8.69,0,0,0,73.71,73.71,0.01,447,7,109,310,204,139,7.12,100784,66.7
UTC 221221 113825 5 9 ,237,53.32823944,5.932785988,8.77,0,0,0,73.54,73.54,0.01,447,7,108,309,204,139,7.17,100786,66.7
UTC 221221 113826 5 9 ,238,53.32825089,5.932855129,8.86,0,0,0,73.38,73.38,0.01,454,8,109,309,203,139,7.22,100785,66.7
UTC 221221 113827 5 9 ,239,53.32826614,5.932930946,8.95,0,0,0,73.83,73.83,0.01,462,9,109,308,203,139,7.27,100783,66.7
UTC 221221 113828 5 9 ,240,53.32827759,5.933004856,9.05,0,0,0,73.64,73.64,0.01,462,9,108,309,203,139,7.32,100785,66.7
UTC 221221 113829 5 9 ,241,53.32828903,5.933075905,9.13,0,0,0,73.55,73.55,0.01,459,8,109,309,202,139,7.34,100777,66.7
UTC 221221 113830 5 9 ,242,53.32830429,5.933148861,9.22,0,0,0,73.45,73.45,0.01,459,8,109,309,202,139,7.37,100780,66.7
UTC 221221 113831 5 9 ,243,53.32831573,5.933224201,9.3,0,0,0,73.57,73.57,0.01,462,9,109,309,202,139,7.43,100782,66.7
UTC 221221 113832 5 9 ,244,53.32832718,5.933296204,9.39,0,0,0,73.44,73.44,0.01,463,9,108,309,202,138,7.46,100779,66.7
UTC 221221 113833 5 9 ,245,53.32834244,5.933368206,9.48,0,0,0,73.64,73.64,0.01,473,11,108,308,202,139,7.49,100777,66.7
UTC 221221 113834 5 9 ,246,53.32835388,5.933441162,9.56,0,0,0,73.75,73.75,0.01,462,9,108,309,202,138,7.52,100776,66.7
UTC 221221 113835 5 9 ,247,53.32836533,5.933512211,9.64,0,0,0,73.55,73.55,0.01,463,9,108,309,202,138,7.57,100777,66.7
UTC 221221 113835 5 9 ,248,53.32837677,5.93358469,9.71,0,0,0,73.44,73.44,0.01,463,9,108,308,202,139,7.59,100776,66.7
UTC 221221 113835 5 9 ,249,53.32839203,5.933656216,9.8,0,0,0,73.53,73.53,0.01,463,9,107,309,202,139,7.63,100770,66.7
UTC 221221 113838 5 9 ,250,53.32840347,5.933728218,9.89,0,0,0,73.58,73.58,0.01,476,11,107,309,201,139,7.66,100767,66.7
UTC 221221 113839 5 9 ,251,53.32841492,5.933802128,9.98,0,0,0,73.87,73.87,0.01,462,9,107,309,201,138,7.68,100760,66.7
UTC 221221 113840 5 9 ,252,53.32843018,5.93387413,10.08,0,0,0,73.72,73.72,0.01,463,9,108,309,201,138,7.69,100762,66.7
UTC 221221 113841 5 9 ,253,53.32844162,5.93394661,10.17,0,0,0,74.66,74.66,0.01,463,9,107,309,200,139,7.71,100759,66.7
UTC 221221 113842 5 9 ,254,53.32844925,5.933995247,10.2,0,0,0,74.8,74.8,0.01,466,10,107,309,201,139,7.75,100761,66.7
UTC 221221 113843 5 9 ,255,53.32845688,5.934007645,10.23,0,0,0,26.04,26.04,0.01,480,12,107,308,200,139,7.76,100743,66.7
UTC 221221 113844 5 9 ,256,53.32846832,5.933995724,10.28,0,0,0,335.75,335.75,0.01,462,9,107,308,200,139,7.79,100728,66.7
UTC 221221 113845 5 9 ,257,53.32847214,5.933969021,10.3,0,0,0,266.48,266.48,0.01,459,8,107,308,200,138,7.81,100722,66.7
UTC 221221 113846 5 9 ,258,53.32846832,5.933942318,10.27,0,0,0,254.09,254.09,0.01,454,8,107,308,200,139,7.73,100717,66.7
UTC 221221 113847 5 9 ,259,53.32846069,5.93390131,10.22,0,0,0,253.44,253.44,0.01,447,7,107,309,199,139,7.64,100720,66.7
UTC 221221 113848 5 9 ,260,53.32845306,5.933848381,10.17,0,0,0,253.44,253.44,0.01,451,7,107,309,199,139,7.58,100711,66.7
UTC 221221 113849 5 9 ,261,53.32844543,5.933786392,10.08,0,0,0,253.54,253.54,0.01,443,6,106,309,200,139,7.5,100706,66.7
UTC 221221 113850 5 9 ,262,53.32843018,5.933716297,10,0,0,0,253.43,253.43,0.01,432,4,106,309,199,138,7.43,100708,66.7
UTC 221221 113851 5 9 ,263,53.32841873,5.93364048,9.93,0,0,0,253.05,253.05,0.01,426,3,106,308,198,138,7.36,100705,66.7
UTC 221221 113852 5 9 ,264,53.32840729,5.933566093,9.83,0,0,0,253.46,253.46,0.01,432,4,106,309,199,138,7.32,100706,66.7
UTC 221221 113853 5 9 ,265,53.32839203,5.933492184,9.75,0,0,0,252.6,252.6,0.01,426,3,105,308,199,138,7.28,100719,66.7
UTC 221221 113854 5 9 ,266,53.32838058,5.933419228,9.64,0,0,0,253.05,253.05,0.01,439,5,105,308,199,138,7.24,100718,66.7
UTC 221221 113855 5 9 ,267,53.32836533,5.933348179,9.56,0,0,0,253.24,253.24,0.01,423,3,105,309,198,138,7.2,100717,66.7
UTC 221221 113856 5 9 ,268,53.32835388,5.933275223,9.45,0,0,0,254.26,254.26,0.01,422,3,104,308,198,138,7.16,100709,66.7
UTC 221221 113857 5 9 ,269,53.32834244,5.933204651,9.36,0,0,0,253.88,253.88,0.01,418,2,105,307,198,138,7.11,100714,66.7
UTC 221221 113858 5 9 ,270,53.32833099,5.933132649,9.23,0,0,0,253.66,253.66,0.01,418,2,104,309,198,139,7.08,100712,66.7
UTC 221221 113859 5 9 ,271,53.32831955,5.933059692,9.15,0,0,0,253.39,253.39,0.01,426,3,104,309,198,138,7.04,100707,66.7
UTC 221221 113900 5 9 ,272,53.32830429,5.932988167,9.1,0,0,0,253.11,253.11,0.01,414,2,103,309,198,138,7,100727,66.7
UTC 221221 113900 5 9 ,273,53.32829285,5.932913303,9,0,0,0,252.84,252.84,0.01,411,1,104,308,197,138,6.97,100719,66.7
UTC 221221 113902 5 9 ,274,53.32827759,5.932839871,8.9,0,0,0,252.29,252.29,0.01,418,2,105,310,198,139,6.95,100734,66.7
UTC 221221 113903 5 9 ,275,53.32826614,5.932769299,8.82,0,0,0,252.64,252.64,0.01,414,2,104,310,197,139,6.92,100732,66.7
UTC 221221 113904 5 9 ,276,53.32825089,5.932695389,8.69,0,0,0,253.3,253.3,0.01,423,3,104,309,197,139,6.9,100733,66.7
UTC 221221 113905 5 9 ,277,53.32823944,5.932624817,8.6,0,0,0,253.2,253.2,0.01,422,3,104,309,197,139,6.89,100727,66.7
UTC 221221 113906 5 9 ,278,53.32823181,5.932565212,8.57,0,0,0,252.6,252.6,0.01,418,2,103,308,196,138,6.88,100729,66.7
UTC 221221 113907 5 9 ,279,53.328228,5.932540894,8.51,0,0,0,273.65,273.65,0.01,423,3,104,309,197,138,6.9,100746,66.7
UTC 221221 113908 5 9 ,280,53.32823944,5.932533741,8.44,0,0,0,334.93,334.93,0.01,432,4,104,309,197,138,6.96,100751,66.7
UTC 221221 113909 5 9 ,281,53.3282547,5.932543278,8.45,0,0,0,35.12,35.12,0.01,444,6,104,310,195,137,7.02,100772,66.7
UTC 221221 113909 5 9 ,282,53.32826233,5.932567596,8.5,0,0,0,72.17,72.17,0.01,444,6,104,309,196,139,7.08,100793,66.7
UTC 221221 113909 5 9 ,283,53.32826614,5.932604313,8.58,0,0,0,72.89,72.89,0.01,443,6,103,309,196,139,7.15,100790,66.7
UTC 221221 113912 5 9 ,284,53.32827377,5.932655335,8.64,0,0,0,73,73,0.01,443,6,103,309,196,139,7.21,100791,66.7
UTC 221221 113913 5 9 ,285,53.32828522,5.932716847,8.71,0,0,0,73.16,73.16,0.01,447,7,104,308,195,138,7.24,100789,66.7
UTC 221221 113914 5 9 ,286,53.32829666,5.932784081,8.8,0,0,0,73.5,73.5,0.01,454,8,104,309,195,138,7.28,100790,66.7
UTC 221221 113915 5 9 ,287,53.32830811,5.932856083,8.91,0,0,0,73.3,73.3,0.01,462,9,103,309,195,137,7.32,100785,66.7
UTC 221221 113916 5 9 ,288,53.32832336,5.9329319,9.01,0,0,0,73.41,73.41,0.01,451,7,103,309,195,138,7.35,100787,66.7
UTC 221221 113917 5 9 ,289,53.32833481,5.93300581,9.11,0,0,0,73.59,73.59,0.01,447,7,103,309,195,138,7.39,100784,66.7
UTC 221221 113918 5 9 ,290,53.32834625,5.933079243,9.21,0,0,0,73.77,73.77,0.01,451,7,103,308,195,137,7.44,100786,66.7
UTC 221221 113919 5 9 ,291,53.32836151,5.933151722,9.3,0,0,0,73.62,73.62,0.01,459,8,102,308,194,137,7.48,100785,66.7
UTC 221221 113920 5 9 ,292,53.32837296,5.933222294,9.4,0,0,0,73.7,73.7,0.01,473,11,102,309,195,137,7.52,100777,66.7
UTC 221221 113921 5 9 ,293,53.3283844,5.933296204,9.5,0,0,0,73.35,73.35,0.01,454,8,103,309,194,137,7.54,100780,66.7
UTC 221221 113922 5 9 ,294,53.32839966,5.933368206,9.61,0,0,0,73.54,73.54,0.01,459,8,103,308,194,137,7.56,100778,66.7
UTC 221221 113923 5 9 ,295,53.3284111,5.933440685,9.71,0,0,0,73.72,73.72,0.01,459,8,102,309,193,137,7.6,100776,66.7
UTC 221221 113924 5 9 ,296,53.32842255,5.933512211,9.81,0,0,0,73.49,73.49,0.01,459,8,102,309,194,138,7.61,100772,66.7
UTC 221221 113925 5 9 ,297,53.32843399,5.933582783,9.91,0,0,0,73.25,73.25,0.01,466,10,102,308,193,137,7.64,100773,66.7
UTC 221221 113926 5 9 ,298,53.32844925,5.933655739,10,0,0,0,73.77,73.77,0.01,459,8,102,309,193,137,7.65,100772,66.7
UTC 221221 113927 5 9 ,299,53.32846069,5.933729649,10.09,0,0,0,73.88,73.88,0.01,459,8,103,308,193,137,7.69,100769,66.7
UTC 221221 113928 5 9 ,300,53.32847214,5.933801651,10.19,0,0,0,73.56,73.56,0.01,462,9,102,309,193,138,7.7,100767,66.7
UTC 221221 113929 5 9 ,301,53.32848358,5.933873177,10.29,0,0,0,73.58,73.58,0.01,459,8,102,309,193,138,7.72,100766,66.7
UTC 221221 113930 5 9 ,302,53.32849503,5.933939934,10.37,0,0,0,74.76,74.76,0.01,473,11,102,309,193,137,7.74,100766,66.7
UTC 221221 113931 5 9 ,303,53.32850266,5.93397522,10.39,0,0,0,69,69,0.01,463,9,103,309,192,137,7.76,100766,66.7
UTC 221221 113932 5 9 ,304,53.3285141,5.933975697,10.43,0,0,0,357.81,357.81,0.01,459,8,102,309,192,138,7.77,100733,66.7
UTC 221221 113933 5 9 ,305,53.32852554,5.933959484,10.47,0,0,0,313.78,313.78,0.01,444,6,103,309,192,138,7.77,100722,66.7
UTC 221221 113934 5 9 ,306,53.32852554,5.933932781,10.47,0,0,0,257.24,257.24,0.01,451,7,103,309,192,138,7.79,100706,66.7
UTC 221221 113934 5 9 ,307,53.32851791,5.933902741,10.43,0,0,0,254.05,254.05,0.01,454,8,102,309,192,138,7.71,100710,66.7
UTC 221221 113936 5 9 ,308,53.32851028,5.933858395,10.37,0,0,0,253.71,253.71,0.01,447,7,103,309,191,138,7.62,100704,66.7
UTC 221221 113937 5 9 ,309,53.32850266,5.933801174,10.32,0,0,0,253.64,253.64,0.01,434,5,102,309,192,138,7.53,100709,66.7
UTC 221221 113938 5 9 ,310,53.32849121,5.933735371,10.26,0,0,0,253.33,253.33,0.01,439,5,102,310,191,138,7.48,100707,66.7
UTC 221221 113939 5 9 ,311,53.32847595,5.933661461,10.13,0,0,0,252.84,252.84,0.01,426,3,102,308,191,138,7.4,100708,66.7
UTC 221221 113939 5 9 ,312,53.32846451,5.933587551,10,0,0,0,253.17,253.17,0.01,426,3,102,309,191,138,7.33,100706,66.7
UTC 221221 113941 5 9 ,313,53.32845306,5.933512688,9.9,0,0,0,253.28,253.28,0.01,439,5,101,309,192,138,7.29,100710,66.7
UTC 221221 113942 5 9 ,314,53.32843781,5.933440208,9.78,0,0,0,253.88,253.88,0.01,422,3,101,308,191,137,7.24,100703,66.7
UTC 221221 113943 5 9 ,315,53.32842636,5.933368206,9.69,0,0,0,253.58,253.58,0.01,432,4,101,309,191,138,7.2,100706,66.7
UTC 221221 113944 5 9 ,316,53.32841492,5.933297157,9.62,0,0,0,252.85,252.85,0.01,426,3,101,309,191,138,7.16,100719,66.7
UTC 221221 113945 5 9 ,317,53.32839966,5.933225155,9.51,0,0,0,252.71,252.71,0.01,418,2,101,309,191,138,7.1,100716,66.7
UTC 221221 113945 5 9 ,318,53.32838821,5.933153629,9.39,0,0,0,253.09,253.09,0.01,411,1,101,310,191,138,7.04,100719,66.7
UTC 221221 113947 5 9 ,319,53.32837677,5.933081627,9.28,0,0,0,253.17,253.17,0.01,414,2,101,309,191,138,6.99,100718,66.7
UTC 221221 113948 5 9 ,320,53.32836151,5.933009148,9.17,0,0,0,253.43,253.43,0.01,423,3,101,310,190,138,6.97,100719,66.7
UTC 221221 113949 5 9 ,321,53.32835007,5.932935715,9.07,0,0,0,253.54,253.54,0.01,422,3,100,309,191,137,6.95,100718,66.7
UTC 221221 113950 5 9 ,322,53.32833862,5.932865143,8.96,0,0,0,253.19,253.19,0.01,414,2,100,309,189,138,6.92,100715,66.7
UTC 221221 113951 5 9 ,323,53.32832718,5.932791233,8.86,0,0,0,253.55,253.55,0.01,414,2,100,310,190,138,6.88,100720,66.7
UTC 221221 113952 5 9 ,324,53.32831573,5.932719708,8.73,0,0,0,253.84,253.84,0.01,408,1,100,310,190,137,6.86,100717,66.7
UTC 221221 113953 5 9 ,325,53.32830048,5.932647705,8.63,0,0,0,253.11,253.11,0.01,414,2,100,309,190,137,6.83,100719,66.7
UTC 221221 113954 5 9 ,326,53.32828903,5.93257761,8.53,0,0,0,252.09,252.09,0.01,422,3,100,310,190,138,6.79,100722,66.7
UTC 221221 113955 5 9 ,327,53.3282814,5.93252945,8.51,0,0,0,252.09,252.09,0.01,418,2,100,310,189,137,6.79,100735,66.7
UTC 221221 113956 5 9 ,328,53.3282814,5.932510376,8.43,0,0,0,294.08,294.08,0.01,423,3,100,310,189,138,6.8,100748,66.7
UTC 221221 113957 5 9 ,329,53.32829285,5.932506561,8.35,0,0,0,345.66,345.66,0.01,432,4,101,310,189,138,6.88,100760,66.7
UTC 221221 113958 5 9 ,330,53.32830811,5.932522297,8.4,0,0,0,58.55,58.55,0.01,439,5,101,311,189,138,6.95,100786,66.7
UTC 221221 113959 5 9 ,331,53.32831192,5.932547569,8.45,0,0,0,72.69,72.69,0.01,454,8,102,310,189,138,7,100786,66.7
UTC 221221 114000 5 9 ,332,53.32831955,5.932589054,8.53,0,0,0,73.25,73.25,0.01,447,7,101,310,189,138,7.06,100782,66.7
UTC 221221 114000 5 9 ,333,53.32832718,5.932639122,8.6,0,0,0,73.53,73.53,0.01,447,7,101,309,188,138,7.11,100778,66.7
UTC 221221 114002 5 9 ,334,53.32833862,5.932698727,8.69,0,0,0,73.32,73.32,0.01,454,8,101,310,189,138,7.17,100782,66.7
UTC 221221 114003 5 9 ,335,53.32835007,5.9327631,8.8,0,0,0,73.65,73.65,0.01,454,8,101,310,189,138,7.23,100782,66.7
UTC 221221 114004 5 9 ,336,53.32836151,5.932836056,8.94,0,0,0,73.7,73.7,0.01,463,9,102,310,188,138,7.25,100780,66.7
UTC 221221 114005 5 9 ,337,53.32837296,5.932909489,9.05,0,0,0,73.45,73.45,0.01,462,9,101,309,189,138,7.29,100776,66.7
UTC 221221 114006 5 9 ,338,53.32838821,5.932985306,9.17,0,0,0,73.68,73.68,0.01,462,9,101,309,188,137,7.35,100776,66.7
UTC 221221 114006 5 9 ,339,53.32839966,5.933057785,9.27,0,0,0,73.68,73.68,0.01,462,9,101,309,189,137,7.38,100778,66.7
UTC 221221 114008 5 9 ,340,53.3284111,5.933131218,9.38,0,0,0,73.74,73.74,0.01,463,9,101,309,188,138,7.43,100773,66.7
UTC 221221 114009 5 9 ,341,53.32842636,5.933203697,9.49,0,0,0,73.75,73.75,0.01,473,11,101,310,188,137,7.46,100773,66.7
UTC 221221 114010 5 9 ,342,53.32843781,5.933274746,9.6,0,0,0,73.68,73.68,0.01,473,11,101,310,188,138,7.5,100769,66.7
UTC 221221 114011 5 9 ,343,53.32844925,5.933347702,9.72,0,0,0,73.7,73.7,0.01,466,10,101,310,188,138,7.54,100766,66.7
UTC 221221 114012 5 9 ,344,53.32846069,5.93341732,9.83,0,0,0,73.57,73.57,0.01,462,9,101,310,187,138,7.56,100765,66.7
UTC 221221 114013 5 9 ,345,53.32847595,5.9334898,9.92,0,0,0,73.75,73.75,0.01,466,10,101,310,187,138,7.58,100769,66.7
UTC 221221 114013 5 9 ,346,53.3284874,5.933563709,10.02,0,0,0,73.67,73.67,0.01,473,11,101,309,188,138,7.61,100765,66.7
UTC 221221 114015 5 9 ,347,53.32849884,5.933637619,10.13,0,0,0,73.72,73.72,0.01,480,12,101,309,187,137,7.65,100757,66.7
UTC 221221 114016 5 9 ,348,53.32851028,5.933709621,10.26,0,0,0,73.63,73.63,0.01,466,10,101,309,186,137,7.67,100763,66.7
UTC 221221 114017 5 9 ,349,53.32852554,5.933783531,10.38,0,0,0,73.94,73.94,0.01,466,10,101,310,187,137,7.68,100758,66.7
UTC 221221 114018 5 9 ,350,53.32853699,5.933856487,10.47,0,0,0,73.91,73.91,0.01,466,10,101,309,187,137,7.7,100758,66.7
UTC 221221 114019 5 9 ,351,53.32854843,5.933921337,10.55,0,0,0,74.83,74.83,0.01,466,10,101,308,186,137,7.73,100760,66.7
UTC 221221 114020 5 9 ,352,53.32855606,5.933953285,10.6,0,0,0,64.72,64.72,0.01,483,12,100,308,186,137,7.75,100759,66.7
UTC 221221 114021 5 9 ,353,53.3285675,5.933952332,10.66,0,0,0,353.26,353.26,0.01,462,9,101,309,186,137,7.76,100720,66.7
UTC 221221 114022 5 9 ,354,53.32857513,5.933932304,10.67,0,0,0,307.8,307.8,0.01,454,8,100,309,185,137,7.77,100718,66.7
UTC 221221 114022 5 9 ,355,53.32857513,5.933902741,10.65,0,0,0,256.44,256.44,0.01,454,8,100,309,185,137,7.77,100700,66.7
UTC 221221 114022 5 9 ,356,53.32857132,5.933870316,10.58,0,0,0,254.73,254.73,0.01,447,7,101,309,186,137,7.69,100698,75.07
UTC 221221 114025 5 9 ,357,53.32856369,5.933820248,10.51,0,0,0,254.01,254.01,0.01,454,8,100,308,185,137,7.61,100700,66.7
UTC 221221 114026 5 9 ,358,53.32855225,5.93376112,10.42,0,0,0,254.29,254.29,0.01,443,6,100,309,185,137,7.53,100691,75.07
UTC 221221 114027 5 9 ,359,53.3285408,5.933693886,10.31,0,0,0,254.02,254.02,0.01,432,4,99,308,185,137,7.47,100689,75.07
UTC 221221 114028 5 9 ,360,53.32852936,5.933619976,10.21,0,0,0,253.39,253.39,0.01,432,4,99,309,185,137,7.4,100686,75.07
UTC 221221 114029 5 9 ,361,53.3285141,5.933544159,10.09,0,0,0,253.03,253.03,0.01,423,3,99,310,185,138,7.34,100701,66.7
UTC 221221 114030 5 9 ,362,53.32850266,5.93347311,10,0,0,0,252.63,252.63,0.01,434,5,98,310,185,138,7.28,100707,66.7
UTC 221221 114031 5 9 ,363,53.3284874,5.933396816,9.9,0,0,0,252.52,252.52,0.01,426,3,99,311,185,137,7.22,100715,66.7
UTC 221221 114032 5 9 ,364,53.32847214,5.933324814,9.77,0,0,0,253.13,253.13,0.01,418,2,99,309,185,138,7.16,100712,66.7
UTC 221221 114033 5 9 ,365,53.32846069,5.933254719,9.67,0,0,0,253.12,253.12,0.01,422,3,98,309,184,137,7.11,100714,66.7
UTC 221221 114034 5 9 ,366,53.32844925,5.933180809,9.54,0,0,0,253.19,253.19,0.01,414,2,98,310,184,137,7.07,100709,66.7
UTC 221221 114035 5 9 ,367,53.32843781,5.93310976,9.42,0,0,0,253.42,253.42,0.01,422,3,98,310,184,137,7.02,100711,66.7
UTC 221221 114036 5 9 ,368,53.32842636,5.933038235,9.29,0,0,0,253.78,253.78,0.01,426,3,98,309,184,136,6.99,100708,66.7
UTC 221221 114037 5 9 ,369,53.3284111,5.932966232,9.17,0,0,0,253.38,253.38,0.01,414,2,98,309,184,137,6.97,100712,66.7
UTC 221221 114038 5 9 ,370,53.32839966,5.932893753,9.06,0,0,0,253.4,253.4,0.01,418,2,98,309,184,137,6.94,100717,66.7
UTC 221221 114039 5 9 ,371,53.32838821,5.932821274,8.94,0,0,0,253.28,253.28,0.01,411,1,98,309,184,137,6.9,100712,66.7
UTC 221221 114040 5 9 ,372,53.32837677,5.932750225,8.82,0,0,0,253.36,253.36,0.01,414,2,97,309,184,137,6.88,100717,66.7
UTC 221221 114041 5 9 ,373,53.32836151,5.932676315,8.7,0,0,0,253.43,253.43,0.01,423,3,97,309,184,137,6.84,100717,66.7
UTC 221221 114042 5 9 ,374,53.32835007,5.932602406,8.57,0,0,0,253.69,253.69,0.01,411,1,97,310,184,137,6.82,100707,66.7
UTC 221221 114043 5 9 ,375,53.32833862,5.932533264,8.48,0,0,0,252.22,252.22,0.01,411,1,97,310,184,137,6.79,100723,66.7
UTC 221221 114044 5 9 ,376,53.32833099,5.932488442,8.45,0,0,0,253.33,253.33,0.01,422,3,97,310,183,138,6.8,100720,66.7
UTC 221221 114045 5 9 ,377,53.32833481,5.932474136,8.37,0,0,0,306.95,306.95,0.01,426,3,97,310,183,137,6.83,100749,66.7
UTC 221221 114046 5 9 ,378,53.32835007,5.932472706,8.33,0,0,0,352.91,352.91,0.01,439,5,98,310,184,137,6.91,100757,66.7
UTC 221221 114047 5 9 ,379,53.32836151,5.932492256,8.37,0,0,0,65.73,65.73,0.01,439,5,97,310,182,137,6.97,100792,66.7
UTC 221221 114047 5 9 ,380,53.32836533,5.932520866,8.43,0,0,0,72.27,72.27,0.01,439,5,97,310,182,137,7.01,100791,66.7
UTC 221221 114049 5 9 ,381,53.32837296,5.932566643,8.51,0,0,0,72.99,72.99,0.01,443,6,98,310,183,137,7.08,100786,66.7
UTC 221221 114050 5 9 ,382,53.32838058,5.93262291,8.6,0,0,0,73.21,73.21,0.01,443,6,97,310,183,137,7.14,100787,66.7
UTC 221221 114051 5 9 ,383,53.32839203,5.932685852,8.7,0,0,0,73.62,73.62,0.01,459,8,97,310,183,137,7.19,100783,66.7
UTC 221221 114052 5 9 ,384,53.32840347,5.932754993,8.83,0,0,0,73.4,73.4,0.01,454,8,97,310,182,137,7.23,100778,66.7
UTC 221221 114053 5 9 ,385,53.32841492,5.932829857,8.96,0,0,0,73.58,73.58,0.01,451,7,97,310,182,137,7.26,100778,66.7
UTC 221221 114053 5 9 ,386,53.32843018,5.932904244,9.08,0,0,0,73.72,73.72,0.01,459,8,97,310,182,137,7.32,100773,66.7
UTC 221221 114055 5 9 ,387,53.32844162,5.932979107,9.22,0,0,0,73.81,73.81,0.01,459,8,97,310,182,137,7.36,100775,66.7
UTC 221221 114056 5 9 ,388,53.32845306,5.933050156,9.34,0,0,0,73.78,73.78,0.01,463,9,97,310,182,137,7.4,100771,66.7
UTC 221221 114057 5 9 ,389,53.32846451,5.933121204,9.46,0,0,0,73.46,73.46,0.01,466,10,98,310,182,137,7.42,100774,66.7
UTC 221221 114058 5 9 ,390,53.32847977,5.933195114,9.59,0,0,0,73.66,73.66,0.01,462,9,98,310,182,137,7.45,100765,66.7
UTC 221221 114059 5 9 ,391,53.32849121,5.933267117,9.71,0,0,0,73.8,73.8,0.01,462,9,98,310,182,136,7.47,100767,66.7
UTC 221221 114100 5 9 ,392,53.32850266,5.933338642,9.83,0,0,0,73.95,73.95,0.01,462,9,97,310,181,137,7.51,100766,66.7
UTC 221221 114101 5 9 ,393,53.32851791,5.933411121,9.95,0,0,0,73.56,73.56,0.01,466,10,97,309,181,137,7.53,100761,66.7
UTC 221221 114101 5 9 ,394,53.32852936,5.933482647,10.07,0,0,0,73.64,73.64,0.01,480,12,97,309,181,137,7.56,100765,66.7
UTC 221221 114103 5 9 ,395,53.32854462,5.933557034,10.19,0,0,0,73.75,73.75,0.01,463,9,97,310,181,137,7.59,100762,66.7
UTC 221221 114104 5 9 ,396,53.32855606,5.933627605,10.31,0,0,0,73.59,73.59,0.01,463,9,98,309,181,137,7.62,100758,66.7
UTC 221221 114105 5 9 ,397,53.3285675,5.933701992,10.44,0,0,0,73.7,73.7,0.01,466,10,97,309,180,137,7.64,100753,66.7
UTC 221221 114105 5 9 ,398,53.32857895,5.933774471,10.56,0,0,0,73.73,73.73,0.01,466,10,97,309,181,136,7.66,100754,66.7
UTC 221221 114107 5 9 ,399,53.32859421,5.933846474,10.68,0,0,0,74.1,74.1,0.01,480,12,97,309,180,137,7.68,100751,66.7
UTC 221221 114108 5 9 ,400,53.32860184,5.933904648,10.76,0,0,0,74.73,74.73,0.01,466,10,97,309,180,137,7.71,100752,66.7
UTC 221221 114109 5 9 ,401,53.32860947,5.933927059,10.78,0,0,0,50.86,50.86,0.01,476,11,97,309,179,136,7.74,100747,66.7
UTC 221221 114110 5 9 ,402,53.32862091,5.933920384,10.79,0,0,0,344.7,344.7,0.01,459,8,97,310,180,137,7.75,100723,66.7
UTC 221221 114111 5 9 ,403,53.32862854,5.933897018,10.78,0,0,0,289.13,289.13,0.01,462,9,98,310,180,137,7.78,100718,66.7
UTC 221221 114112 5 9 ,404,53.32862473,5.933869362,10.76,0,0,0,255.48,255.48,0.01,459,8,97,310,180,138,7.75,100699,75.07
UTC 221221 114113 5 9 ,405,53.32862091,5.933832645,10.69,0,0,0,254.33,254.33,0.01,447,7,97,309,180,137,7.69,100695,75.07
UTC 221221 114114 5 9 ,406,53.32860947,5.93377924,10.6,0,0,0,254.07,254.07,0.01,447,7,96,309,179,136,7.62,100693,75.07
UTC 221221 114115 5 9 ,407,53.32860184,5.933719158,10.49,0,0,0,253.53,253.53,0.01,451,7,97,309,179,137,7.55,100691,75.07
UTC 221221 114116 5 9 ,408,53.32859039,5.933650971,10.38,0,0,0,253.66,253.66,0.01,439,5,96,310,180,137,7.48,100694,75.07
UTC 221221 114117 5 9 ,409,53.32857513,5.933577538,10.27,0,0,0,252.85,252.85,0.01,426,3,96,310,179,137,7.42,100698,75.07
UTC 221221 114118 5 9 ,410,53.32856369,5.933502674,10.16,0,0,0,252.81,252.81,0.01,426,3,96,310,179,137,7.36,100691,75.07
UTC 221221 114119 5 9 ,411,53.32854843,5.933430672,10.02,0,0,0,252.96,252.96,0.01,423,3,96,310,179,137,7.29,100697,75.07
UTC 221221 114120 5 9 ,412,53.32853699,5.933356762,9.9,0,0,0,252.82,252.82,0.01,439,5,96,310,179,137,7.22,100703,66.7
UTC 221221 114121 5 9 ,413,53.32852554,5.933284283,9.79,0,0,0,253.78,253.78,0.01,423,3,96,309,179,137,7.16,100696,75.07
UTC 221221 114122 5 9 ,414,53.32851028,5.933209896,9.67,0,0,0,253.34,253.34,0.01,418,2,95,310,179,137,7.12,100705,66.7
UTC 221221 114123 5 9 ,415,53.32849884,5.933137417,9.56,0,0,0,253.08,253.08,0.01,418,2,95,310,179,137,7.07,100710,66.7
UTC 221221 114124 5 9 ,416,53.3284874,5.933065414,9.42,0,0,0,253.53,253.53,0.01,418,2,96,309,178,137,7.01,100702,66.7
UTC 221221 114124 5 9 ,417,53.32847214,5.932995319,9.3,0,0,0,253.58,253.58,0.01,423,3,95,310,178,137,6.97,100706,66.7
UTC 221221 114126 5 9 ,418,53.32846069,5.932921886,9.17,0,0,0,253.45,253.45,0.01,414,2,95,310,178,137,6.93,100705,66.7
UTC 221221 114127 5 9 ,419,53.32844925,5.932849407,9.04,0,0,0,253.48,253.48,0.01,411,1,95,310,177,136,6.91,100704,66.7
UTC 221221 114128 5 9 ,420,53.32843781,5.932776928,8.92,0,0,0,253.15,253.15,0.01,414,2,94,309,178,137,6.89,100712,66.7
UTC 221221 114128 5 9 ,421,53.32842255,5.932704926,8.8,0,0,0,253.37,253.37,0.01,414,2,95,309,178,137,6.86,100712,66.7
UTC 221221 114128 5 9 ,422,53.3284111,5.932634354,8.67,0,0,0,253.85,253.85,0.01,423,3,94,310,178,137,6.85,100703,66.7
UTC 221221 114131 5 9 ,423,53.32839966,5.932559967,8.55,0,0,0,253.59,253.59,0.01,422,3,94,310,178,136,6.84,100710,66.7
UTC 221221 114132 5 9 ,424,53.32838821,5.932493687,8.48,0,0,0,251.81,251.81,0.01,418,2,94,310,177,137,6.83,100723,66.7
UTC 221221 114133 5 9 ,425,53.32838058,5.932455063,8.41,0,0,0,255.84,255.84,0.01,422,3,94,310,178,137,6.84,100738,66.7
UTC 221221 114134 5 9 ,426,53.3283844,5.932442665,8.28,0,0,0,319.64,319.64,0.01,432,4,95,311,177,137,6.89,100751,66.7
UTC 221221 114135 5 9 ,427,53.32839966,5.932443619,8.28,0,0,0,5.54,5.54,0.01,439,5,95,304,178,137,6.96,100750,66.7
UTC 221221 114136 5 9 ,428,53.3284111,5.932465553,8.33,0,0,0,70.17,70.17,0.01,447,7,95,310,177,137,7.03,100781,66.7
UTC 221221 114137 5 9 ,429,53.32841873,5.932495594,8.4,0,0,0,72.75,72.75,0.01,447,7,95,310,177,136,7.07,100781,66.7
UTC 221221 114138 5 9 ,430,53.32842255,5.932542324,8.47,0,0,0,73.43,73.43,0.01,444,6,95,310,176,137,7.14,100776,66.7
UTC 221221 114139 5 9 ,431,53.32843399,5.932600021,8.57,0,0,0,73.55,73.55,0.01,451,7,95,310,176,136,7.19,100774,66.7
UTC 221221 114140 5 9 ,432,53.32844162,5.932663918,8.68,0,0,0,73.46,73.46,0.01,454,8,96,310,176,137,7.24,100778,66.7
UTC 221221 114141 5 9 ,433,53.32845688,5.932734013,8.8,0,0,0,73.41,73.41,0.01,473,11,95,310,176,137,7.29,100779,66.7
UTC 221221 114142 5 9 ,434,53.32846832,5.932807922,8.94,0,0,0,73.66,73.66,0.01,459,8,96,311,177,137,7.32,100771,66.7
UTC 221221 114143 5 9 ,435,53.32847977,5.932882309,9.07,0,0,0,73.67,73.67,0.01,459,8,96,310,177,137,7.35,100771,66.7
UTC 221221 114144 5 9 ,436,53.32849503,5.932956219,9.2,0,0,0,73.85,73.85,0.01,462,9,96,310,176,137,7.4,100769,66.7
UTC 221221 114145 5 9 ,437,53.32850647,5.933027744,9.32,0,0,0,73.6,73.6,0.01,462,9,97,311,176,137,7.42,100766,66.7
UTC 221221 114146 5 9 ,438,53.32851791,5.933102131,9.46,0,0,0,73.7,73.7,0.01,480,12,96,310,176,137,7.47,100769,66.7
UTC 221221 114147 5 9 ,439,53.32853317,5.933173657,9.59,0,0,0,73.64,73.64,0.01,473,11,96,310,176,137,7.5,100765,66.7
UTC 221221 114148 5 9 ,440,53.32854462,5.933245659,9.71,0,0,0,73.79,73.79,0.01,466,10,96,310,176,137,7.54,100759,66.7
UTC 221221 114149 5 9 ,441,53.32855606,5.933317661,9.83,0,0,0,73.71,73.71,0.01,473,11,97,310,176,136,7.58,100759,66.7
UTC 221221 114150 5 9 ,442,53.32857132,5.93338871,9.97,0,0,0,73.59,73.59,0.01,473,11,97,311,176,137,7.61,100756,66.7
UTC 221221 114151 5 9 ,443,53.32858276,5.933459759,10.1,0,0,0,73.83,73.83,0.01,483,12,96,311,176,137,7.63,100750,66.7
UTC 221221 114152 5 9 ,444,53.32859421,5.933529377,10.22,0,0,0,73.58,73.58,0.01,480,12,97,311,176,137,7.63,100750,66.7
UTC 221221 114153 5 9 ,445,53.32860565,5.933600903,10.34,0,0,0,73.72,73.72,0.01,473,11,96,311,176,137,7.64,100749,66.7
UTC 221221 114154 5 9 ,446,53.3286171,5.933675289,10.47,0,0,0,73.65,73.65,0.01,476,11,97,310,176,136,7.66,100745,66.7
UTC 221221 114155 5 9 ,447,53.32863235,5.933746338,10.6,0,0,0,73.49,73.49,0.01,476,11,96,311,175,137,7.68,100743,66.7
UTC 221221 114156 5 9 ,448,53.3286438,5.933818817,10.71,0,0,0,74.21,74.21,0.01,480,12,96,310,175,137,7.7,100743,66.7
UTC 221221 114157 5 9 ,449,53.32865143,5.933873177,10.77,0,0,0,74.87,74.87,0.01,483,12,96,310,175,137,7.73,100744,66.7
UTC 221221 114157 5 9 ,450,53.32865906,5.933894634,10.79,0,0,0,46.08,46.08,0.01,476,11,97,310,174,136,7.76,100741,66.7
UTC 221221 114159 5 9 ,451,53.3286705,5.933888912,10.8,0,0,0,343.11,343.11,0.01,473,11,97,310,175,137,7.77,100722,66.7
UTC 221221 114200 5 9 ,452,53.32867813,5.933867455,10.76,0,0,0,282.4,282.4,0.01,473,11,98,310,175,137,7.83,100716,66.7
UTC 221221 114201 5 9 ,453,53.32867813,5.933841229,10.75,0,0,0,254.62,254.62,0.01,473,11,97,310,175,137,7.78,100706,66.7
UTC 221221 114202 5 9 ,454,53.3286705,5.933804035,10.69,0,0,0,253.65,253.65,0.01,476,11,97,310,175,137,7.71,100702,66.7
UTC 221221 114203 5 9 ,455,53.32866287,5.933753014,10.6,0,0,0,253.72,253.72,0.01,454,8,97,310,174,138,7.66,100691,75.07
UTC 221221 114204 5 9 ,456,53.32865143,5.93369484,10.49,0,0,0,253.37,253.37,0.01,447,7,97,310,174,137,7.6,100693,75.07
UTC 221221 114205 5 9 ,457,53.32863998,5.933627605,10.36,0,0,0,252.86,252.86,0.01,447,7,96,311,175,137,7.53,100699,75.07
UTC 221221 114206 5 9 ,458,53.32862854,5.933553696,10.24,0,0,0,253.22,253.22,0.01,444,6,96,310,175,137,7.46,100699,75.07
UTC 221221 114207 5 9 ,459,53.32861328,5.933478832,10.13,0,0,0,252.77,252.77,0.01,451,7,97,311,174,137,7.4,100700,66.7
UTC 221221 114208 5 9 ,460,53.32860184,5.933405399,10.02,0,0,0,252.64,252.64,0.01,434,5,96,311,174,137,7.34,100708,66.7
UTC 221221 114209 5 9 ,461,53.32858658,5.933332443,9.9,0,0,0,253.16,253.16,0.01,434,5,96,311,175,138,7.29,100694,75.07
UTC 221221 114210 5 9 ,462,53.32857513,5.933261395,9.77,0,0,0,253.27,253.27,0.01,432,4,96,310,174,137,7.23,100703,66.7
UTC 221221 114211 5 9 ,463,53.32856369,5.933188915,9.65,0,0,0,253.31,253.31,0.01,426,3,96,310,175,137,7.17,100705,66.7
UTC 221221 114212 5 9 ,464,53.32855225,5.93311739,9.52,0,0,0,253.23,253.23,0.01,439,5,96,311,174,137,7.14,100704,66.7
UTC 221221 114213 5 9 ,465,53.3285408,5.933046341,9.38,0,0,0,253.3,253.3,0.01,432,4,95,310,174,137,7.1,100704,66.7
UTC 221221 114213 5 9 ,466,53.32852554,5.932975292,9.24,0,0,0,253.36,253.36,0.01,426,3,95,310,174,137,7.06,100707,66.7
UTC 221221 114213 5 9 ,467,53.3285141,5.93290472,9.12,0,0,0,253,253,0.01,422,3,95,310,174,137,7.02,100713,66.7
UTC 221221 114216 5 9 ,468,53.32850266,5.932831287,9.01,0,0,0,253.15,253.15,0.01,422,3,95,309,174,137,6.98,100711,66.7
UTC 221221 114217 5 9 ,469,53.3284874,5.932758808,8.89,0,0,0,252.82,252.82,0.01,432,4,95,310,173,138,6.95,100715,66.7
UTC 221221 114218 5 9 ,470,53.32847595,5.932687283,8.75,0,0,0,253.65,253.65,0.01,426,3,95,310,173,136,6.9,100712,66.7
UTC 221221 114219 5 9 ,471,53.32846451,5.93261528,8.62,0,0,0,253.66,253.66,0.01,418,2,95,311,173,137,6.88,100705,66.7
UTC 221221 114220 5 9 ,472,53.32845306,5.932542801,8.48,0,0,0,253.56,253.56,0.01,418,2,94,310,173,136,6.85,100715,66.7
UTC 221221 114221 5 9 ,473,53.32843781,5.932472706,8.4,0,0,0,252.35,252.35,0.01,414,2,94,310,173,137,6.83,100719,66.7
UTC 221221 114222 5 9 ,474,53.32843018,5.932430744,8.32,0,0,0,254.41,254.41,0.01,423,3,94,311,173,137,6.82,100724,66.7
UTC 221221 114223 5 9 ,475,53.32843781,5.932415962,8.24,0,0,0,313.07,313.07,0.01,443,6,94,310,173,137,6.87,100751,66.7
UTC 221221 114224 5 9 ,476,53.32845306,5.932414055,8.22,0,0,0,358.56,358.56,0.01,434,5,94,310,173,137,6.95,100751,66.7
UTC 221221 114225 5 9 ,477,53.32846451,5.932434082,8.3,0,0,0,68.99,68.99,0.01,444,6,95,311,173,137,7.01,100774,66.7
UTC 221221 114225 5 9 ,478,53.32846832,5.932460785,8.36,0,0,0,72.7,72.7,0.01,447,7,95,311,173,137,7.08,100778,66.7
UTC 221221 114225 5 9 ,479,53.32847214,5.932504654,8.43,0,0,0,73.19,73.19,0.01,451,7,96,310,173,137,7.14,100775,66.7
UTC 221221 114228 5 9 ,480,53.32847977,5.932557106,8.52,0,0,0,73.51,73.51,0.01,473,11,95,311,172,137,7.2,100774,66.7
UTC 221221 114229 5 9 ,481,53.32849121,5.932619095,8.62,0,0,0,73.56,73.56,0.01,459,8,95,311,172,137,7.25,100769,66.7
UTC 221221 114230 5 9 ,482,53.32850266,5.932685852,8.74,0,0,0,73.82,73.82,0.01,462,9,95,310,173,137,7.3,100766,66.7
UTC 221221 114231 5 9 ,483,53.3285141,5.932757855,8.86,0,0,0,73.58,73.58,0.01,462,9,95,311,172,137,7.33,100770,66.7
UTC 221221 114232 5 9 ,484,53.32852936,5.932831287,8.98,0,0,0,73.32,73.32,0.01,466,10,96,311,173,137,7.37,100767,66.7
UTC 221221 114233 5 9 ,485,53.3285408,5.93290472,9.1,0,0,0,73.28,73.28,0.01,463,9,96,311,172,137,7.39,100766,66.7
UTC 221221 114234 5 9 ,486,53.32855225,5.932978153,9.23,0,0,0,73.79,73.79,0.01,466,10,95,311,172,137,7.42,100765,66.7
UTC 221221 114235 5 9 ,487,53.3285675,5.933049679,9.36,0,0,0,73.66,73.66,0.01,476,11,96,310,173,136,7.46,100760,66.7
UTC 221221 114235 5 9 ,488,53.32857895,5.933122158,9.49,0,0,0,73.97,73.97,0.01,483,12,95,311,172,137,7.49,100755,66.7
UTC 221221 114237 5 9 ,489,53.32859039,5.933194161,9.63,0,0,0,73.41,73.41,0.01,473,11,95,311,172,137,7.53,100759,66.7
UTC 221221 114238 5 9 ,490,53.32860565,5.93326664,9.76,0,0,0,73.6,73.6,0.01,473,11,95,311,172,137,7.56,100749,66.7
UTC 221221 114239 5 9 ,491,53.3286171,5.933340073,9.88,0,0,0,73.73,73.73,0.01,466,10,95,310,172,137,7.59,100753,66.7
UTC 221221 114240 5 9 ,492,53.32862854,5.933411598,10.01,0,0,0,73.73,73.73,0.01,476,11,95,310,172,137,7.6,100753,66.7
UTC 221221 114240 5 9 ,493,53.3286438,5.933485031,10.14,0,0,0,73.92,73.92,0.01,486,13,95,310,171,137,7.64,100750,66.7
UTC 221221 114242 5 9 ,494,53.32865524,5.933557987,10.27,0,0,0,73.58,73.58,0.01,473,11,95,310,171,136,7.67,100752,66.7
UTC 221221 114243 5 9 ,495,53.32866669,5.933628559,10.39,0,0,0,73.83,73.83,0.01,476,11,94,310,172,137,7.71,100750,66.7
UTC 221221 114244 5 9 ,496,53.32868195,5.933701515,10.53,0,0,0,73.74,73.74,0.01,476,11,94,310,171,136,7.72,100747,66.7
UTC 221221 114245 5 9 ,497,53.32869339,5.933773041,10.65,0,0,0,73.84,73.84,0.01,476,11,95,310,171,136,7.75,100746,66.7
UTC 221221 114246 5 9 ,498,53.32870483,5.933835983,10.75,0,0,0,74.86,74.86,0.01,486,13,95,310,171,136,7.78,100745,66.7
UTC 221221 114247 5 9 ,499,53.32870865,5.933866978,10.77,0,0,0,64.51,64.51,0.01,473,11,94,310,171,136,7.8,100742,66.7
UTC 221221 114248 5 9 ,500,53.32872009,5.933866501,10.78,0,0,0,352.29,352.29,0.01,466,10,94,310,170,136,7.81,100713,66.7
UTC 221221 114249 5 9 ,501,53.32873154,5.933850765,10.74,0,0,0,306.34,306.34,0.01,462,9,94,310,170,137,7.83,100703,66.7
