X,Y,TimeStamp (UTC),"""TriggerID""","""Latitude""","""Longitude""","""Altitude (Meter AGL)""",Gimbal Roll,"""Gimbal Pitch""","""Gimbal Yaw""","""Drone Yaw""","""Combined Yaw""",HCHO (ppm),CO2 (ppm),TVOC (ppb),NO2 (ppm),C2H5OH (ppm),VOC (ppm),CO (ppm),Temp (Celcius),Pressure (pa),Altitude (meter),wind_speed,wind_direction
695392.078787099,5912756.6512055,2022/12/12 10:12:40,"1186",53.3278923,5.934298039,0,false,false,false,349.07,349.07,0.01,"432","4","159","274","197","135",8.29,"101360",16.64,  2.10 m/s,203°
695392.078787099,5912756.6512055,2022/12/12 10:12:40,"1187",53.3278923,5.934298039,0.01,false,false,false,348.65,348.65,0.01,"416","2","158","274","197","134",8.23,"101348",16.64,  2.10 m/s,203°
695391.983517066,5912756.64728892,2022/12/12 10:12:42,"1188",53.3278923,5.934296608,0.41,false,false,false,346.85,346.85,0.01,"423","3","156","274","198","134",8.09,"101356",16.64,  2.10 m/s,203°
695391.983517066,5912756.64728892,2022/12/12 10:12:43,"1189",53.3278923,5.934296608,1.69,false,false,false,346.82,346.82,0.01,"415","2","156","274","197","134",8.12,"101336",16.64,  2.10 m/s,203°
695391.951760388,5912756.6459834,2022/12/12 10:12:44,"1190",53.3278923,5.934296131,3.83,false,false,false,347.11,347.11,0.01,"415","2","155","274","197","134",8.13,"101316",16.64,  2.10 m/s,203°
695391.951760388,5912756.6459834,2022/12/12 10:12:45,"1191",53.3278923,5.934296131,4.62,false,false,false,346.8,346.8,0.01,"411","1","153","274","197","133",8.11,"101302",16.64,  2.10 m/s,203°
695391.983517066,5912756.64728892,2022/12/12 10:12:45,"1192",53.3278923,5.934296608,4.57,false,false,false,346.97,346.97,0.01,"401","0","152","274","197","133",8.01,"101304",16.64,  2.10 m/s,203°
695392.015273744,5912756.64859445,2022/12/12 10:12:47,"1193",53.3278923,5.934297085,4.55,false,false,false,347.17,347.17,0.01,"405","0","151","274","197","133",7.94,"101304",16.64,  2.10 m/s,203°
695392.364464046,5912756.66294975,2022/12/12 10:12:48,"1194",53.3278923,5.93430233,4.55,false,false,false,347.42,347.42,0.01,"408","1","151","275","197","133",7.87,"101305",16.64,  2.10 m/s,203°
695392.4279774,5912756.6655608,2022/12/12 10:12:49,"1195",53.3278923,5.934303284,4.57,false,false,false,347.55,347.55,0.01,"400","0","149","274","197","133",7.84,"101300",16.64,  2.10 m/s,203°
695392.269260588,5912756.65903591,2022/12/12 10:12:50,"1196",53.3278923,5.9343009,4.58,false,false,false,347.43,347.43,0.01,"400","0","147","274","196","132",7.8,"101302",16.64,  2.10 m/s,203°
695392.30095069,5912756.6603387,2022/12/12 10:12:51,"1197",53.3278923,5.934301376,4.6,false,false,false,347.43,347.43,0.01,"400","0","147","274","196","133",7.78,"101299",24.96,  2.10 m/s,203°
695392.332707368,5912756.66164422,2022/12/12 10:12:52,"1198",53.3278923,5.934301853,4.7,false,false,false,347.29,347.29,0.01,"407","1","146","275","196","132",7.74,"101302",16.64,  2.10 m/s,203°
695392.332707368,5912756.66164422,2022/12/12 10:12:53,"1199",53.3278923,5.934301853,5.54,false,false,false,347.13,347.13,0.01,"402","0","145","275","195","132",7.67,"101290",24.96,  2.10 m/s,203°
695392.364464046,5912756.66294975,2022/12/12 10:12:54,"1200",53.3278923,5.93430233,6.45,false,false,false,347.19,347.19,0.01,"400","0","144","275","195","132",7.58,"101278",24.96,  2.10 m/s,203°
695392.332707368,5912756.66164422,2022/12/12 10:12:54,"1201",53.3278923,5.934301853,6.69,false,false,false,347.28,347.28,0.01,"400","0","144","275","195","132",7.52,"101277",24.96,  2.10 m/s,203°
695392.364464046,5912756.66294975,2022/12/12 10:12:56,"1202",53.3278923,5.93430233,6.67,false,false,false,347.39,347.39,0.01,"400","0","144","275","195","131",7.44,"101275",24.96,  2.10 m/s,203°
695392.364464046,5912756.66294975,2022/12/12 10:12:57,"1203",53.3278923,5.93430233,7.35,false,false,false,347.42,347.42,0.01,"400","0","143","275","195","132",7.42,"101266",24.96,  2.10 m/s,203°
695392.364464046,5912756.66294975,2022/12/12 10:12:58,"1204",53.3278923,5.93430233,8.42,false,false,false,347.38,347.38,0.01,"409","1","143","275","195","132",7.39,"101255",24.96,  2.10 m/s,203°
695392.332707368,5912756.66164422,2022/12/12 10:12:59,"1205",53.3278923,5.934301853,9.1,false,false,false,347.39,347.39,0.01,"405","0","142","276","195","132",7.35,"101246",24.96,  2.10 m/s,203°
695392.332707368,5912756.66164422,2022/12/12 10:12:59,"1206",53.3278923,5.934301853,9.55,false,false,false,347.51,347.51,0.01,"407","1","142","275","195","132",7.31,"101238",24.96,  2.10 m/s,203°
695392.332707368,5912756.66164422,2022/12/12 10:13:01,"1207",53.3278923,5.934301853,9.92,false,false,false,347.22,347.22,0.01,"407","1","141","276","194","131",7.26,"101236",24.96,  2.48 m/s,174°
695392.332707368,5912756.66164422,2022/12/12 10:13:02,"1208",53.3278923,5.934301853,9.9,false,false,false,347.22,347.22,0.01,"409","1","141","275","194","131",7.24,"101237",24.96,  2.48 m/s,174°
695392.332707368,5912756.66164422,2022/12/12 10:13:03,"1209",53.3278923,5.934301853,9.9,false,false,false,347.19,347.19,0.01,"423","3","140","275","193","131",7.22,"101236",24.96,  2.48 m/s,174°
695392.30095069,5912756.6603387,2022/12/12 10:13:04,"1210",53.3278923,5.934301376,9.9,false,false,false,347.04,347.04,0.01,"413","1","139","276","193","131",7.2,"101235",24.96,  2.48 m/s,174°
695392.332707368,5912756.66164422,2022/12/12 10:13:04,"1211",53.3278923,5.934301853,9.91,false,false,false,347.3,347.3,0.01,"409","1","139","274","193","130",7.16,"101234",24.96,  2.48 m/s,174°
695392.332707368,5912756.66164422,2022/12/12 10:13:06,"1212",53.3278923,5.934301853,9.91,false,false,false,347.27,347.27,0.01,"409","1","138","275","192","130",7.15,"101235",24.96,  2.95 m/s,174°
695392.364464046,5912756.66294975,2022/12/12 10:13:07,"1213",53.3278923,5.93430233,9.92,false,false,false,347.36,347.36,0.01,"407","1","136","275","193","131",7.13,"101228",24.96,  2.95 m/s,174°
695392.364464046,5912756.66294975,2022/12/12 10:13:08,"1214",53.3278923,5.93430233,9.93,false,false,false,346.95,346.95,0.01,"416","2","136","275","192","131",7.08,"101228",24.96,  2.95 m/s,174°
695392.364464046,5912756.66294975,2022/12/12 10:13:08,"1215",53.3278923,5.93430233,9.93,false,false,false,347.4,347.4,0.01,"407","1","135","276","192","131",7.03,"101231",24.96,  2.95 m/s,174°
695392.332707368,5912756.66164422,2022/12/12 10:13:10,"1216",53.3278923,5.934301853,9.93,false,false,false,347.27,347.27,0.01,"405","0","135","276","192","131",6.97,"101236",24.96,  2.40 m/s,174°
695392.332707368,5912756.66164422,2022/12/12 10:13:11,"1217",53.3278923,5.934301853,9.93,false,false,false,347.34,347.34,0.01,"405","0","135","276","192","131",6.98,"101238",24.96,  2.40 m/s,174°
695392.332707368,5912756.66164422,2022/12/12 10:13:12,"1218",53.3278923,5.934301853,9.93,false,false,false,347.66,347.66,0.01,"407","1","134","276","190","130",6.97,"101235",24.96,  2.40 m/s,174°
695392.332707368,5912756.66164422,2022/12/12 10:13:12,"1219",53.3278923,5.934301853,9.93,false,false,false,347.52,347.52,0.01,"413","1","134","276","190","130",6.96,"101229",24.96,  2.40 m/s,174°
695392.364464046,5912756.66294975,2022/12/12 10:13:14,"1220",53.3278923,5.93430233,9.92,false,false,false,347.26,347.26,0.01,"409","1","133","276","191","131",6.91,"101233",24.96,  2.40 m/s,174°
695392.364464046,5912756.66294975,2022/12/12 10:13:15,"1221",53.3278923,5.93430233,9.92,false,false,false,347.4,347.4,0.01,"405","0","133","275","191","131",6.86,"101234",24.96,  2.47 m/s,170°
695392.396220723,5912756.66425528,2022/12/12 10:13:16,"1222",53.3278923,5.934302807,9.9,false,false,false,347.65,347.65,0.01,"400","0","132","275","191","130",6.79,"101231",24.96,  2.47 m/s,170°
695392.396220723,5912756.66425528,2022/12/12 10:13:16,"1223",53.3278923,5.934302807,9.9,false,false,false,347.54,347.54,0.01,"400","0","132","276","190","130",6.74,"101236",24.96,  2.47 m/s,170°
695392.396220723,5912756.66425528,2022/12/12 10:13:18,"1224",53.3278923,5.934302807,9.91,false,false,false,346.92,346.92,0.01,"405","0","132","277","190","131",6.69,"101233",24.96,  2.47 m/s,170°
695392.396220723,5912756.66425528,2022/12/12 10:13:19,"1225",53.3278923,5.934302807,9.92,false,false,false,346.92,346.92,0.01,"416","2","131","277","190","131",6.66,"101233",24.96,  2.47 m/s,170°
695392.4279774,5912756.6655608,2022/12/12 10:13:20,"1226",53.3278923,5.934303284,9.91,false,false,false,347.16,347.16,0.01,"405","0","130","276","190","130",6.61,"101231",24.96,  3.18 m/s,184°
695392.396220723,5912756.66425528,2022/12/12 10:13:20,"1227",53.3278923,5.934302807,9.9,false,false,false,347.23,347.23,0.01,"405","0","129","275","189","130",6.58,"101235",24.96,  3.18 m/s,184°
695392.396220723,5912756.66425528,2022/12/12 10:13:22,"1228",53.3278923,5.934302807,9.91,false,false,false,347.27,347.27,0.01,"405","0","129","276","189","130",6.53,"101227",24.96,  3.18 m/s,184°
695392.396220723,5912756.66425528,2022/12/12 10:13:23,"1229",53.3278923,5.934302807,9.91,false,false,false,347.27,347.27,0.01,"400","0","129","277","188","130",6.49,"101233",24.96,  3.18 m/s,184°
695392.396220723,5912756.66425528,2022/12/12 10:13:24,"1230",53.3278923,5.934302807,9.92,false,false,false,347.18,347.18,0.01,"416","2","128","276","189","130",6.44,"101232",24.96,  3.18 m/s,184°
695392.396220723,5912756.66425528,2022/12/12 10:13:24,"1231",53.3278923,5.934302807,9.93,false,false,false,347.32,347.32,0.01,"400","0","128","277","188","131",6.42,"101238",24.96,  3.18 m/s,184°
695392.396220723,5912756.66425528,2022/12/12 10:13:26,"1232",53.3278923,5.934302807,9.93,false,false,false,347.34,347.34,0.01,"400","0","129","277","189","130",6.39,"101232",24.96,  3.18 m/s,184°
695392.4279774,5912756.6655608,2022/12/12 10:13:27,"1233",53.3278923,5.934303284,9.93,false,false,false,347.51,347.51,0.01,"400","0","128","278","188","131",6.35,"101238",24.96,  3.18 m/s,184°
695392.4279774,5912756.6655608,2022/12/12 10:13:28,"1234",53.3278923,5.934303284,9.93,false,false,false,347.31,347.31,0.01,"400","0","128","278","188","131",6.3,"101234",24.96,  3.18 m/s,184°
695392.4279774,5912756.6655608,2022/12/12 10:13:29,"1235",53.3278923,5.934303284,9.93,false,false,false,347.6,347.6,0.01,"410","1","129","277","188","130",6.31,"101237",24.96,  3.18 m/s,184°
695392.396220723,5912756.66425528,2022/12/12 10:13:30,"1236",53.3278923,5.934302807,9.93,false,false,false,347.28,347.28,0.01,"405","0","129","277","187","131",6.28,"101239",24.96,  3.18 m/s,184°
695392.4279774,5912756.6655608,2022/12/12 10:13:31,"1237",53.3278923,5.934303284,9.93,false,false,false,347.17,347.17,0.01,"400","0","129","278","188","130",6.21,"101238",24.96,  3.18 m/s,184°
695392.4279774,5912756.6655608,2022/12/12 10:13:32,"1238",53.3278923,5.934303284,9.91,false,false,false,342.21,342.21,0.01,"403","0","128","278","188","130",6.14,"101238",24.96,  3.18 m/s,184°
695392.4279774,5912756.6655608,2022/12/12 10:13:33,"1239",53.3278923,5.934303284,9.92,false,false,false,339.2,339.2,0.01,"403","0","128","278","187","130",6.11,"101235",24.96,  3.18 m/s,184°
695392.07559504,5912757.5010113,2022/12/12 10:13:34,"1240",53.32789993,5.934298515,9.91,false,false,false,339.44,339.44,0.01,"411","1","128","279","188","131",6.04,"101240",24.96,  3.18 m/s,184°
695391.082095078,5912760.00997945,2022/12/12 10:13:35,"1241",53.32792282,5.934285164,9.91,false,false,false,339.55,339.55,0.01,"413","1","128","278","187","131",6.01,"101233",24.96,  3.79 m/s,178°
695389.863174372,5912763.35961776,2022/12/12 10:13:36,"1242",53.32795334,5.934268951,9.91,false,false,false,339.26,339.26,0.01,"411","1","128","278","188","131",5.95,"101237",24.96,  3.79 m/s,178°
695388.341160868,5912767.1212078,2022/12/12 10:13:37,"1243",53.32798767,5.934248447,9.9,false,false,false,339.23,339.23,0.01,"405","0","128","277","187","130",5.84,"101229",24.96,  3.79 m/s,178°
695386.530348645,5912771.72086288,2022/12/12 10:13:37,"1244",53.32802963,5.934224129,9.91,false,false,false,339.43,339.43,0.01,"400","0","128","277","187","130",5.7,"101230",24.96,  3.79 m/s,178°
695384.624269853,5912776.31660217,2022/12/12 10:13:39,"1245",53.32807159,5.93419838,9.93,false,false,false,339.57,339.57,0.01,"400","0","127","277","187","130",5.52,"101221",24.96,  3.79 m/s,178°
695382.732421012,5912781.33845246,2022/12/12 10:13:40,"1246",53.32811737,5.934173107,9.9,false,false,false,339.03,339.03,0.01,"410","1","127","277","187","130",5.42,"101232",24.96,  3.66 m/s,179°
695380.762835879,5912785.93158224,2022/12/12 10:13:40,"1247",53.32815933,5.934146404,9.9,false,false,false,339.17,339.17,0.01,"400","0","127","277","187","130",5.35,"101229",24.96,  3.66 m/s,179°
695378.856767023,5912790.52732366,2022/12/12 10:13:42,"1248",53.32820129,5.934120655,9.91,false,false,false,339.15,339.15,0.01,"400","0","127","277","186","130",5.28,"101229",24.96,  3.66 m/s,179°
695377.54265793,5912793.87305128,2022/12/12 10:13:43,"1249",53.32823181,5.934103012,9.9,false,false,false,339.14,339.14,0.01,"403","0","128","277","186","130",5.2,"101235",24.96,  3.66 m/s,179°
695377.334723111,5912794.29002901,2022/12/12 10:13:44,"1250",53.32823563,5.934100151,9.85,false,false,false,339.69,339.69,0.01,"405","0","128","278","186","130",5.22,"101237",24.96,  3.66 m/s,179°
695377.655344354,5912793.45327207,2022/12/12 10:13:45,"1251",53.328228,5.934104443,9.45,false,false,false,339.77,339.77,0.01,"415","2","129","277","186","129",5.2,"101234",24.96,  2.29 m/s,169°
695377.912452826,5912792.61390428,2022/12/12 10:13:46,"1252",53.32822037,5.934107781,9.46,false,false,false,267.47,267.47,0.01,"408","1","128","277","185","129",5.21,"101228",24.96,  2.29 m/s,169°
695378.166371156,5912792.62434229,2022/12/12 10:13:47,"1253",53.32822037,5.934111595,9.48,false,false,false,252.99,252.99,0.01,"414","2","127","277","186","130",5.13,"101222",24.96,  2.29 m/s,169°
695377.739377075,5912792.18126409,2022/12/12 10:13:48,"1254",53.32821655,5.934104919,9.46,false,false,false,253.37,253.37,0.01,"405","0","126","277","185","129",5.08,"101220",24.96,  2.29 m/s,169°
695375.629845006,5912791.67013508,2022/12/12 10:13:49,"1255",53.32821274,5.934072971,9.45,false,false,false,253.17,253.17,0.01,"400","0","126","276","185","129",4.95,"101214",24.96,  2.29 m/s,169°
695372.775886588,5912790.70288071,2022/12/12 10:13:50,"1256",53.32820511,5.934029579,9.42,false,false,false,253.15,253.15,0.01,"400","0","125","276","184","129",4.8,"101217",24.96,  2.29 m/s,169°
695369.350510671,5912789.71213947,2022/12/12 10:13:51,"1257",53.32819748,5.933977604,9.4,false,false,false,252.91,252.91,0.01,"400","0","125","277","184","129",4.61,"101213",24.96,  2.29 m/s,169°
695365.529848683,5912788.28074107,2022/12/12 10:13:52,"1258",53.32818604,5.93391943,9.37,false,false,false,252.82,252.82,0.01,"464","9","124","278","184","129",4.42,"101209",24.96,  2.29 m/s,169°
695361.074300566,5912786.82213547,2022/12/12 10:13:52,"1259",53.32817459,5.933851719,9.32,false,false,false,253.24,253.24,0.01,"454","8","123","277","183","128",4.29,"101209",24.96,  2.29 m/s,169°
695356.301272583,5912785.35159873,2022/12/12 10:13:54,"1260",53.32816315,5.93377924,9.29,false,false,false,252.64,252.64,0.01,"450","7","122","277","184","128",4.14,"101210",24.96,  2.29 m/s,169°
695351.355163434,5912783.4484277,2022/12/12 10:13:55,"1261",53.32814789,5.933703899,9.25,false,false,false,252.85,252.85,0.01,"445","6","122","277","184","129",4,"101211",24.96,  2.29 m/s,169°
695346.45521587,5912781.97157065,2022/12/12 10:13:56,"1262",53.32813644,5.933629513,9.2,false,false,false,252.83,252.83,0.01,"439","5","121","277","183","128",3.87,"101213",24.96,  2.29 m/s,169°
695341.731283114,5912780.07865569,2022/12/12 10:13:57,"1263",53.32812119,5.93355751,9.17,false,false,false,252.81,252.81,0.01,"445","6","121","277","184","129",3.75,"101217",24.96,  2.29 m/s,169°
695336.831329634,5912778.60180871,2022/12/12 10:13:58,"1264",53.32810974,5.933483124,9.13,false,false,false,252.83,252.83,0.01,"439","5","121","278","182","128",3.64,"101220",24.96,  2.29 m/s,169°
695332.058287242,5912777.13129667,2022/12/12 10:13:59,"1265",53.3280983,5.933410645,9.09,false,false,false,252.79,252.79,0.01,"439","5","120","278","183","128",3.53,"101225",24.96,  2.29 m/s,169°
695327.729679711,5912775.67794057,2022/12/12 10:14:00,"1266",53.32808685,5.933344841,9.06,false,false,false,251.65,251.65,0,"428","4","120","278","183","129",3.41,"101217",24.96,  2.38 m/s,173°
695325.701107421,5912774.74463655,2022/12/12 10:14:00,"1267",53.32807922,5.933313847,9,false,false,false,252.94,252.94,0,"435","5","120","278","182","128",3.35,"101227",24.96,  2.38 m/s,173°
695325.701107421,5912774.74463655,2022/12/12 10:14:02,"1268",53.32807922,5.933313847,8.98,false,false,false,257.83,257.83,0,"450","7","119","277","182","128",3.43,"101230",24.96,  2.38 m/s,173°
695323.89158344,5912774.67027177,2022/12/12 10:14:03,"1269",53.32807922,5.933286667,8.97,false,false,false,257.13,257.13,0,"450","7","119","278","182","128",3.42,"101227",24.96,  2.38 m/s,173°
695320.212201912,5912773.66912859,2022/12/12 10:14:03,"1270",53.32807159,5.933230877,8.94,false,false,false,256.9,256.9,0,"435","5","119","278","182","128",3.32,"101223",24.96,  2.38 m/s,173°
695316.342346221,5912772.66016091,2022/12/12 10:14:05,"1271",53.32806396,5.933172226,8.89,false,false,false,256.81,256.81,0,"435","5","119","278","182","128",3.24,"101225",24.96,  2.78 m/s,179°
695311.950238357,5912771.20532413,2022/12/12 10:14:06,"1272",53.32805252,5.933105469,8.84,false,false,false,256.85,256.85,0,"439","5","119","279","182","129",3.14,"101223",24.96,  2.78 m/s,179°
695307.350244387,5912770.16636007,2022/12/12 10:14:07,"1273",53.32804489,5.933035851,8.8,false,false,false,256.87,256.87,0,"426","3","119","278","181","128",3.05,"101221",24.96,  2.78 m/s,179°
695302.718492094,5912769.12609557,2022/12/12 10:14:08,"1274",53.32803726,5.932965756,8.75,false,false,false,256.91,256.91,0,"439","5","118","278","182","128",2.97,"101216",24.96,  2.78 m/s,179°
695297.723135459,5912767.64648397,2022/12/12 10:14:09,"1275",53.32802582,5.932889938,8.7,false,false,false,256.76,256.76,0,"428","4","117","278","181","128",2.89,"101220",24.96,  2.78 m/s,179°
695292.773946352,5912766.5931858,2022/12/12 10:14:10,"1276",53.32801819,5.932815075,8.65,false,false,false,256.76,256.76,0,"426","3","118","278","181","128",2.8,"101219",24.96,  3.36 m/s,183°
695288.000926494,5912765.12160652,2022/12/12 10:14:11,"1277",53.32800674,5.932742596,8.61,false,false,false,256.73,256.73,0,"420","3","118","279","181","128",2.72,"101216",24.96,  3.36 m/s,183°
695284.131012849,5912764.11377743,2022/12/12 10:14:11,"1278",53.32799912,5.932683945,8.54,false,false,false,255.96,255.96,0,"426","3","117","279","180","128",2.69,"101220",24.96,  3.36 m/s,183°
695283.273850645,5912764.07855875,2022/12/12 10:14:13,"1279",53.32799912,5.93267107,8.49,false,false,false,282.9,282.9,0,"435","5","116","279","180","128",2.71,"101239",24.96,  3.36 m/s,183°
695284.557996989,5912764.55573216,2022/12/12 10:14:14,"1280",53.32800293,5.93269062,8.52,false,false,false,14.1,14.1,0,"439","5","117","279","180","128",2.8,"101254",24.96,  3.36 m/s,183°
695286.286668992,5912765.05117063,2022/12/12 10:14:14,"1281",53.32800674,5.932716847,8.53,false,false,false,72.04,72.04,0,"450","7","117","279","180","128",2.89,"101256",24.96,  3.36 m/s,183°
695288.586647516,5912765.57119783,2022/12/12 10:14:16,"1282",53.32801056,5.932751656,8.58,false,false,false,73.29,73.29,0,"454","8","117","280","181","128",2.91,"101260",24.96,  3.36 m/s,183°
695291.758068155,5912766.551444,2022/12/12 10:14:17,"1283",53.32801819,5.932799816,8.6,false,false,false,73.18,73.18,0,"445","6","117","279","180","128",2.92,"101258",24.96,  3.36 m/s,183°
695295.483563391,5912767.97887029,2022/12/12 10:14:18,"1284",53.32802963,5.93285656,8.63,false,false,false,73.59,73.59,0,"454","8","117","279","180","128",2.89,"101253",24.96,  3.36 m/s,183°
695299.653403212,5912769.42567211,2022/12/12 10:14:19,"1285",53.32804108,5.932919979,8.67,false,false,false,73.54,73.54,0,"464","9","117","280","180","128",2.92,"101254",24.96,  3.36 m/s,183°
695304.39477148,5912770.894849,2022/12/12 10:14:20,"1286",53.32805252,5.932991982,8.71,false,false,false,73.47,73.47,0,"464","9","117","280","180","128",2.92,"101256",24.96,  3.36 m/s,183°
695309.294786731,5912772.37055008,2022/12/12 10:14:21,"1287",53.32806396,5.933066368,8.77,false,false,false,73.61,73.61,0,"459","8","117","280","180","128",2.95,"101256",24.96,  3.36 m/s,183°
695314.036103923,5912773.84084879,2022/12/12 10:14:22,"1288",53.32807541,5.933138371,8.81,false,false,false,73.63,73.63,0,"459","8","117","281","180","128",2.96,"101251",24.96,  3.36 m/s,183°
695318.886899652,5912775.74006257,2022/12/12 10:14:23,"1289",53.32809067,5.93321228,8.85,false,false,false,73.83,73.83,0,"470","10","118","281","179","128",2.97,"101247",24.96,  3.36 m/s,183°
695323.660013272,5912777.210564,2022/12/12 10:14:24,"1290",53.32810211,5.93328476,8.91,false,false,false,73.56,73.56,0,"485","12","118","281","179","129",2.97,"101247",24.96,  3.36 m/s,183°
695328.46476845,5912778.68348471,2022/12/12 10:14:25,"1291",53.32811356,5.933357716,8.95,false,false,false,73.42,73.42,0,"470","10","118","280","180","128",2.98,"101253",24.96,  3.07 m/s,180°
695333.220397002,5912780.57768874,2022/12/12 10:14:26,"1292",53.32812881,5.933430195,9,false,false,false,73.75,73.75,0,"470","10","117","280","179","128",2.99,"101253",24.96,  3.07 m/s,180°
695338.025146345,5912782.05061926,2022/12/12 10:14:27,"1293",53.32814026,5.933503151,9.06,false,false,false,73.8,73.8,0,"481","12","117","281","179","129",3.02,"101246",24.96,  3.07 m/s,180°
695342.702979303,5912783.51722458,2022/12/12 10:14:28,"1294",53.3281517,5.9335742,9.11,false,false,false,73.58,73.58,0,"470","10","117","281","179","129",3.01,"101247",24.96,  3.07 m/s,180°
695347.539479757,5912784.99147005,2022/12/12 10:14:28,"1295",53.32816315,5.933647633,9.15,false,false,false,73.52,73.52,0.01,"485","12","117","281","179","128",3.01,"101246",24.96,  3.07 m/s,180°
695352.263293225,5912786.88550028,2022/12/12 10:14:30,"1296",53.32817841,5.933719635,9.21,false,false,false,73.41,73.41,0.01,"481","12","117","281","179","128",3.01,"101247",24.96,  2.20 m/s,169°
695356.909361343,5912788.35081453,2022/12/12 10:14:31,"1297",53.32818985,5.933790207,9.26,false,false,false,73.63,73.63,0.01,"485","12","116","281","179","129",3.06,"101245",24.96,  2.20 m/s,169°
695361.777655434,5912789.82526793,2022/12/12 10:14:32,"1298",53.32820129,5.933864117,9.31,false,false,false,73.62,73.62,0.01,"476","11","117","281","179","129",3.08,"101242",24.96,  2.20 m/s,169°
695366.501459165,5912791.71931254,2022/12/12 10:14:33,"1299",53.32821655,5.933936119,9.36,false,false,false,73.41,73.41,0.01,"485","12","116","279","178","128",3.08,"101244",24.96,  2.20 m/s,169°
695371.115716793,5912793.18444759,2022/12/12 10:14:34,"1300",53.328228,5.934006214,9.41,false,false,false,73.53,73.53,0.01,"496","14","116","279","178","128",3.09,"101244",24.96,  2.20 m/s,169°
695375.825286803,5912794.65239138,2022/12/12 10:14:34,"1301",53.32823944,5.93407774,9.47,false,false,false,74.82,74.82,0.01,"485","12","115","280","178","128",3.11,"101235",24.96,  2.20 m/s,169°
695378.552283188,5912795.61442863,2022/12/12 10:14:36,"1302",53.32824707,5.934119225,9.46,false,false,false,74.21,74.21,0.01,"485","12","115","279","178","128",3.14,"101243",24.96,  2.20 m/s,169°
695378.679242273,5912795.61964765,2022/12/12 10:14:37,"1303",53.32824707,5.934121132,9.44,false,false,false,9.9,9.9,0.01,"491","13","115","280","178","128",3.18,"101232",24.96,  2.20 m/s,169°
695377.547559861,5912796.84747509,2022/12/12 10:14:37,"1304",53.32825851,5.934104919,9.47,false,false,false,342.13,342.13,0.01,"491","13","115","280","177","129",3.2,"101235",24.96,  2.20 m/s,169°
695376.511168071,5912798.08033387,2022/12/12 10:14:39,"1305",53.32826996,5.934090138,9.47,false,false,false,342.2,342.2,0.01,"481","12","115","280","177","128",3.24,"101238",24.96,  2.20 m/s,169°
695376.08105101,5912798.48706433,2022/12/12 10:14:40,"1306",53.32827377,5.934083939,9.48,false,false,false,285.95,285.95,0.01,"481","12","116","280","177","129",3.28,"101227",24.96,  2.20 m/s,169°
695374.846074187,5912797.58636087,2022/12/12 10:14:41,"1307",53.32826614,5.934064865,9.48,false,false,false,252.97,252.97,0.01,"470","10","115","280","177","128",3.29,"101223",24.96,  2.20 m/s,169°
695372.404819451,5912796.63607158,2022/12/12 10:14:42,"1308",53.32825851,5.934027672,9.45,false,false,false,252.81,252.81,0.01,"464","9","115","280","177","129",3.19,"101224",24.96,  2.20 m/s,169°
695369.011091989,5912795.6477452,2022/12/12 10:14:43,"1309",53.32825089,5.933976173,9.42,false,false,false,252.76,252.76,0.01,"459","8","115","279","176","129",3.09,"101218",24.96,  2.20 m/s,169°
695365.095277876,5912794.21132158,2022/12/12 10:14:44,"1310",53.32823944,5.933916569,9.39,false,false,false,252.94,252.94,0.01,"459","8","115","280","177","128",2.99,"101217",24.96,  2.20 m/s,169°
695360.734892389,5912792.75774154,2022/12/12 10:14:45,"1311",53.328228,5.933850288,9.36,false,false,false,252.85,252.85,0.01,"459","8","114","280","177","128",2.88,"101212",24.96,  2.20 m/s,169°
695355.676241347,5912791.27435083,2022/12/12 10:14:46,"1312",53.32821655,5.933773518,9.29,false,false,false,253.18,253.18,0.01,"454","8","114","281","177","128",2.76,"101213",24.96,  2.20 m/s,169°
695350.712677946,5912789.79598792,2022/12/12 10:14:47,"1313",53.32820511,5.933698177,9.25,false,false,false,252.99,252.99,0,"445","6","114","281","177","128",2.67,"101215",24.96,  2.20 m/s,169°
695345.957110502,5912787.90065396,2022/12/12 10:14:48,"1314",53.32818985,5.933625698,9.2,false,false,false,252.82,252.82,0,"445","6","114","280","176","128",2.58,"101220",24.96,  2.20 m/s,169°
695341.057120634,5912786.42491446,2022/12/12 10:14:49,"1315",53.32817841,5.933551312,9.14,false,false,false,252.73,252.73,0,"439","5","114","280","177","128",2.52,"101218",24.96,  2.20 m/s,169°
695336.301479894,5912784.52958758,2022/12/12 10:14:50,"1316",53.32816315,5.933478832,9.1,false,false,false,252.71,252.71,0,"445","6","114","281","176","128",2.43,"101224",24.96,  2.99 m/s,172°
695331.65544859,5912783.06318164,2022/12/12 10:14:51,"1317",53.3281517,5.93340826,9.06,false,false,false,252.93,252.93,0,"435","5","113","281","176","128",2.35,"101223",24.96,  2.99 m/s,172°
695326.755450114,5912781.58745709,2022/12/12 10:14:52,"1318",53.32814026,5.933333874,9.02,false,false,false,253,253,0,"439","5","113","282","176","128",2.28,"101225",24.96,  2.99 m/s,172°
695321.999866158,5912779.69214751,2022/12/12 10:14:53,"1319",53.328125,5.933261395,8.97,false,false,false,252.84,252.84,0,"435","5","113","280","176","128",2.2,"101222",24.96,  2.99 m/s,172°
695317.353780784,5912778.22686781,2022/12/12 10:14:54,"1320",53.32811356,5.933190823,8.93,false,false,false,252.95,252.95,0,"428","4","112","281","176","128",2.13,"101227",24.96,  2.99 m/s,172°
695312.517265886,5912776.75265342,2022/12/12 10:14:54,"1321",53.32810211,5.93311739,8.88,false,false,false,252.89,252.89,0,"439","5","113","282","175","128",2.08,"101225",24.96,  2.99 m/s,172°
695307.775905612,5912775.28346823,2022/12/12 10:14:56,"1322",53.32809067,5.933045387,8.83,false,false,false,252.91,252.91,0,"445","6","113","281","175","127",2.01,"101223",24.96,  3.13 m/s,134°
695303.179024967,5912773.39469987,2022/12/12 10:14:57,"1323",53.32807541,5.932975292,8.78,false,false,false,252.88,252.88,0,"428","4","112","280","175","128",1.96,"101226",24.96,  3.13 m/s,134°
695298.342501554,5912771.92050011,2022/12/12 10:14:57,"1324",53.32806396,5.932901859,8.72,false,false,false,253.12,253.12,0,"426","3","112","280","176","128",1.93,"101225",24.96,  3.13 m/s,134°
695293.696402571,5912770.45524387,2022/12/12 10:14:59,"1325",53.32805252,5.932831287,8.66,false,false,false,253.13,253.13,0,"420","3","111","280","175","127",1.88,"101230",24.96,  3.13 m/s,134°
695288.891584654,5912768.98347079,2022/12/12 10:15:00,"1326",53.32804108,5.932758331,8.62,false,false,false,253,253,0,"435","5","111","280","175","127",1.83,"101225",24.96,  3.13 m/s,134°
695284.358204549,5912767.09733062,2022/12/12 10:15:01,"1327",53.32802582,5.93268919,8.59,false,false,false,251.91,251.91,0,"439","5","111","281","175","128",1.79,"101224",24.96,  3.13 m/s,134°
695282.058226448,5912766.57730545,2022/12/12 10:15:02,"1328",53.328022,5.932654381,8.52,false,false,false,252.24,252.24,0,"426","3","111","281","175","128",1.78,"101238",24.96,  3.13 m/s,134°
695282.121739637,5912766.57991503,2022/12/12 10:15:03,"1329",53.328022,5.932655335,8.5,false,false,false,327.15,327.15,0,"428","4","111","281","174","128",1.87,"101244",24.96,  3.13 m/s,134°
695282.210730642,5912768.28344304,2022/12/12 10:15:04,"1330",53.32803726,5.932657719,8.53,false,false,false,339.21,339.21,0.01,"450","7","111","281","175","128",1.93,"101256",24.96,  3.13 m/s,134°
695282.109248665,5912769.97914503,2022/12/12 10:15:05,"1331",53.32805252,5.932657242,8.54,false,false,false,339.3,339.3,0.01,"454","8","111","281","174","128",1.98,"101253",24.96,  3.13 m/s,134°
695282.345780445,5912770.41438835,2022/12/12 10:15:06,"1332",53.32805634,5.932661057,8.55,false,false,false,45.4,45.4,0,"470","10","111","282","174","128",2,"101262",24.96,  3.13 m/s,134°
695283.901319712,5912770.47830158,2022/12/12 10:15:07,"1333",53.32805634,5.932684422,8.57,false,false,false,73.55,73.55,0,"470","10","111","282","174","128",2.08,"101258",24.96,  3.13 m/s,134°
695286.437851912,5912771.43134437,2022/12/12 10:15:08,"1334",53.32806396,5.932723045,8.6,false,false,false,73.34,73.34,0,"476","11","111","281","174","127",2.14,"101262",24.96,  3.13 m/s,134°
695289.863321333,5912772.42202793,2022/12/12 10:15:08,"1335",53.32807159,5.932775021,8.63,false,false,false,73.47,73.47,0,"450","7","111","282","174","128",2.13,"101258",24.96,  3.13 m/s,134°
695293.842685809,5912773.86099838,2022/12/12 10:15:10,"1336",53.32808304,5.932835579,8.68,false,false,false,73.53,73.53,0,"450","7","110","282","173","128",2.1,"101259",24.96,  3.87 m/s,180°
695298.234795598,5912775.31581837,2022/12/12 10:15:11,"1337",53.32809448,5.932902336,8.72,false,false,false,73.54,73.54,0,"476","11","110","281","173","128",2.11,"101257",24.96,  3.87 m/s,180°
695303.230031557,5912776.79654004,2022/12/12 10:15:12,"1338",53.32810593,5.932978153,8.77,false,false,false,73.58,73.58,0,"454","8","111","281","173","128",2.11,"101261",24.96,  3.87 m/s,180°
695308.161863935,5912778.27354776,2022/12/12 10:15:13,"1339",53.32811737,5.933053017,8.82,false,false,false,73.81,73.81,0,"464","9","110","281","173","127",2.12,"101256",24.96,  3.87 m/s,180°
695312.980966994,5912780.17145335,2022/12/12 10:15:14,"1340",53.32813263,5.93312645,8.87,false,false,false,73.7,73.7,0,"464","9","110","281","173","127",2.17,"101255",24.96,  3.87 m/s,180°
695317.754010904,5912781.64194618,2022/12/12 10:15:15,"1341",53.32814407,5.933198929,8.92,false,false,false,73.78,73.78,0,"464","9","110","282","173","128",2.2,"101252",24.96,  2.63 m/s,191°
695322.431803534,5912783.10964347,2022/12/12 10:15:16,"1342",53.32815552,5.933269978,8.98,false,false,false,73.64,73.64,0,"481","12","111","282","174","128",2.2,"101250",24.96,  2.63 m/s,191°
695327.331801451,5912784.58536357,2022/12/12 10:15:17,"1343",53.32816696,5.933344364,9.02,false,false,false,73.52,73.52,0,"481","12","111","282","173","128",2.22,"101251",24.96,  2.63 m/s,191°
695332.087378548,5912786.48067866,2022/12/12 10:15:18,"1344",53.32818222,5.933416843,9.07,false,false,false,73.59,73.59,0,"464","9","110","282","173","127",2.25,"101254",24.96,  2.63 m/s,191°
695336.860477852,5912787.95119369,2022/12/12 10:15:19,"1345",53.32819366,5.933489323,9.12,false,false,false,73.61,73.61,0,"481","12","111","282","173","127",2.26,"101250",24.96,  2.63 m/s,191°
695341.633462192,5912789.4228229,2022/12/12 10:15:20,"1346",53.32820511,5.933561802,9.17,false,false,false,73.55,73.55,0,"470","10","110","282","172","128",2.31,"101256",24.96,  3.76 m/s,208°
695346.357273058,5912791.31684731,2022/12/12 10:15:21,"1347",53.32822037,5.933633804,9.22,false,false,false,73.4,73.4,0,"481","12","110","281","172","128",2.31,"101250",24.96,  3.76 m/s,208°
695350.971581734,5912792.7808506,2022/12/12 10:15:22,"1348",53.32823181,5.933703899,9.27,false,false,false,73.58,73.58,0,"481","12","109","281","172","128",2.3,"101251",24.96,  3.76 m/s,208°
695355.839826899,5912794.25641005,2022/12/12 10:15:23,"1349",53.32824326,5.933777809,9.32,false,false,false,73.67,73.67,0.01,"464","9","110","281","172","127",2.3,"101247",24.96,  3.76 m/s,208°
695360.581155962,5912795.72564396,2022/12/12 10:15:24,"1350",53.3282547,5.933849812,9.37,false,false,false,73.7,73.7,0.01,"476","11","109","281","172","128",2.31,"101245",24.96,  3.76 m/s,208°
695365.241441205,5912797.61707682,2022/12/12 10:15:25,"1351",53.32826996,5.93392086,9.42,false,false,false,73.72,73.72,0.01,"476","11","110","283","172","128",2.34,"101246",24.96,  3.76 m/s,208°
695370.10972351,5912799.09153904,2022/12/12 10:15:26,"1352",53.3282814,5.93399477,9.47,false,false,false,73.66,73.66,0.01,"485","12","110","282","173","128",2.35,"101244",24.96,  3.76 m/s,208°
695374.660460123,5912800.55406695,2022/12/12 10:15:27,"1353",53.32829285,5.934063911,9.51,false,false,false,74.67,74.67,0.01,"485","12","110","282","172","128",2.36,"101246",24.96,  3.76 m/s,208°
695376.879550919,5912801.49522492,2022/12/12 10:15:28,"1354",53.32830048,5.934097767,9.48,false,false,false,74.22,74.22,0.01,"481","12","109","281","172","128",2.39,"101248",24.96,  3.76 m/s,208°
695376.689079241,5912801.48739508,2022/12/12 10:15:29,"1355",53.32830048,5.934094906,9.49,false,false,false,356.51,356.51,0.01,"485","12","110","281","172","128",2.44,"101233",24.96,  3.76 m/s,208°
695375.462196077,5912802.71130944,2022/12/12 10:15:30,"1356",53.32831192,5.934077263,9.54,false,false,false,342.02,342.02,0.01,"470","10","109","281","171","127",2.48,"101233",24.96,  3.76 m/s,208°
695374.457541465,5912803.94435925,2022/12/12 10:15:31,"1357",53.32832336,5.934062958,9.56,false,false,false,342.12,342.12,0.01,"470","10","110","281","171","127",2.53,"101228",24.96,  3.76 m/s,208°
695374.013085592,5912803.92608895,2022/12/12 10:15:32,"1358",53.32832336,5.934056282,9.57,false,false,false,273.15,273.15,0.01,"476","11","111","282","171","128",2.58,"101226",24.96,  3.76 m/s,208°
695372.57024243,5912803.44236665,2022/12/12 10:15:33,"1359",53.32831955,5.934034348,9.56,false,false,false,253.21,253.21,0.01,"464","9","111","282","172","128",2.55,"101221",24.96,  3.76 m/s,208°
695370.019381476,5912802.06316139,2022/12/12 10:15:34,"1360",53.32830811,5.933995247,9.53,false,false,false,252.83,252.83,0.01,"459","8","111","282","171","128",2.49,"101219",24.96,  3.76 m/s,208°
695366.657459695,5912801.07502993,2022/12/12 10:15:35,"1361",53.32830048,5.933944225,9.49,false,false,false,252.77,252.77,0.01,"459","8","110","281","171","128",2.43,"101217",24.96,  2.60 m/s,174°
695362.646380465,5912799.63469216,2022/12/12 10:15:36,"1362",53.32828903,5.93388319,9.45,false,false,false,252.95,252.95,0.01,"454","8","110","282","171","128",2.33,"101209",24.96,  2.60 m/s,174°
695358.190796897,5912798.17720108,2022/12/12 10:15:37,"1363",53.32827759,5.933815479,9.4,false,false,false,252.97,252.97,0.01,"459","8","110","282","171","128",2.23,"101213",24.96,  2.60 m/s,174°
695353.100394755,5912796.69250768,2022/12/12 10:15:37,"1364",53.32826614,5.933738232,9.34,false,false,false,252.63,252.63,0.01,"450","7","109","281","170","127",2.14,"101211",24.96,  2.60 m/s,174°
695348.13683654,5912795.21414734,2022/12/12 10:15:39,"1365",53.3282547,5.933662891,9.29,false,false,false,252.92,252.92,0,"445","6","109","281","171","127",2.08,"101213",24.96,  2.60 m/s,174°
695343.286071163,5912793.31490297,2022/12/12 10:15:40,"1366",53.32823944,5.933588982,9.23,false,false,false,252.91,252.91,0,"435","5","108","282","171","128",2,"101217",24.96,  2.70 m/s,175°
695338.481289108,5912791.84307888,2022/12/12 10:15:41,"1367",53.328228,5.933516026,9.19,false,false,false,252.79,252.79,0,"428","4","109","281","171","128",1.93,"101225",24.96,  2.70 m/s,175°
695333.820922475,5912789.95166989,2022/12/12 10:15:42,"1368",53.32821274,5.933444977,9.15,false,false,false,252.79,252.79,0,"459","8","108","283","171","128",1.86,"101219",24.96,  2.70 m/s,175°
695328.920910951,5912788.47482813,2022/12/12 10:15:43,"1369",53.32820129,5.93337059,9.11,false,false,false,253.08,253.08,0,"439","5","108","282","171","127",1.8,"101220",24.96,  2.70 m/s,175°
695324.179633289,5912787.00562893,2022/12/12 10:15:44,"1370",53.32818985,5.933298588,9.06,false,false,false,253.17,253.17,0,"426","3","108","281","170","126",1.76,"101217",24.96,  2.70 m/s,175°
695319.533555805,5912785.54034691,2022/12/12 10:15:45,"1371",53.32817841,5.933228016,9.01,false,false,false,253.04,253.04,0,"428","4","108","281","170","127",1.72,"101217",24.96,  2.94 m/s,146°
695314.68270409,5912783.64112948,2022/12/12 10:15:45,"1372",53.32816315,5.933154106,8.96,false,false,false,253.1,253.1,0,"428","4","107","281","169","127",1.69,"101217",24.96,  2.94 m/s,146°
695309.941463688,5912782.17083262,2022/12/12 10:15:47,"1373",53.3281517,5.933082104,8.92,false,false,false,252.78,252.78,0,"426","3","106","281","170","127",1.64,"101224",24.96,  2.94 m/s,146°
695305.327134359,5912780.70686968,2022/12/12 10:15:48,"1374",53.32814026,5.933012009,8.86,false,false,false,252.86,252.86,0,"426","3","106","282","170","127",1.58,"101229",24.96,  2.94 m/s,146°
695300.508029313,5912778.8089719,2022/12/12 10:15:48,"1375",53.328125,5.932938576,8.81,false,false,false,252.74,252.74,0,"428","4","107","283","169","128",1.53,"101223",24.96,  2.94 m/s,146°
695295.893694314,5912777.34501825,2022/12/12 10:15:50,"1376",53.32811356,5.932868481,8.75,false,false,false,252.91,252.91,0,"439","5","107","282","169","127",1.48,"101222",24.96,  2.94 m/s,146°
695291.057173255,5912775.87082586,2022/12/12 10:15:51,"1377",53.32810211,5.932795048,8.69,false,false,false,252.85,252.85,0,"420","3","107","282","169","127",1.43,"101227",24.96,  2.94 m/s,146°
695286.284116866,5912774.40036015,2022/12/12 10:15:52,"1378",53.32809067,5.932722569,8.64,false,false,false,252.95,252.95,0,"420","3","106","282","169","127",1.4,"101224",24.96,  2.94 m/s,146°
695281.891982382,5912772.9444365,2022/12/12 10:15:53,"1379",53.32807922,5.932655811,8.61,false,false,false,252.24,252.24,0,"426","3","107","282","169","127",1.38,"101224",24.96,  2.94 m/s,146°
695279.704684941,5912772.00463112,2022/12/12 10:15:54,"1380",53.32807159,5.932622433,8.54,false,false,false,252.93,252.93,0,"428","4","106","282","169","127",1.41,"101231",24.96,  2.94 m/s,146°
695279.845947147,5912772.43596,2022/12/12 10:15:55,"1381",53.32807541,5.932624817,8.53,false,false,false,329.69,329.69,0,"450","7","107","282","169","127",1.47,"101246",24.96,  2.94 m/s,146°
695279.966695176,5912774.14079273,2022/12/12 10:15:56,"1382",53.32809067,5.932627678,8.55,false,false,false,339.09,339.09,0,"439","5","106","281","169","127",1.54,"101256",24.96,  2.94 m/s,146°
695279.865213905,5912775.83649476,2022/12/12 10:15:57,"1383",53.32810593,5.932627201,8.56,false,false,false,339.02,339.02,0.01,"445","6","106","281","168","127",1.57,"101247",24.96,  2.94 m/s,146°
695280.15095612,5912775.84823503,2022/12/12 10:15:58,"1384",53.32810593,5.932631493,8.58,false,false,false,49.94,49.94,0.01,"464","9","107","282","169","127",1.61,"101264",24.96,  2.94 m/s,146°
695281.784288101,5912776.33975488,2022/12/12 10:15:59,"1385",53.32810974,5.932656288,8.6,false,false,false,73.5,73.5,0.01,"450","7","106","282","169","127",1.68,"101263",24.96,  2.94 m/s,146°
695284.560476146,5912776.87934666,2022/12/12 10:15:59,"1386",53.32811356,5.93269825,8.63,false,false,false,73.29,73.29,0.01,"470","10","106","282","169","127",1.72,"101265",24.96,  2.94 m/s,146°
695288.000222709,5912778.29502671,2022/12/12 10:16:01,"1387",53.328125,5.932750702,8.68,false,false,false,73.42,73.42,0.01,"459","8","106","282","168","127",1.71,"101260",24.96,  3.56 m/s,186°
695292.060550717,5912779.31179771,2022/12/12 10:16:02,"1388",53.32813263,5.932812214,8.73,false,false,false,73.57,73.57,0.01,"450","7","106","282","168","127",1.68,"101259",24.96,  3.56 m/s,186°
695296.611371686,5912780.77313788,2022/12/12 10:16:02,"1389",53.32814407,5.932881355,8.77,false,false,false,73.55,73.55,0.01,"454","8","106","283","168","127",1.68,"101255",24.96,  3.56 m/s,186°
695301.430475964,5912782.67103172,2022/12/12 10:16:04,"1390",53.32815933,5.932954788,8.84,false,false,false,73.93,73.93,0.01,"470","10","106","282","168","127",1.7,"101250",24.96,  3.56 m/s,186°
695306.425703206,5912784.15175695,2022/12/12 10:16:05,"1391",53.32817078,5.933030605,8.89,false,false,false,73.55,73.55,0.01,"476","11","106","283","168","127",1.71,"101254",24.96,  2.97 m/s,187°
695311.262257549,5912785.62485323,2022/12/12 10:16:06,"1392",53.32818222,5.933104038,8.95,false,false,false,73.69,73.69,0.01,"476","11","107","282","169","127",1.75,"101250",24.96,  2.97 m/s,187°
695315.890879661,5912787.51493479,2022/12/12 10:16:07,"1393",53.32819748,5.93317461,9.01,false,false,false,73.67,73.67,0.01,"470","10","106","283","168","127",1.77,"101255",24.96,  2.97 m/s,187°
695320.759184628,5912788.98934589,2022/12/12 10:16:08,"1394",53.32820892,5.93324852,9.08,false,false,false,73.58,73.58,0.01,"464","9","107","283","167","127",1.79,"101247",24.96,  2.97 m/s,187°
695325.563928272,5912790.46226394,2022/12/12 10:16:09,"1395",53.32822037,5.933321476,9.14,false,false,false,73.57,73.57,0.01,"464","9","107","283","168","128",1.82,"101253",24.96,  2.97 m/s,187°
695330.336958482,5912791.93276974,2022/12/12 10:16:10,"1396",53.32823181,5.933393955,9.21,false,false,false,73.45,73.45,0.01,"481","12","107","282","168","127",1.86,"101250",24.96,  3.30 m/s,208°
695335.092593523,5912793.82809078,2022/12/12 10:16:10,"1397",53.32824707,5.933466435,9.25,false,false,false,73.44,73.44,0.01,"476","11","107","282","167","127",1.87,"101251",24.96,  3.30 m/s,208°
695339.833861519,5912795.2973011,2022/12/12 10:16:12,"1398",53.32825851,5.933538437,9.31,false,false,false,73.57,73.57,0.01,"464","9","106","282","168","127",1.87,"101252",24.96,  3.30 m/s,208°
695344.575081142,5912796.76762828,2022/12/12 10:16:13,"1399",53.32826996,5.933610439,9.36,false,false,false,73.51,73.51,0.01,"464","9","107","283","167","126",1.88,"101252",24.96,  3.30 m/s,208°
695349.298950024,5912798.66165857,2022/12/12 10:16:14,"1400",53.32828522,5.933682442,9.43,false,false,false,73.42,73.42,0.01,"464","9","106","283","167","127",1.88,"101251",24.96,  3.30 m/s,208°
695353.945007022,5912800.12697018,2022/12/12 10:16:15,"1401",53.32829666,5.933753014,9.48,false,false,false,73.5,73.5,0.01,"470","10","106","282","168","127",1.86,"101251",24.96,  3.30 m/s,208°
695358.749730983,5912801.59992226,2022/12/12 10:16:16,"1402",53.32830811,5.93382597,9.52,false,false,false,73.86,73.86,0.01,"481","12","106","283","167","127",1.84,"101248",24.96,  3.30 m/s,208°
695363.522741588,5912803.07046187,2022/12/12 10:16:17,"1403",53.32831955,5.933898449,9.59,false,false,false,73.66,73.66,0.01,"464","9","106","282","167","127",1.84,"101248",24.96,  3.30 m/s,208°
695368.278287422,5912804.96581393,2022/12/12 10:16:18,"1404",53.32833481,5.933970928,9.65,false,false,false,73.64,73.64,0.01,"470","10","106","282","167","127",1.85,"101243",24.96,  3.30 m/s,208°
695372.765618297,5912806.42462008,2022/12/12 10:16:18,"1405",53.32834625,5.934039116,9.69,false,false,false,74.78,74.78,0.01,"470","10","106","283","167","127",1.86,"101242",24.96,  3.30 m/s,208°
695374.811585511,5912806.9342492,2022/12/12 10:16:20,"1406",53.32835007,5.93407011,9.67,false,false,false,73.92,73.92,0.01,"470","10","106","282","167","127",1.9,"101249",24.96,  3.30 m/s,208°
695374.444981995,5912807.34359063,2022/12/12 10:16:21,"1407",53.32835388,5.934064865,9.67,false,false,false,352.65,352.65,0.01,"491","13","106","282","167","127",1.97,"101236",24.96,  3.30 m/s,208°
695373.154608997,5912808.56600951,2022/12/12 10:16:22,"1408",53.32836533,5.934046269,9.75,false,false,false,341.94,341.94,0.01,"470","10","106","283","167","127",1.98,"101235",24.96,  3.30 m/s,208°
695372.294331547,5912809.38058311,2022/12/12 10:16:23,"1409",53.32837296,5.934033871,9.78,false,false,false,342.01,342.01,0.01,"470","10","106","279","166","127",2.03,"101236",24.96,  3.30 m/s,208°
695371.927728426,5912809.78992473,2022/12/12 10:16:23,"1410",53.32837677,5.934028626,9.77,false,false,false,269.05,269.05,0.01,"464","9","106","282","166","127",2.09,"101227",24.96,  3.30 m/s,208°
695370.311811286,5912808.87356309,2022/12/12 10:16:25,"1411",53.32836914,5.93400383,9.77,false,false,false,253,253,0.01,"470","10","106","282","167","127",2.11,"101218",24.96,  2.27 m/s,172°
695367.711846725,5912807.9167519,2022/12/12 10:16:26,"1412",53.32836151,5.933964253,9.75,false,false,false,253.14,253.14,0.01,"464","9","106","282","166","127",2.05,"101220",24.96,  2.27 m/s,172°
695364.430857539,5912806.50753713,2022/12/12 10:16:27,"1413",53.32835007,5.933914185,9.7,false,false,false,252.94,252.94,0.01,"450","7","106","282","166","127",2,"101215",24.96,  2.27 m/s,172°
695360.687995076,5912805.50375116,2022/12/12 10:16:28,"1414",53.32834244,5.933857441,9.67,false,false,false,252.97,252.97,0.01,"450","7","106","282","166","127",1.93,"101219",24.96,  2.27 m/s,172°
695356.232462405,5912804.04514974,2022/12/12 10:16:29,"1415",53.32833099,5.93378973,9.6,false,false,false,253.29,253.29,0.01,"450","7","105","282","166","127",1.89,"101214",24.96,  2.27 m/s,172°
695351.364181933,5912802.5707017,2022/12/12 10:16:30,"1416",53.32831955,5.93371582,9.55,false,false,false,253.17,253.17,0.01,"445","6","105","283","166","127",1.85,"101211",24.96,  2.28 m/s,166°
695346.545115219,5912800.6727563,2022/12/12 10:16:31,"1417",53.32830429,5.933642387,9.49,false,false,false,252.84,252.84,0.01,"445","6","105","282","166","127",1.8,"101212",24.96,  2.28 m/s,166°
695341.581626254,5912799.19440549,2022/12/12 10:16:31,"1418",53.32829285,5.933567047,9.42,false,false,false,252.87,252.87,0.01,"435","5","105","283","166","127",1.73,"101214",24.96,  2.28 m/s,166°
695336.840408388,5912797.72408125,2022/12/12 10:16:33,"1419",53.3282814,5.933495045,9.35,false,false,false,253,253,0,"428","4","105","282","165","127",1.7,"101218",24.96,  2.28 m/s,166°
695331.989575332,5912795.8248457,2022/12/12 10:16:34,"1420",53.32826614,5.933421135,9.29,false,false,false,253,253,0,"428","4","104","282","165","127",1.68,"101215",24.96,  2.28 m/s,166°
695327.248305961,5912794.35564324,2022/12/12 10:16:35,"1421",53.3282547,5.933349133,9.22,false,false,false,252.71,252.71,0,"439","5","104","282","166","127",1.62,"101217",24.96,  2.25 m/s,147°
695322.602236623,5912792.89035803,2022/12/12 10:16:36,"1422",53.32824326,5.933278561,9.16,false,false,false,252.75,252.75,0,"435","5","104","283","165","127",1.56,"101222",24.96,  2.25 m/s,147°
695317.751393709,5912790.99113725,2022/12/12 10:16:36,"1423",53.328228,5.933204651,9.09,false,false,false,252.9,252.9,0,"428","4","104","283","165","127",1.5,"101221",24.96,  2.25 m/s,147°
695313.105364361,5912789.52474941,2022/12/12 10:16:38,"1424",53.32821655,5.933134079,9.03,false,false,false,252.91,252.91,0,"426","3","105","283","165","127",1.45,"101220",24.96,  2.25 m/s,147°
695308.268814547,5912788.05165114,2022/12/12 10:16:39,"1425",53.32820511,5.933060646,8.98,false,false,false,252.87,252.87,0,"420","3","104","283","165","126",1.4,"101227",24.96,  2.25 m/s,147°
695303.51323114,5912786.15636005,2022/12/12 10:16:40,"1426",53.32818985,5.932988167,8.91,false,false,false,253.09,253.09,0,"420","3","104","283","165","127",1.36,"101225",24.96,  2.25 m/s,147°
695298.867147743,5912784.69109839,2022/12/12 10:16:41,"1427",53.32817841,5.932917595,8.85,false,false,false,252.93,252.93,0,"428","4","103","284","165","127",1.3,"101227",24.96,  2.25 m/s,147°
695293.967122125,5912783.21429302,2022/12/12 10:16:41,"1428",53.32816696,5.932843208,8.78,false,false,false,252.98,252.98,0,"435","5","104","283","165","127",1.27,"101229",24.96,  2.25 m/s,147°
695289.306798417,5912781.32293099,2022/12/12 10:16:43,"1429",53.3281517,5.93277216,8.73,false,false,false,252.55,252.55,0,"420","3","104","283","165","127",1.22,"101227",24.96,  2.25 m/s,147°
695284.438477713,5912779.8485525,2022/12/12 10:16:44,"1430",53.32814026,5.93269825,8.68,false,false,false,252.78,252.78,0,"420","3","105","283","165","127",1.18,"101222",24.96,  2.25 m/s,147°
695279.887631963,5912778.38610929,2022/12/12 10:16:45,"1431",53.32812881,5.932629108,8.63,false,false,false,251.95,251.95,0,"420","3","104","284","165","127",1.15,"101220",24.96,  2.25 m/s,147°
695277.509818551,5912777.439591,2022/12/12 10:16:46,"1432",53.32812119,5.932592869,8.55,false,false,false,252.32,252.32,0,"428","4","104","283","165","127",1.14,"101232",24.96,  2.25 m/s,147°
695277.55592345,5912777.8658962,2022/12/12 10:16:46,"1433",53.328125,5.932593823,8.51,false,false,false,325.69,325.69,0.01,"450","7","105","282","164","127",1.21,"101236",24.96,  2.25 m/s,147°
695277.676671951,5912779.57072887,2022/12/12 10:16:48,"1434",53.32814026,5.932596684,8.51,false,false,false,339.53,339.53,0.01,"435","5","104","283","165","127",1.29,"101253",24.96,  2.25 m/s,147°
695277.575191409,5912781.26643094,2022/12/12 10:16:49,"1435",53.32815552,5.932596207,8.51,false,false,false,339.1,339.1,0.01,"464","9","105","283","164","128",1.32,"101251",24.96,  2.25 m/s,147°
695277.829110223,5912781.27686357,2022/12/12 10:16:50,"1436",53.32815552,5.932600021,8.51,false,false,false,41.97,41.97,0.01,"450","7","105","283","165","127",1.36,"101259",24.96,  3.04 m/s,186°
695279.303791163,5912781.76186426,2022/12/12 10:16:51,"1437",53.32815933,5.932622433,8.54,false,false,false,73.7,73.7,0.01,"454","8","104","284","164","127",1.43,"101258",24.96,  3.04 m/s,186°
695281.92119373,5912782.2949307,2022/12/12 10:16:51,"1438",53.32816315,5.93266201,8.59,false,false,false,73.48,73.48,0.01,"464","9","105","283","164","127",1.46,"101262",24.96,  3.04 m/s,186°
695285.202221055,5912783.70408758,2022/12/12 10:16:53,"1439",53.32817459,5.932712078,8.65,false,false,false,73.24,73.24,0.01,"464","9","105","284","165","127",1.44,"101255",24.96,  3.04 m/s,186°
695289.103828987,5912784.71433483,2022/12/12 10:16:54,"1440",53.32818222,5.932771206,8.72,false,false,false,73.38,73.38,0.01,"464","9","105","284","164","128",1.45,"101256",24.96,  3.04 m/s,186°
695293.495929603,5912786.16915065,2022/12/12 10:16:55,"1441",53.32819366,5.932837963,8.78,false,false,false,73.57,73.57,0.01,"464","9","105","284","164","127",1.47,"101255",24.96,  2.51 m/s,191°
695298.205480044,5912787.63812893,2022/12/12 10:16:56,"1442",53.32820511,5.932909489,8.85,false,false,false,73.67,73.67,0.01,"464","9","106","284","165","128",1.49,"101252",24.96,  2.51 m/s,191°
695303.21504866,5912789.54385145,2022/12/12 10:16:57,"1443",53.32822037,5.932985783,8.91,false,false,false,73.7,73.7,0.01,"476","11","106","284","164","128",1.5,"101256",24.96,  2.51 m/s,191°
695308.051598146,5912791.01694457,2022/12/12 10:16:58,"1444",53.32823181,5.933059216,8.98,false,false,false,73.5,73.5,0.01,"470","10","105","283","164","127",1.52,"101251",24.96,  2.51 m/s,191°
695312.761073508,5912792.48593474,2022/12/12 10:16:59,"1445",53.32824326,5.933130741,9.04,false,false,false,73.46,73.46,0.01,"470","10","105","283","164","127",1.57,"101252",24.96,  2.51 m/s,191°
695317.643718615,5912794.38534339,2022/12/12 10:17:00,"1446",53.32825851,5.933205128,9.12,false,false,false,73.53,73.53,0.01,"470","10","105","283","164","128",1.59,"101253",24.96,  3.63 m/s,203°
695322.321498367,5912795.85304089,2022/12/12 10:17:01,"1447",53.32826996,5.933276177,9.21,false,false,false,73.36,73.36,0.01,"470","10","105","283","164","127",1.6,"101251",24.96,  3.63 m/s,203°
695327.189726414,5912797.32745609,2022/12/12 10:17:02,"1448",53.3282814,5.933350086,9.29,false,false,false,73.58,73.58,0.01,"476","11","104","283","163","126",1.61,"101253",24.96,  3.63 m/s,203°
695331.945356901,5912799.22277409,2022/12/12 10:17:03,"1449",53.32829666,5.933422566,9.36,false,false,false,73.61,73.61,0.01,"476","11","105","283","164","127",1.64,"101249",24.96,  3.63 m/s,203°
695336.623061677,5912800.69048312,2022/12/12 10:17:04,"1450",53.32830811,5.933493614,9.43,false,false,false,73.54,73.54,0.01,"470","10","105","284","164","127",1.66,"101250",24.96,  3.63 m/s,203°
695341.49134772,5912802.16491592,2022/12/12 10:17:05,"1451",53.32831955,5.933567524,9.49,false,false,false,73.58,73.58,0.01,"476","11","104","284","163","127",1.68,"101247",24.96,  3.63 m/s,203°
695346.200915818,5912803.63283039,2022/12/12 10:17:06,"1452",53.32833099,5.93363905,9.57,false,false,false,73.66,73.66,0.01,"476","11","105","284","164","128",1.68,"101246",24.96,  3.63 m/s,203°
695351.069084147,5912805.10838246,2022/12/12 10:17:07,"1453",53.32834244,5.933712959,9.64,false,false,false,73.5,73.5,0.01,"481","12","105","283","163","127",1.71,"101245",24.96,  3.63 m/s,203°
695355.792942256,5912807.00241945,2022/12/12 10:17:08,"1454",53.3283577,5.933784962,9.7,false,false,false,73.48,73.48,0.01,"485","12","104","283","164","127",1.75,"101243",24.96,  3.63 m/s,203°
695360.407232947,5912808.46643233,2022/12/12 10:17:09,"1455",53.32836914,5.933855057,9.76,false,false,false,73.64,73.64,0.01,"476","11","104","283","164","127",1.75,"101246",24.96,  3.63 m/s,203°
695365.180236056,5912809.93697378,2022/12/12 10:17:10,"1456",53.32838058,5.933927536,9.83,false,false,false,73.21,73.21,0.01,"481","12","104","283","163","127",1.76,"101239",24.96,  3.63 m/s,203°
695369.745302949,5912811.82449812,2022/12/12 10:17:11,"1457",53.32839584,5.933997154,9.9,false,false,false,74.49,74.49,0.01,"476","11","104","283","163","127",1.76,"101242",24.96,  3.63 m/s,203°
695372.584975859,5912812.36675277,2022/12/12 10:17:12,"1458",53.32839966,5.93404007,9.9,false,false,false,74.01,74.01,0.01,"481","12","104","283","163","127",1.78,"101247",24.96,  3.63 m/s,203°
695372.662761381,5912812.79436177,2022/12/12 10:17:13,"1459",53.32840347,5.9340415,9.88,false,false,false,10.78,10.78,0.01,"491","13","104","283","163","127",1.83,"101239",24.96,  3.63 m/s,203°
695371.5803238,5912813.59980313,2022/12/12 10:17:14,"1460",53.3284111,5.934025765,9.95,false,false,false,342.51,342.51,0.01,"470","10","103","281","162","126",1.86,"101239",24.96,  3.63 m/s,203°
695370.431184759,5912815.25243975,2022/12/12 10:17:15,"1461",53.32842636,5.934009552,10.02,false,false,false,342.07,342.07,0.01,"470","10","104","283","163","127",1.87,"101236",24.96,  1.93 m/s,172°
695369.986729952,5912815.23416981,2022/12/12 10:17:16,"1462",53.32842636,5.934002876,10.02,false,false,false,288.43,288.43,0.01,"481","12","104","283","163","127",1.9,"101224",24.96,  1.93 m/s,172°
695368.766117424,5912814.75958355,2022/12/12 10:17:17,"1463",53.32842255,5.93398428,10,false,false,false,253.07,253.07,0.01,"470","10","104","283","162","127",1.93,"101219",24.96,  1.93 m/s,172°
695366.356560539,5912813.81059981,2022/12/12 10:17:18,"1464",53.32841492,5.933947563,9.98,false,false,false,253.09,253.09,0.01,"481","12","104","283","162","127",1.88,"101214",24.96,  1.93 m/s,172°
695363.170889861,5912812.40418984,2022/12/12 10:17:19,"1465",53.32840347,5.933898926,9.92,false,false,false,252.99,252.99,0.01,"476","11","103","283","162","127",1.83,"101216",24.96,  1.93 m/s,172°
695359.364585914,5912811.39779687,2022/12/12 10:17:20,"1466",53.32839584,5.933841229,9.85,false,false,false,252.89,252.89,0.01,"464","9","104","283","163","127",1.76,"101211",24.96,  2.85 m/s,180°
695355.067727905,5912809.94683231,2022/12/12 10:17:21,"1467",53.3283844,5.933775902,9.79,false,false,false,252.57,252.57,0.01,"445","6","104","284","162","127",1.7,"101216",24.96,  2.85 m/s,180°
695350.407385247,5912808.05540647,2022/12/12 10:17:22,"1468",53.32836914,5.933704853,9.71,false,false,false,252.98,252.98,0.01,"454","8","104","283","162","127",1.64,"101214",24.96,  2.85 m/s,180°
695345.316879795,5912806.57183053,2022/12/12 10:17:23,"1469",53.3283577,5.933627605,9.66,false,false,false,252.74,252.74,0.01,"445","6","103","283","162","127",1.56,"101218",24.96,  2.85 m/s,180°
695340.416955257,5912805.09497917,2022/12/12 10:17:24,"1470",53.32834625,5.933553219,9.58,false,false,false,253.07,253.07,0.01,"445","6","103","283","161","128",1.51,"101203",24.96,  2.85 m/s,180°
695335.661400268,5912803.19965521,2022/12/12 10:17:25,"1471",53.32833099,5.93348074,9.5,false,false,false,252.83,252.83,0.01,"439","5","103","284","162","127",1.45,"101214",24.96,  2.91 m/s,147°
695330.920072785,5912801.73044615,2022/12/12 10:17:26,"1472",53.32831955,5.933408737,9.42,false,false,false,253.22,253.22,0.01,"439","5","103","283","162","127",1.41,"101207",24.96,  2.91 m/s,147°
695326.147052836,5912800.25993953,2022/12/12 10:17:27,"1473",53.32830811,5.933336258,9.34,false,false,false,253.19,253.19,0.01,"435","5","102","282","161","127",1.38,"101211",24.96,  2.91 m/s,147°
695321.342319518,5912798.78702064,2022/12/12 10:17:28,"1474",53.32829666,5.933263302,9.27,false,false,false,253.18,253.18,0.01,"450","7","102","282","161","127",1.36,"101213",24.96,  2.91 m/s,147°
695316.569294191,5912797.31652377,2022/12/12 10:17:29,"1475",53.32828522,5.933190823,9.2,false,false,false,253.03,253.03,0.01,"439","5","102","283","161","126",1.34,"101218",24.96,  2.91 m/s,147°
695311.813656597,5912795.42122134,2022/12/12 10:17:30,"1476",53.32826996,5.933118343,9.11,false,false,false,252.94,252.94,0.01,"426","3","102","283","161","127",1.29,"101219",24.96,  2.91 m/s,147°
695307.07242758,5912793.95092707,2022/12/12 10:17:31,"1477",53.32825851,5.933046341,9.04,false,false,false,253.26,253.26,0.01,"420","3","102","283","161","126",1.27,"101210",24.96,  2.91 m/s,147°
695302.299393773,5912792.48044474,2022/12/12 10:17:32,"1478",53.32824707,5.932973862,8.96,false,false,false,252.96,252.96,0.01,"420","3","101","283","161","127",1.24,"101221",24.96,  2.91 m/s,147°
695297.670772145,5912790.59037642,2022/12/12 10:17:33,"1479",53.32823181,5.93290329,8.87,false,false,false,252.81,252.81,0.01,"428","4","101","283","161","127",1.21,"101226",24.96,  2.91 m/s,147°
695292.802463236,5912789.11598907,2022/12/12 10:17:33,"1480",53.32822037,5.93282938,8.79,false,false,false,252.7,252.7,0.01,"445","6","100","284","161","126",1.17,"101226",24.96,  2.91 m/s,147°
695288.061223101,5912787.64571405,2022/12/12 10:17:35,"1481",53.32820892,5.932757378,8.7,false,false,false,252.7,252.7,0.01,"420","3","101","284","161","127",1.14,"101233",24.96,  2.91 m/s,147°
695283.337322425,5912785.75174541,2022/12/12 10:17:36,"1482",53.32819366,5.932685375,8.63,false,false,false,252.9,252.9,0.01,"420","3","101","284","161","127",1.11,"101225",24.96,  2.91 m/s,147°
695278.627787307,5912784.28389681,2022/12/12 10:17:37,"1483",53.32818222,5.93261385,8.56,false,false,false,252.23,252.23,0.01,"420","3","101","284","162","127",1.07,"101226",24.96,  2.91 m/s,147°
695275.583269474,5912783.3088727,2022/12/12 10:17:38,"1484",53.32817459,5.932567596,8.5,false,false,false,251.66,251.66,0.01,"428","4","101","284","161","127",1.05,"101234",24.96,  2.91 m/s,147°
695275.202324844,5912783.29322119,2022/12/12 10:17:39,"1485",53.32817459,5.932561874,8.44,false,false,false,307.08,307.08,0.01,"445","6","102","285","160","127",1.11,"101241",24.96,  2.91 m/s,147°
695275.46750772,5912784.57957711,2022/12/12 10:17:40,"1486",53.32818604,5.932566643,8.44,false,false,false,339.58,339.58,0.01,"439","5","102","284","161","127",1.17,"101253",24.96,  2.36 m/s,198°
695275.366073574,5912786.27416715,2022/12/12 10:17:41,"1487",53.32820129,5.932566166,8.45,false,false,false,339.17,339.17,0.01,"454","8","102","284","161","126",1.21,"101256",24.96,  2.36 m/s,198°
695275.458171137,5912787.12788684,2022/12/12 10:17:41,"1488",53.32820892,5.932568073,8.46,false,false,false,23.02,23.02,0.01,"445","6","102","284","161","126",1.25,"101256",24.96,  2.36 m/s,198°
695276.569314223,5912787.17353952,2022/12/12 10:17:43,"1489",53.32820892,5.932584763,8.49,false,false,false,72.83,72.83,0.01,"459","8","102","285","161","128",1.32,"101261",24.96,  2.36 m/s,198°
695279.059754732,5912787.70138816,2022/12/12 10:17:44,"1490",53.32821274,5.932622433,8.54,false,false,false,73.44,73.44,0.01,"470","10","102","284","160","127",1.36,"101263",24.96,  2.36 m/s,198°
