X,Y,TimeStamp (UTC),"""TriggerID""","""Latitude""","""Longitude""","""Altitude (Meter AGL)""",Gimbal Roll,"""Gimbal Pitch""","""Gimbal Yaw""","""Drone Yaw""","""Combined Yaw""",HCHO (ppm),CO2 (ppm),TVOC (ppb),NO2 (ppm),C2H5OH (ppm),VOC (ppm),CO (ppm),Temp (Celcius),Pressure (pa),Altitude (meter),wind_speed,wind_direction
695404.710030197,5912749.52217503,2022/12/22 10:03:44,"1",53.32782364,5.934483051,0.07,false,false,false,79.59,79.59,0.01,"406","0","149","300","267","146",11.63,"100413",91.83,  2.40 m/s,242°
695404.533893849,5912749.93934519,2022/12/22 10:03:45,"2",53.32782745,5.934480667,0.68,false,false,false,78.92,78.92,0.01,"402","0","148","299","266","146",11.59,"100410",91.83,  2.40 m/s,242°
695404.533893849,5912749.93934519,2022/12/22 10:03:46,"3",53.32782745,5.934480667,2.67,false,false,false,79.61,79.61,0.01,"406","0","149","300","266","146",11.59,"100381",100.22,  2.40 m/s,242°
695404.565650573,5912749.94065079,2022/12/22 10:03:47,"4",53.32782745,5.934481144,5.04,false,false,false,80.07,80.07,0.01,"409","1","148","299","266","145",11.55,"100356",100.22,  2.40 m/s,242°
695404.692610895,5912749.94587048,2022/12/22 10:03:47,"5",53.32782745,5.934483051,6.67,false,false,false,79.96,79.96,0.01,"403","0","147","300","266","145",11.53,"100343",100.22,  2.40 m/s,242°
695404.819637792,5912749.95109292,2022/12/22 10:03:47,"6",53.32782745,5.934484959,6.85,false,false,false,79.84,79.84,0.01,"400","0","146","298","265","144",11.55,"100337",100.22,  2.40 m/s,242°
695404.802172757,5912750.37590043,2022/12/22 10:03:50,"7",53.32783127,5.934484959,6.82,false,false,false,80.1,80.1,0.01,"400","0","146","299","264","145",11.55,"100334",100.22,  2.40 m/s,242°
695404.99264651,5912750.38373135,2022/12/22 10:03:51,"8",53.32783127,5.93448782,6.8,false,false,false,79.35,79.35,0.01,"400","0","145","299","264","144",11.54,"100332",100.22,  2.40 m/s,242°
695405.087850099,5912750.38764544,2022/12/22 10:03:52,"9",53.32783127,5.93448925,6.79,false,false,false,59.93,59.93,0.01,"407","1","143","297","263","144",11.49,"100323",100.22,  2.40 m/s,242°
695405.11960682,5912750.38895105,2022/12/22 10:03:53,"10",53.32783127,5.934489727,6.82,false,false,false,81.93,81.93,0.01,"400","0","142","299","263","144",11.42,"100333",100.22,  2.40 m/s,242°
695405.278323852,5912750.39547637,2022/12/22 10:03:54,"11",53.32783127,5.934492111,6.84,false,false,false,81.71,81.71,0.01,"400","0","141","298","263","144",11.45,"100332",100.22,  5.64 m/s,228°
695405.278323852,5912750.39547637,2022/12/22 10:03:55,"12",53.32783127,5.934492111,6.86,false,false,false,81.44,81.44,0.01,"403","0","140","299","263","144",11.47,"100334",100.22,  5.64 m/s,228°
695405.341837294,5912750.39808759,2022/12/22 10:03:56,"13",53.32783127,5.934493065,6.86,false,false,false,81.59,81.59,0.01,"403","0","140","299","262","143",11.48,"100337",100.22,  5.64 m/s,228°
695405.373594016,5912750.3993932,2022/12/22 10:03:56,"14",53.32783127,5.934493542,6.86,false,false,false,81.64,81.64,0.01,"411","1","139","299","261","143",11.49,"100333",100.22,  5.64 m/s,228°
695405.373594016,5912750.3993932,2022/12/22 10:03:58,"15",53.32783127,5.934493542,6.84,false,false,false,81.51,81.51,0.01,"403","0","138","299","260","143",11.5,"100330",100.22,  5.64 m/s,228°
695405.373594016,5912750.3993932,2022/12/22 10:03:59,"16",53.32783127,5.934493542,6.84,false,false,false,81.39,81.39,0.01,"400","0","137","300","261","143",11.45,"100332",100.22,  5.64 m/s,228°
695405.341837294,5912750.39808759,2022/12/22 10:04:00,"17",53.32783127,5.934493065,6.82,false,false,false,81.53,81.53,0.01,"403","0","137","300","260","143",11.45,"100332",100.22,  5.64 m/s,228°
695405.341837294,5912750.39808759,2022/12/22 10:04:01,"18",53.32783127,5.934493065,6.82,false,false,false,81.35,81.35,0.01,"400","0","136","299","259","143",11.44,"100333",100.22,  5.64 m/s,228°
695405.341837294,5912750.39808759,2022/12/22 10:04:02,"19",53.32783127,5.934493065,6.81,false,false,false,81.78,81.78,0.01,"406","0","136","299","259","142",11.44,"100332",100.22,  5.64 m/s,228°
695405.341837294,5912750.39808759,2022/12/22 10:04:03,"20",53.32783127,5.934493065,6.82,false,false,false,81.53,81.53,0.01,"403","0","136","300","259","142",11.42,"100330",100.22,  5.64 m/s,228°
695405.310080573,5912750.39678198,2022/12/22 10:04:04,"21",53.32783127,5.934492588,6.81,false,false,false,81.01,81.01,0.01,"405","0","135","300","258","143",11.41,"100330",100.22,  5.16 m/s,229°
695405.341837294,5912750.39808759,2022/12/22 10:04:04,"22",53.32783127,5.934493065,7.21,false,false,false,81.61,81.61,0.01,"408","1","134","300","258","142",11.41,"100326",100.22,  5.16 m/s,229°
695405.405350737,5912750.40069882,2022/12/22 10:04:04,"23",53.32783127,5.934494019,8.55,false,false,false,81.63,81.63,0.01,"411","1","134","299","258","142",11.37,"100317",100.22,  5.16 m/s,229°
695405.468797604,5912750.40330731,2022/12/22 10:04:07,"24",53.32783127,5.934494972,9.11,false,false,false,68.16,68.16,0.01,"408","1","133","300","257","143",11.33,"100304",100.22,  5.16 m/s,229°
695405.468797604,5912750.40330731,2022/12/22 10:04:08,"25",53.32783127,5.934494972,9.04,false,false,false,340.76,340.76,0.01,"410","1","133","300","257","142",11.23,"100282",108.61,  5.16 m/s,229°
695405.532311047,5912750.40591853,2022/12/22 10:04:09,"26",53.32783127,5.934495926,8.99,false,false,false,328.12,328.12,0.01,"407","1","133","300","257","143",11.17,"100282",108.61,  5.86 m/s,229°
695405.102187477,5912750.81264651,2022/12/22 10:04:10,"27",53.32783508,5.934489727,8.97,false,false,false,328.62,328.62,0.01,"407","1","132","301","257","143",11.16,"100284",108.61,  5.86 m/s,229°
695403.745151437,5912752.88225489,2022/12/22 10:04:11,"28",53.32785416,5.934470654,8.96,false,false,false,328.31,328.31,0.01,"407","1","133","300","257","143",11.09,"100282",108.61,  5.86 m/s,229°
695402.021486108,5912755.36008826,2022/12/22 10:04:12,"29",53.32787704,5.934446335,8.96,false,false,false,328.54,328.54,0.01,"407","1","133","300","256","143",10.97,"100278",108.61,  5.86 m/s,229°
695400.008906374,5912758.67709539,2022/12/22 10:04:13,"30",53.32790756,5.934418201,8.95,false,false,false,328.51,328.51,0.01,"410","1","133","300","256","143",10.87,"100279",108.61,  5.86 m/s,229°
695397.598030521,5912762.40214024,2022/12/22 10:04:14,"31",53.32794189,5.934384346,8.96,false,false,false,328.42,328.42,0.01,"401","0","132","300","255","143",10.75,"100277",108.61,  5.86 m/s,229°
695394.883951004,5912766.54024661,2022/12/22 10:04:15,"32",53.32798004,5.934346199,8.97,false,false,false,328.42,328.42,0.01,"400","0","132","300","255","143",10.64,"100278",108.61,  5.86 m/s,229°
695392.02549786,5912771.09683055,2022/12/22 10:04:16,"33",53.328022,5.934306145,8.98,false,false,false,327.97,327.97,0.01,"400","0","131","301","255","143",10.53,"100275",108.61,  5.86 m/s,229°
695389.152711338,5912775.22841512,2022/12/22 10:04:17,"34",53.32806015,5.934265614,8.97,false,false,false,328.53,328.53,0.01,"400","0","131","301","255","143",10.4,"100271",108.61,  5.86 m/s,229°
695386.421227728,5912779.79022154,2022/12/22 10:04:18,"35",53.32810211,5.934227467,8.96,false,false,false,328.43,328.43,0.01,"406","0","131","301","254","143",10.32,"100274",108.61,  5.86 m/s,229°
695383.738856528,5912783.92963666,2022/12/22 10:04:19,"36",53.32814026,5.934189796,8.97,false,false,false,328.59,328.59,0.01,"403","0","130","300","254","143",10.23,"100277",108.61,  5.86 m/s,229°
695381.024866384,5912788.06775323,2022/12/22 10:04:20,"37",53.32817841,5.93415165,8.97,false,false,false,328.41,328.41,0.01,"400","0","130","301","253","143",10.14,"100274",108.61,  5.86 m/s,229°
695378.437818983,5912792.20997548,2022/12/22 10:04:21,"38",53.32821655,5.93411541,8.98,false,false,false,327.44,327.44,0.01,"400","0","130","300","253","143",10.05,"100277",108.61,  5.86 m/s,229°
695377.144251144,5912794.28219916,2022/12/22 10:04:22,"39",53.32823563,5.93409729,8.94,false,false,false,327.19,327.19,0.01,"406","0","130","300","253","143",10.07,"100283",108.61,  5.86 m/s,229°
695377.225226814,5912793.86000244,2022/12/22 10:04:23,"40",53.32823181,5.934098244,8.93,false,false,false,257.23,257.23,0.01,"413","1","130","300","253","143",10.09,"100284",108.61,  5.86 m/s,229°
695377.736253502,5912793.03107262,2022/12/22 10:04:24,"41",53.32822418,5.934105396,8.93,false,false,false,252.35,252.35,0.01,"409","1","130","301","252","143",9.92,"100279",108.61,  5.23 m/s,220°
695377.214010979,5912792.58519296,2022/12/22 10:04:24,"42",53.32822037,5.93409729,8.92,false,false,false,252.78,252.78,0.01,"400","0","129","300","252","143",9.74,"100278",108.61,  5.23 m/s,220°
695374.899713163,5912791.64012144,2022/12/22 10:04:26,"43",53.32821274,5.934062004,8.91,false,false,false,253.03,253.03,0.01,"400","0","128","301","251","142",9.6,"100270",108.61,  5.23 m/s,220°
695371.840988372,5912790.23892489,2022/12/22 10:04:26,"44",53.32820129,5.934015274,8.88,false,false,false,253.01,253.01,0.01,"400","0","127","300","251","142",9.44,"100269",108.61,  5.23 m/s,220°
695368.129870431,5912789.23643873,2022/12/22 10:04:28,"45",53.32819366,5.933959007,8.84,false,false,false,253.06,253.06,0.01,"400","0","127","300","250","142",9.29,"100267",108.61,  5.23 m/s,220°
695363.960019777,5912787.79068805,2022/12/22 10:04:29,"46",53.32818222,5.933895588,8.81,false,false,false,252.94,252.94,0.01,"411","1","126","301","251","142",9.16,"100263",108.61,  5.23 m/s,220°
695359.345709295,5912786.32667218,2022/12/22 10:04:30,"47",53.32817078,5.933825493,8.77,false,false,false,252.86,252.86,0.01,"400","0","125","300","249","142",9.06,"100263",108.61,  5.23 m/s,220°
695354.431358696,5912784.42480321,2022/12/22 10:04:31,"48",53.32815552,5.933750629,8.74,false,false,false,252.92,252.92,0.01,"400","0","125","300","250","141",8.93,"100271",108.61,  5.23 m/s,220°
695349.499656421,5912782.9466377,2022/12/22 10:04:32,"49",53.32814407,5.933675766,8.71,false,false,false,252.43,252.43,0.01,"400","0","125","301","249","140",8.82,"100276",108.61,  5.23 m/s,220°
695344.712324953,5912781.04999992,2022/12/22 10:04:33,"50",53.32812881,5.93360281,8.66,false,false,false,252.51,252.51,0.01,"401","0","124","302","249","141",8.72,"100275",108.61,  5.23 m/s,220°
695339.907530497,5912779.57817468,2022/12/22 10:04:34,"51",53.32811737,5.933529854,8.63,false,false,false,253.22,253.22,0.01,"415","2","124","301","249","141",8.62,"100283",108.61,  5.23 m/s,220°
695335.070976814,5912778.10504922,2022/12/22 10:04:35,"52",53.32810593,5.933456421,8.58,false,false,false,253.77,253.77,0.01,"400","0","124","300","248","141",8.55,"100279",108.61,  5.23 m/s,220°
695330.202709579,5912776.62951157,2022/12/22 10:04:36,"53",53.32809448,5.933382511,8.53,false,false,false,254.63,254.63,0.01,"401","0","123","302","247","141",8.46,"100280",108.61,  5.23 m/s,220°
695325.397906988,5912775.1577012,2022/12/22 10:04:37,"54",53.32808304,5.933309555,8.48,false,false,false,254.73,254.73,0.01,"400","0","123","302","247","140",8.38,"100285",108.61,  5.23 m/s,220°
695320.656660501,5912773.68739379,2022/12/22 10:04:38,"55",53.32807159,5.933237553,8.42,false,false,false,255.56,255.56,0.01,"405","0","122","302","247","140",8.3,"100284",108.61,  5.23 m/s,220°
695315.820095961,5912772.21428819,2022/12/22 10:04:39,"56",53.32806015,5.93316412,8.37,false,false,false,255.91,255.91,0.01,"408","1","122","302","246","140",8.22,"100280",108.61,  4.85 m/s,220°
695311.06132075,5912771.16879542,2022/12/22 10:04:40,"57",53.32805252,5.933092117,8.31,false,false,false,256.7,256.7,0.01,"408","1","121","301","246","140",8.15,"100274",108.61,  4.85 m/s,220°
695306.320020968,5912769.69961456,2022/12/22 10:04:41,"58",53.32804108,5.933020115,8.25,false,false,false,256.65,256.65,0.01,"400","0","121","301","245","141",8.1,"100276",108.61,  4.85 m/s,220°
695302.386646585,5912768.68804847,2022/12/22 10:04:42,"59",53.32803345,5.93296051,8.24,false,false,false,255.21,255.21,0.01,"400","0","120","302","245","140",8.03,"100292",108.61,  4.85 m/s,220°
695299.645387403,5912767.29994575,2022/12/22 10:04:43,"60",53.328022,5.932918549,8.15,false,false,false,240.3,240.3,0.01,"405","0","120","301","244","140",7.99,"100294",108.61,  4.85 m/s,220°
695296.081717618,5912765.02922964,2022/12/22 10:04:44,"61",53.32800293,5.932863712,8.2,false,false,false,254.86,254.86,0.01,"409","1","119","302","245","141",7.96,"100287",108.61,  5.24 m/s,217°
695293.697662881,5912765.78120499,2022/12/22 10:04:45,"62",53.32801056,5.932828426,8.1,false,false,false,323.08,323.08,0.01,"416","2","119","303","244","141",7.92,"100306",100.22,  5.24 m/s,217°
695293.861401852,5912768.76215177,2022/12/22 10:04:46,"63",53.32803726,5.932832718,7.93,false,false,false,26.52,26.52,0.01,"413","1","119","301","244","141",7.96,"100317",100.22,  5.24 m/s,217°
695296.20437271,5912770.55829634,2022/12/22 10:04:47,"64",53.32805252,5.932868958,7.98,false,false,false,83.6,83.6,0.01,"418","2","119","303","244","141",8.01,"100328",100.22,  5.24 m/s,217°
695299.283694778,5912770.68482748,2022/12/22 10:04:47,"65",53.32805252,5.932915211,8.05,false,false,false,93.13,93.13,0.01,"426","3","119","302","243","140",8.06,"100327",100.22,  5.24 m/s,217°
695302.966191898,5912770.83614605,2022/12/22 10:04:49,"66",53.32805252,5.932970524,8.12,false,false,false,80.52,80.52,0.01,"433","5","119","303","243","141",8.13,"100329",100.22,  5.24 m/s,217°
695306.440759754,5912771.40444817,2022/12/22 10:04:49,"67",53.32805634,5.933022976,8.17,false,false,false,73.54,73.54,0.01,"436","5","118","303","243","141",8.16,"100324",100.22,  5.24 m/s,217°
695310.261450485,5912772.83579836,2022/12/22 10:04:51,"68",53.32806778,5.93308115,8.23,false,false,false,73.91,73.91,0.01,"439","5","119","303","243","141",8.18,"100325",100.22,  5.24 m/s,217°
695314.812273375,5912774.29715592,2022/12/22 10:04:52,"69",53.32807922,5.933150291,8.3,false,false,false,73.96,73.96,0.01,"452","7","119","303","243","141",8.25,"100327",100.22,  5.24 m/s,217°
695319.585343779,5912775.76876525,2022/12/22 10:04:53,"70",53.32809067,5.933222771,8.35,false,false,false,73.75,73.75,0.01,"448","7","119","303","243","141",8.26,"100325",100.22,  5.24 m/s,217°
695324.390147153,5912777.24056972,2022/12/22 10:04:54,"71",53.32810211,5.933295727,8.39,false,false,false,73.74,73.74,0.01,"446","7","119","303","243","141",8.26,"100320",100.22,  5.24 m/s,217°
695329.145732858,5912779.13588166,2022/12/22 10:04:55,"72",53.32811737,5.933368206,8.43,false,false,false,73.45,73.45,0.01,"448","7","120","303","242","142",8.26,"100323",100.22,  5.24 m/s,217°
695333.950530399,5912780.60769594,2022/12/22 10:04:56,"73",53.32812881,5.933441162,8.48,false,false,false,73.75,73.75,0.01,"452","7","120","303","242","141",8.27,"100324",100.22,  5.24 m/s,217°
695338.80137891,5912782.50693313,2022/12/22 10:04:57,"74",53.32814407,5.933515072,8.54,false,false,false,73.83,73.83,0,"459","8","120","303","242","141",8.33,"100323",100.22,  5.24 m/s,217°
695343.606124885,5912783.97986937,2022/12/22 10:04:58,"75",53.32815552,5.933588028,8.6,false,false,false,73.61,73.61,0,"459","8","119","303","242","141",8.37,"100320",100.22,  5.24 m/s,217°
695348.379157384,5912785.45039324,2022/12/22 10:04:59,"76",53.32816696,5.933660507,8.65,false,false,false,73.88,73.88,0,"456","8","119","303","242","141",8.4,"100319",100.22,  5.24 m/s,217°
695353.21565443,5912786.92464457,2022/12/22 10:05:00,"77",53.32817841,5.93373394,8.7,false,false,false,73.7,73.7,0,"456","8","118","302","242","142",8.44,"100319",100.22,  5.24 m/s,217°
695357.971266177,5912788.81887377,2022/12/22 10:05:01,"78",53.32819366,5.933806419,8.75,false,false,false,73.64,73.64,0,"456","8","118","303","241","141",8.5,"100321",100.22,  5.24 m/s,217°
695362.776067484,5912790.29183241,2022/12/22 10:05:02,"79",53.32820511,5.933879376,8.8,false,false,false,73.53,73.53,0,"463","9","118","303","240","142",8.53,"100318",100.22,  5.24 m/s,217°
695367.549088784,5912791.76237581,2022/12/22 10:05:03,"80",53.32821655,5.933951855,8.85,false,false,false,73.58,73.58,0,"470","10","118","303","241","142",8.57,"100316",100.22,  5.24 m/s,217°
695372.304645019,5912793.65773166,2022/12/22 10:05:04,"81",53.32823181,5.934024334,8.91,false,false,false,74.43,74.43,0,"459","8","117","302","241","142",8.61,"100317",100.22,  6.25 m/s,224°
695376.142717864,5912794.66544013,2022/12/22 10:05:05,"82",53.32823944,5.934082508,8.93,false,false,false,74.35,74.35,0,"463","9","118","303","240","141",8.64,"100317",100.22,  6.25 m/s,224°
695377.85384178,5912795.58571721,2022/12/22 10:05:05,"83",53.32824707,5.934108734,8.94,false,false,false,54.64,54.64,0,"459","8","117","301","239","141",8.64,"100308",100.22,  6.25 m/s,224°
695377.547559861,5912796.84747509,2022/12/22 10:05:07,"84",53.32825851,5.934104919,8.97,false,false,false,347.12,347.12,0,"456","8","117","303","240","142",8.65,"100290",108.61,  6.25 m/s,224°
695376.147620614,5912797.63986392,2022/12/22 10:05:08,"85",53.32826614,5.934084415,8.99,false,false,false,295.36,295.36,0,"466","10","118","303","240","142",8.67,"100287",108.61,  6.25 m/s,224°
695374.242902286,5912797.56156622,2022/12/22 10:05:09,"86",53.32826614,5.934055805,9,false,false,false,253.5,253.5,0,"448","7","118","303","240","141",8.56,"100291",108.61,  4.98 m/s,218°
695371.865160251,5912796.61388804,2022/12/22 10:05:10,"87",53.32825851,5.934019566,8.97,false,false,false,253.02,253.02,0,"446","7","117","302","239","141",8.5,"100287",108.61,  4.98 m/s,218°
695368.471432685,5912795.62556204,2022/12/22 10:05:11,"88",53.32825089,5.933968067,8.94,false,false,false,252.63,252.63,0,"436","5","117","302","238","141",8.43,"100285",108.61,  4.98 m/s,218°
695364.396836306,5912794.18261215,2022/12/22 10:05:12,"89",53.32823944,5.933906078,8.89,false,false,false,253.15,253.15,0,"436","5","116","303","239","141",8.35,"100279",108.61,  4.98 m/s,218°
695359.846045182,5912792.72120634,2022/12/22 10:05:13,"90",53.328228,5.933836937,8.83,false,false,false,253.1,253.1,0,"439","5","116","303","238","141",8.27,"100274",108.61,  4.98 m/s,218°
695355.0730687,5912791.24955864,2022/12/22 10:05:14,"91",53.32821655,5.933764458,8.76,false,false,false,253.08,253.08,0,"427","4","115","303","237","139",8.19,"100274",108.61,  4.98 m/s,218°
695350.222234862,5912789.35030449,2022/12/22 10:05:15,"92",53.32820129,5.933690548,8.72,false,false,false,252.69,252.69,0,"418","2","115","303","237","141",8.12,"100278",108.61,  4.98 m/s,218°
695345.353937454,5912787.87586301,2022/12/22 10:05:16,"93",53.32818985,5.933616638,8.66,false,false,false,252.94,252.94,0,"418","2","115","302","237","140",8.06,"100280",108.61,  4.98 m/s,218°
695340.503096809,5912785.97661895,2022/12/22 10:05:17,"94",53.32817459,5.933542728,8.61,false,false,false,252.9,252.9,0,"416","2","114","303","237","140",7.99,"100280",108.61,  4.98 m/s,218°
695335.73006293,5912784.50610302,2022/12/22 10:05:18,"95",53.32816315,5.933470249,8.55,false,false,false,253.06,253.06,0.01,"423","3","114","303","237","140",7.94,"100283",108.61,  4.98 m/s,218°
695330.95707207,5912783.03447989,2022/12/22 10:05:19,"96",53.3281517,5.93339777,8.51,false,false,false,252.79,252.79,0.01,"418","2","114","302","236","139",7.88,"100280",108.61,  4.98 m/s,218°
695326.201491018,5912781.13916603,2022/12/22 10:05:20,"97",53.32813644,5.933325291,8.47,false,false,false,252.81,252.81,0.01,"413","1","114","303","236","139",7.82,"100286",108.61,  4.98 m/s,218°
695321.396692138,5912779.66735962,2022/12/22 10:05:21,"98",53.328125,5.933252335,8.42,false,false,false,252.97,252.97,0.01,"413","1","114","303","235","139",7.77,"100284",108.61,  4.98 m/s,218°
695316.687093547,5912778.19947047,2022/12/22 10:05:22,"99",53.32811356,5.933180809,8.37,false,false,false,252.81,252.81,0.01,"413","1","113","303","236","140",7.73,"100287",108.61,  4.98 m/s,218°
695311.931502716,5912776.30417112,2022/12/22 10:05:23,"100",53.3280983,5.93310833,8.32,false,false,false,252.78,252.78,0.01,"413","1","113","303","235","140",7.69,"100286",108.61,  4.98 m/s,218°
695307.190187537,5912774.83387448,2022/12/22 10:05:24,"101",53.32808685,5.933036327,8.26,false,false,false,252.99,252.99,0.01,"418","2","113","303","234","140",7.64,"100287",108.61,  4.64 m/s,218°
695302.480647121,5912773.36600234,2022/12/22 10:05:25,"102",53.32807541,5.932964802,8.21,false,false,false,252.75,252.75,0.01,"408","1","113","303","234","139",7.59,"100289",108.61,  4.64 m/s,218°
695297.802839739,5912771.89832504,2022/12/22 10:05:26,"103",53.32806396,5.932893753,8.17,false,false,false,252.96,252.96,0.01,"409","1","113","304","234","139",7.56,"100288",108.61,  4.64 m/s,218°
695292.983677227,5912770.00154724,2022/12/22 10:05:27,"104",53.32804871,5.93282032,8.12,false,false,false,252.77,252.77,0.01,"409","1","113","304","234","139",7.53,"100289",108.61,  4.64 m/s,218°
695288.274174105,5912768.53257733,2022/12/22 10:05:28,"105",53.32803726,5.932748795,8.09,false,false,false,252.61,252.61,0.01,"413","1","113","304","233","139",7.5,"100292",108.61,  4.64 m/s,218°
695284.548677522,5912767.10515672,2022/12/22 10:05:28,"106",53.32802582,5.932692051,8.08,false,false,false,252.04,252.04,0.01,"426","3","112","304","234","139",7.47,"100298",108.61,  4.64 m/s,218°
695282.866177355,5912767.03602686,2022/12/22 10:05:28,"107",53.32802582,5.932666779,8.03,false,false,false,274.63,274.63,0.01,"416","2","112","304","233","140",7.45,"100299",108.61,  4.64 m/s,218°
695282.337690399,5912768.28865947,2022/12/22 10:05:28,"108",53.32803726,5.932659626,7.99,false,false,false,336.84,336.84,0.01,"416","2","112","303","233","140",7.47,"100302",100.22,  4.64 m/s,218°
695282.839383513,5912770.00914434,2022/12/22 10:05:28,"109",53.32805252,5.932668209,8.03,false,false,false,36.93,36.93,0.01,"418","2","112","303","233","139",7.55,"100313",100.22,  4.64 m/s,218°
695284.455329503,5912770.92547553,2022/12/22 10:05:33,"110",53.32806015,5.932693005,8.06,false,false,false,73.07,73.07,0.01,"426","3","113","304","233","140",7.59,"100327",100.22,  2.62 m/s,200°
695286.914067202,5912771.45091123,2022/12/22 10:05:34,"111",53.32806396,5.932730198,8.09,false,false,false,73.53,73.53,0.01,"446","7","113","303","233","140",7.64,"100325",100.22,  2.62 m/s,200°
695290.402983069,5912772.44420209,2022/12/22 10:05:35,"112",53.32807159,5.932783127,8.11,false,false,false,73.64,73.64,0.01,"439","5","113","303","233","140",7.66,"100321",100.22,  2.62 m/s,200°
695294.382347392,5912773.883173,2022/12/22 10:05:36,"113",53.32808304,5.932843685,8.16,false,false,false,73.76,73.76,0.01,"443","6","113","304","233","140",7.7,"100329",100.22,  2.62 m/s,200°
695298.679253986,5912775.33408152,2022/12/22 10:05:37,"114",53.32809448,5.932909012,8.2,false,false,false,73.95,73.95,0.01,"446","7","112","304","232","141",7.74,"100327",100.22,  2.62 m/s,200°
695303.420504158,5912776.8043669,2022/12/22 10:05:38,"115",53.32810593,5.932981014,8.26,false,false,false,73.59,73.59,0.01,"448","7","113","304","232","141",7.75,"100325",100.22,  2.62 m/s,200°
695308.352336481,5912778.28137483,2022/12/22 10:05:39,"116",53.32811737,5.933055878,8.31,false,false,false,73.76,73.76,0.01,"456","8","113","304","232","140",7.74,"100325",100.22,  2.62 m/s,200°
695313.203129402,5912780.18058288,2022/12/22 10:05:40,"117",53.32813263,5.933129787,8.36,false,false,false,73.41,73.41,0,"456","8","113","304","232","141",7.75,"100326",100.22,  2.62 m/s,200°
695318.007996323,5912781.6523837,2022/12/22 10:05:41,"118",53.32814407,5.933202744,8.4,false,false,false,73.52,73.52,0,"452","7","113","304","232","141",7.76,"100322",100.22,  2.62 m/s,200°
695322.87619467,5912783.12790616,2022/12/22 10:05:42,"119",53.32815552,5.933276653,8.45,false,false,false,73.84,73.84,0,"456","8","112","304","232","141",7.81,"100322",100.22,  2.62 m/s,200°
695327.631841341,5912785.02321946,2022/12/22 10:05:43,"120",53.32817078,5.933349133,8.5,false,false,false,74.09,74.09,0,"456","8","112","304","232","141",7.87,"100324",100.22,  2.62 m/s,200°
695332.404876663,5912786.49372721,2022/12/22 10:05:44,"121",53.32818222,5.933421612,8.56,false,false,false,73.56,73.56,0,"466","10","112","304","232","141",7.9,"100323",100.22,  5.13 m/s,224°
695337.177909301,5912787.96423982,2022/12/22 10:05:45,"122",53.32819366,5.933494091,8.61,false,false,false,73.75,73.75,0,"466","10","112","304","231","141",7.93,"100321",100.22,  5.13 m/s,224°
695341.823934322,5912789.43065132,2022/12/22 10:05:46,"123",53.32820511,5.933564663,8.66,false,false,false,73.45,73.45,0,"459","8","112","304","231","140",7.97,"100321",100.22,  5.13 m/s,224°
695346.643014433,5912791.3285916,2022/12/22 10:05:46,"124",53.32822037,5.933638096,8.71,false,false,false,73.71,73.71,0,"459","8","112","304","230","141",8.01,"100321",100.22,  5.13 m/s,224°
695351.257323028,5912792.79259517,2022/12/22 10:05:46,"125",53.32823181,5.933708191,8.77,false,false,false,73.91,73.91,0,"459","8","111","304","231","140",8.05,"100321",100.22,  5.13 m/s,224°
695355.966852582,5912794.26163121,2022/12/22 10:05:46,"126",53.32824326,5.933779717,8.82,false,false,false,73.75,73.75,0,"466","10","112","304","231","141",8.06,"100320",100.22,  5.13 m/s,224°
695360.658942976,5912796.15325273,2022/12/22 10:05:50,"127",53.32825851,5.933851242,8.86,false,false,false,73.63,73.63,0,"478","11","111","304","230","141",8.09,"100320",100.22,  5.67 m/s,218°
695365.431913028,5912797.62490619,2022/12/22 10:05:51,"128",53.32826996,5.933923721,8.91,false,false,false,73.64,73.64,0,"459","8","111","304","230","141",8.11,"100316",100.22,  5.67 m/s,218°
695370.07796712,5912799.09023365,2022/12/22 10:05:52,"129",53.3282814,5.933994293,8.97,false,false,false,73.96,73.96,0,"459","8","111","304","230","140",8.1,"100317",100.22,  5.67 m/s,218°
695373.993842411,5912800.52666424,2022/12/22 10:05:53,"130",53.32829285,5.934053898,8.99,false,false,false,74.25,74.25,0,"459","8","111","304","230","140",8.1,"100315",100.22,  5.67 m/s,218°
695375.722427202,5912801.02213301,2022/12/22 10:05:54,"131",53.32829666,5.934080124,8.98,false,false,false,54.35,54.35,0,"463","9","111","304","229","140",8.13,"100312",100.22,  6.38 m/s,224°
695375.384343968,5912802.28369765,2022/12/22 10:05:55,"132",53.32830811,5.934075832,9.03,false,false,false,346.69,346.69,0,"475","11","111","304","230","140",8.15,"100295",108.61,  6.38 m/s,224°
695374.079721428,5912803.07889125,2022/12/22 10:05:56,"133",53.32831573,5.934056759,9.06,false,false,false,293.85,293.85,0,"459","8","111","304","230","140",8.18,"100288",108.61,  6.38 m/s,224°
695372.301964183,5912803.00581319,2022/12/22 10:05:57,"134",53.32831573,5.934030056,9.07,false,false,false,253.49,253.49,0,"452","7","111","304","230","141",8.11,"100287",108.61,  6.38 m/s,224°
695370.001964962,5912802.48685692,2022/12/22 10:05:58,"135",53.32831192,5.933995247,9.03,false,false,false,253.4,253.4,0.01,"446","7","111","303","229","140",8.04,"100283",108.61,  6.38 m/s,224°
695366.816241579,5912801.08155674,2022/12/22 10:05:59,"136",53.32830048,5.93394661,8.99,false,false,false,253.21,253.21,0.01,"443","6","111","303","229","140",7.98,"100282",108.61,  6.38 m/s,224°
695363.041618739,5912800.07646365,2022/12/22 10:06:00,"137",53.32829285,5.933889389,8.95,false,false,false,252.65,252.65,0.01,"443","6","110","303","228","141",7.93,"100282",108.61,  6.38 m/s,224°
695358.808309573,5912798.62699454,2022/12/22 10:06:01,"138",53.3282814,5.933825016,8.91,false,false,false,252.8,252.8,0.01,"433","5","110","303","228","139",7.87,"100277",108.61,  6.38 m/s,224°
695354.25752146,5912797.16559401,2022/12/22 10:06:02,"139",53.32826996,5.933755875,8.85,false,false,false,253.09,253.09,0.01,"426","3","110","303","227","139",7.83,"100274",108.61,  6.38 m/s,224°
695349.406693612,5912795.26634055,2022/12/22 10:06:03,"140",53.3282547,5.933681965,8.8,false,false,false,252.77,252.77,0.01,"418","2","109","304","228","140",7.76,"100274",108.61,  6.38 m/s,224°
695344.538402234,5912793.79189977,2022/12/22 10:06:04,"141",53.32824326,5.933608055,8.76,false,false,false,252.51,252.51,0.01,"423","3","109","304","227","139",7.71,"100284",108.61,  6.38 m/s,224°
695339.733666686,5912792.31896233,2022/12/22 10:06:05,"142",53.32823181,5.933535099,8.69,false,false,false,252.89,252.89,0.01,"426","3","109","303","226","139",7.67,"100282",108.61,  6.38 m/s,224°
695334.978098201,5912790.42363938,2022/12/22 10:06:06,"143",53.32821655,5.93346262,8.64,false,false,false,252.77,252.77,0.01,"426","3","109","303","226","139",7.62,"100284",108.61,  6.38 m/s,224°
695330.141554661,5912788.9505187,2022/12/22 10:06:07,"144",53.32820511,5.933389187,8.59,false,false,false,252.72,252.72,0.01,"416","2","108","304","226","139",7.58,"100284",108.61,  6.38 m/s,224°
695325.336810564,5912787.47759603,2022/12/22 10:06:08,"145",53.32819366,5.933316231,8.54,false,false,false,252.8,252.8,0.01,"426","3","108","304","226","139",7.54,"100286",108.61,  6.38 m/s,224°
695320.644632922,5912785.58600716,2022/12/22 10:06:08,"146",53.32817841,5.933244705,8.49,false,false,false,252.75,252.75,0.01,"416","2","108","304","226","138",7.5,"100286",108.61,  6.38 m/s,224°
695315.776370043,5912784.11048419,2022/12/22 10:06:08,"147",53.32816696,5.933170795,8.42,false,false,false,252.99,252.99,0.01,"416","2","108","304","225","139",7.46,"100286",108.61,  6.38 m/s,224°
695311.066841183,5912782.64260328,2022/12/22 10:06:08,"148",53.32815552,5.93309927,8.38,false,false,false,252.9,252.9,0.01,"413","1","107","304","226","139",7.42,"100284",108.61,  6.38 m/s,224°
695306.247740085,5912780.74469958,2022/12/22 10:06:08,"149",53.32814026,5.933025837,8.33,false,false,false,252.68,252.68,0.01,"413","1","107","304","225","139",7.38,"100283",108.61,  6.38 m/s,224°
695301.633454122,5912779.27962822,2022/12/22 10:06:13,"150",53.32812881,5.932955742,8.27,false,false,false,253.1,253.1,0.01,"426","3","106","304","225","138",7.35,"100284",108.61,  4.44 m/s,221°
695296.796890793,5912777.80654196,2022/12/22 10:06:14,"151",53.32811737,5.932882309,8.21,false,false,false,253.11,253.11,0.01,"408","1","106","304","224","139",7.32,"100278",108.61,  4.80 m/s,216°
695292.150797353,5912776.34128711,2022/12/22 10:06:15,"152",53.32810593,5.932811737,8.17,false,false,false,253.18,253.18,0.01,"408","1","106","304","224","138",7.29,"100279",108.61,  4.80 m/s,216°
695287.31427433,5912774.86709856,2022/12/22 10:06:16,"153",53.32809448,5.932738304,8.12,false,false,false,253.13,253.13,0.01,"408","1","105","304","224","139",7.25,"100277",108.61,  4.80 m/s,216°
695283.049121048,5912773.4175052,2022/12/22 10:06:17,"154",53.32808304,5.932673454,8.11,false,false,false,252.05,252.05,0.01,"405","0","104","304","222","138",7.23,"100284",108.61,  4.80 m/s,216°
695280.766554363,5912772.47378493,2022/12/22 10:06:18,"155",53.32807541,5.932638645,8.06,false,false,false,259.37,259.37,0.01,"418","2","105","304","224","139",7.21,"100300",100.22,  4.80 m/s,216°
695280.001557541,5912773.29228933,2022/12/22 10:06:19,"156",53.32808304,5.932627678,8,false,false,false,325.64,325.64,0.01,"418","2","106","304","223","139",7.23,"100310",100.22,  5.79 m/s,219°
695280.185818536,5912774.99973162,2022/12/22 10:06:20,"157",53.3280983,5.932631493,8.01,false,false,false,15.42,15.42,0.01,"418","2","105","304","223","139",7.3,"100310",100.22,  5.79 m/s,219°
695281.657328559,5912776.33453845,2022/12/22 10:06:21,"158",53.32810974,5.932654381,8.05,false,false,false,71.83,71.83,0.01,"426","3","106","305","223","139",7.35,"100331",100.22,  5.79 m/s,219°
695283.798585822,5912776.84804225,2022/12/22 10:06:22,"159",53.32811356,5.932686806,8.09,false,false,false,73.26,73.26,0.01,"427","4","105","304","223","139",7.41,"100329",100.22,  5.79 m/s,219°
695287.128782103,5912777.83480951,2022/12/22 10:06:23,"160",53.32812119,5.932737351,8.12,false,false,false,73.48,73.48,0.01,"439","5","105","305","223","139",7.44,"100331",100.22,  5.79 m/s,219°
695291.030373776,5912778.84394344,2022/12/22 10:06:24,"161",53.32812881,5.932796478,8.16,false,false,false,73.49,73.49,0.01,"443","6","104","304","222","139",7.5,"100331",100.22,  5.79 m/s,219°
695295.454190319,5912780.30117786,2022/12/22 10:06:25,"162",53.32814026,5.932863712,8.23,false,false,false,73.53,73.53,0.01,"439","5","105","305","223","139",7.55,"100328",100.22,  5.79 m/s,219°
695300.27329548,5912782.19907051,2022/12/22 10:06:26,"163",53.32815552,5.932937145,8.28,false,false,false,73.88,73.88,0.01,"443","6","104","304","223","139",7.61,"100327",100.22,  5.79 m/s,219°
695305.205122817,5912783.67607529,2022/12/22 10:06:27,"164",53.32816696,5.933012009,8.34,false,false,false,73.72,73.72,0.01,"446","7","104","305","222","140",7.65,"100325",100.22,  5.79 m/s,219°
695310.041632258,5912785.15028236,2022/12/22 10:06:28,"165",53.32817841,5.933085442,8.4,false,false,false,73.65,73.65,0.01,"448","7","105","304","222","139",7.69,"100324",100.22,  5.79 m/s,219°
695314.797260232,5912787.04446796,2022/12/22 10:06:29,"166",53.32819366,5.933157921,8.46,false,false,false,73.64,73.64,0.01,"456","8","104","305","221","139",7.73,"100329",100.22,  5.79 m/s,219°
695319.506737993,5912788.51346476,2022/12/22 10:06:29,"167",53.32820511,5.933229446,8.52,false,false,false,73.8,73.8,0.01,"448","7","104","304","222","139",7.78,"100322",100.22,  5.79 m/s,219°
695324.27983827,5912789.98396713,2022/12/22 10:06:31,"168",53.32821655,5.933301926,8.58,false,false,false,73.86,73.86,0,"452","7","104","304","221","139",7.83,"100326",100.22,  5.79 m/s,219°
695329.130613501,5912791.88319186,2022/12/22 10:06:31,"169",53.32823181,5.933375835,8.65,false,false,false,73.83,73.83,0,"452","7","104","304","222","140",7.86,"100323",100.22,  5.79 m/s,219°
695333.77663655,5912793.34959553,2022/12/22 10:06:33,"170",53.32824326,5.933446407,8.71,false,false,false,73.9,73.9,0,"456","8","105","304","221","139",7.9,"100323",100.22,  5.79 m/s,219°
695338.454459105,5912794.81619692,2022/12/22 10:06:34,"171",53.3282547,5.933517456,8.78,false,false,false,73.71,73.71,0,"470","10","104","304","221","140",7.92,"100320",100.22,  5.48 m/s,220°
695343.195791841,5912796.28541338,2022/12/22 10:06:35,"172",53.32826614,5.933589459,8.84,false,false,false,73.71,73.71,0,"452","7","105","304","221","139",7.91,"100321",100.22,  5.48 m/s,220°
695348.01479771,5912798.1833525,2022/12/22 10:06:36,"173",53.3282814,5.933662891,8.89,false,false,false,73.75,73.75,0,"452","7","104","304","221","140",7.88,"100320",100.22,  5.48 m/s,220°
695352.851281525,5912799.65760377,2022/12/22 10:06:37,"174",53.32829285,5.933736324,8.94,false,false,false,73.68,73.68,0,"452","7","105","305","221","140",7.87,"100318",100.22,  5.48 m/s,220°
695357.624362151,5912801.1281401,2022/12/22 10:06:38,"175",53.32830429,5.933808804,9,false,false,false,73.71,73.71,0,"456","8","104","305","220","140",7.87,"100318",100.22,  5.48 m/s,220°
695362.397373518,5912802.59867856,2022/12/22 10:06:39,"176",53.32831573,5.933881283,9.05,false,false,false,73.99,73.99,0.01,"466","10","105","304","220","140",7.89,"100317",100.22,  4.53 m/s,217°
695367.184676571,5912804.49533484,2022/12/22 10:06:40,"177",53.32833099,5.933954239,9.11,false,false,false,73.77,73.77,0.01,"459","8","104","305","220","140",7.9,"100319",100.22,  4.53 m/s,217°
695371.44973462,5912805.94611698,2022/12/22 10:06:41,"178",53.32834244,5.934019089,9.14,false,false,false,74.3,74.3,0.01,"463","9","105","305","220","139",7.9,"100316",100.22,  4.53 m/s,217°
695373.827471879,5912806.89379507,2022/12/22 10:06:42,"179",53.32835007,5.934055328,9.14,false,false,false,67.82,67.82,0.01,"463","9","105","304","220","140",7.94,"100313",100.22,  4.53 m/s,217°
695373.824348736,5912807.7436036,2022/12/22 10:06:43,"180",53.3283577,5.934055805,9.21,false,false,false,357.31,357.31,0.01,"459","8","105","305","220","140",7.96,"100295",108.61,  4.53 m/s,217°
695372.660980443,5912808.97012945,2022/12/22 10:06:44,"181",53.32836914,5.934039116,9.26,false,false,false,312.98,312.98,0.01,"466","10","105","305","220","140",7.99,"100291",108.61,  4.74 m/s,216°
695370.756266689,5912808.89183306,2022/12/22 10:06:45,"182",53.32836914,5.934010506,9.28,false,false,false,255.25,255.25,0.01,"456","8","105","305","220","140",7.97,"100288",108.61,  4.74 m/s,216°
695368.678431399,5912808.38200963,2022/12/22 10:06:46,"183",53.32836533,5.933979034,9.25,false,false,false,252.9,252.9,0.01,"446","7","105","305","219","139",7.88,"100292",108.61,  4.74 m/s,216°
695365.492757513,5912806.97559817,2022/12/22 10:06:47,"184",53.32835388,5.933930397,9.22,false,false,false,252.91,252.91,0.01,"439","5","105","304","219","139",7.84,"100281",108.61,  4.74 m/s,216°
695361.654693143,5912805.96789811,2022/12/22 10:06:47,"185",53.32834625,5.933872223,9.17,false,false,false,253.02,253.02,0.01,"436","5","105","305","218","139",7.79,"100279",108.61,  4.74 m/s,216°
695357.262628153,5912804.51301842,2022/12/22 10:06:47,"186",53.32833481,5.933805466,9.1,false,false,false,253.01,253.01,0.01,"439","5","105","305","219","139",7.74,"100277",108.61,  4.74 m/s,216°
695352.584865727,5912803.04528611,2022/12/22 10:06:47,"187",53.32832336,5.933734417,9.04,false,false,false,252.77,252.77,0.01,"436","5","104","305","219","139",7.7,"100279",108.61,  4.74 m/s,216°
695347.670551667,5912801.14453855,2022/12/22 10:06:47,"188",53.32830811,5.933659554,8.98,false,false,false,252.68,252.68,0.01,"423","3","105","305","219","139",7.65,"100276",108.61,  4.74 m/s,216°
695342.738798995,5912799.66637694,2022/12/22 10:06:47,"189",53.32829666,5.93358469,8.92,false,false,false,252.45,252.45,0.01,"423","3","104","305","218","139",7.59,"100283",108.61,  4.74 m/s,216°
695338.014995537,5912797.77235595,2022/12/22 10:06:53,"190",53.3282814,5.933512688,8.85,false,false,false,252.99,252.99,0.01,"423","3","104","305","218","138",7.55,"100279",108.61,  4.74 m/s,216°
695333.273663061,5912796.30314466,2022/12/22 10:06:54,"191",53.32826996,5.933440685,8.8,false,false,false,252.96,252.96,0.01,"423","3","103","304","217","138",7.51,"100278",108.61,  4.74 m/s,216°
695328.500683784,5912794.83152372,2022/12/22 10:06:55,"192",53.32825851,5.933368206,8.74,false,false,false,252.95,252.95,0.01,"423","3","103","302","217","138",7.46,"100282",108.61,  4.74 m/s,216°
695323.745068462,5912792.93732411,2022/12/22 10:06:56,"193",53.32824326,5.933295727,8.66,false,false,false,252.95,252.95,0.01,"416","2","102","304","217","138",7.43,"100277",108.61,  4.74 m/s,216°
695318.908570513,5912791.46310281,2022/12/22 10:06:57,"194",53.32823181,5.933222294,8.59,false,false,false,253.15,253.15,0.01,"409","1","102","305","216","139",7.39,"100278",108.61,  4.74 m/s,216°
695314.072024141,5912789.98999855,2022/12/22 10:06:58,"195",53.32822037,5.933148861,8.53,false,false,false,253.07,253.07,0.01,"413","1","101","304","216","139",7.35,"100276",108.61,  4.74 m/s,216°
695309.394236432,5912788.52230938,2022/12/22 10:06:59,"196",53.32820892,5.933077812,8.46,false,false,false,253.13,253.13,0.01,"409","1","101","305","217","138",7.32,"100278",108.61,  5.21 m/s,217°
695304.543384497,5912786.6231023,2022/12/22 10:07:00,"197",53.32819366,5.933003902,8.39,false,false,false,253.09,253.09,0.01,"423","3","101","304","217","138",7.3,"100280",108.61,  5.21 m/s,217°
695299.738586033,5912785.15131779,2022/12/22 10:07:01,"198",53.32818222,5.932930946,8.35,false,false,false,252.89,252.89,0.01,"408","1","101","305","215","138",7.27,"100281",108.61,  5.21 m/s,217°
695294.9194838,5912783.25342561,2022/12/22 10:07:02,"199",53.32816696,5.932857513,8.29,false,false,false,252.62,252.62,0.01,"408","1","101","304","215","138",7.24,"100292",108.61,  5.21 m/s,217°
695290.146435978,5912781.78295582,2022/12/22 10:07:03,"200",53.32815552,5.932785034,8.23,false,false,false,252.86,252.86,0.01,"408","1","100","305","215","138",7.22,"100288",108.61,  5.21 m/s,217°
695285.405187669,5912780.31268364,2022/12/22 10:07:04,"201",53.32814407,5.932713032,8.17,false,false,false,252.85,252.85,0.01,"409","1","100","304","215","138",7.2,"100290",108.61,  4.33 m/s,214°
695280.981322972,5912778.85657069,2022/12/22 10:07:05,"202",53.32813263,5.932645798,8.13,false,false,false,252.32,252.32,0.01,"418","2","100","305","215","138",7.17,"100295",108.61,  4.33 m/s,214°
695278.508286122,5912777.90502548,2022/12/22 10:07:06,"203",53.328125,5.932608128,8.08,false,false,false,255.24,255.24,0.01,"409","1","100","304","215","139",7.15,"100298",108.61,  4.33 m/s,214°
695277.648020944,5912778.71961593,2022/12/22 10:07:07,"204",53.32813263,5.93259573,8,false,false,false,319.19,319.19,0.01,"413","1","100","305","215","139",7.15,"100314",100.22,  4.33 m/s,214°
695277.800525861,5912780.42575337,2022/12/22 10:07:08,"205",53.32814789,5.932599068,7.97,false,false,false,6.15,6.15,0.01,"416","2","101","305","215","138",7.23,"100314",100.22,  4.33 m/s,214°
695279.240278178,5912781.75925471,2022/12/22 10:07:09,"206",53.32815933,5.932621479,8.02,false,false,false,70.8,70.8,0.01,"423","3","101","305","215","139",7.3,"100330",100.22,  5.56 m/s,217°
695281.254573753,5912782.26754106,2022/12/22 10:07:10,"207",53.32816315,5.932651997,8.05,false,false,false,73.3,73.3,0.01,"443","6","101","305","215","139",7.35,"100327",100.22,  5.56 m/s,217°
695284.457740612,5912783.24908738,2022/12/22 10:07:11,"208",53.32817078,5.932700634,8.1,false,false,false,73.56,73.56,0.01,"443","6","102","305","215","139",7.38,"100327",100.22,  5.56 m/s,217°
695288.295836091,5912784.25672434,2022/12/22 10:07:11,"209",53.32817841,5.932758808,8.16,false,false,false,73.72,73.72,0.01,"439","5","101","305","214","138",7.43,"100328",100.22,  5.56 m/s,217°
695292.592734512,5912785.70762754,2022/12/22 10:07:11,"210",53.32818985,5.932824135,8.23,false,false,false,73.47,73.47,0.01,"443","6","102","305","214","139",7.48,"100328",100.22,  5.56 m/s,217°
695297.348322026,5912787.60290761,2022/12/22 10:07:14,"211",53.32820511,5.932896614,8.3,false,false,false,73.64,73.64,0.01,"446","7","101","305","215","139",7.49,"100329",100.22,  5.56 m/s,217°
695302.280144315,5912789.07990946,2022/12/22 10:07:15,"212",53.32821655,5.932971478,8.38,false,false,false,73.69,73.69,0.01,"448","7","101","305","214","139",7.49,"100325",100.22,  5.56 m/s,217°
695307.148338679,5912790.5554159,2022/12/22 10:07:16,"213",53.328228,5.933045387,8.45,false,false,false,73.72,73.72,0.01,"452","7","101","305","214","140",7.5,"100323",100.22,  5.56 m/s,217°
695312.062698436,5912792.45723575,2022/12/22 10:07:17,"214",53.32824326,5.933120251,8.52,false,false,false,73.78,73.78,0.01,"446","7","101","305","214","139",7.54,"100325",100.22,  5.56 m/s,217°
695316.930999134,5912793.93164303,2022/12/22 10:07:18,"215",53.3282547,5.933194161,8.59,false,false,false,73.93,73.93,0.01,"448","7","101","305","214","139",7.57,"100320",100.22,  5.56 m/s,217°
695321.608758645,5912795.39822501,2022/12/22 10:07:19,"216",53.32826614,5.933265209,8.67,false,false,false,73.78,73.78,0.01,"448","7","101","305","213","139",7.61,"100320",100.22,  5.56 m/s,217°
695326.459595609,5912797.29744986,2022/12/22 10:07:20,"217",53.3282814,5.933339119,8.73,false,false,false,73.87,73.87,0.01,"456","8","101","305","214","139",7.64,"100321",100.22,  5.56 m/s,217°
695331.200816451,5912798.76776367,2022/12/22 10:07:21,"218",53.32829285,5.933411121,8.81,false,false,false,73.85,73.85,0.01,"466","10","101","305","213","139",7.63,"100319",100.22,  5.56 m/s,217°
695335.973903283,5912800.2382781,2022/12/22 10:07:22,"219",53.32830429,5.933483601,8.87,false,false,false,73.61,73.61,0.01,"452","7","100","305","213","139",7.64,"100317",100.22,  5.56 m/s,217°
695340.715164487,5912801.70748947,2022/12/22 10:07:23,"220",53.32831573,5.933555603,8.95,false,false,false,73.46,73.46,0.01,"452","7","101","305","213","139",7.64,"100321",100.22,  5.56 m/s,217°
695345.502475697,5912803.6041237,2022/12/22 10:07:24,"221",53.32833099,5.933628559,9.01,false,false,false,73.85,73.85,0.01,"452","7","100","305","213","140",7.65,"100317",100.22,  4.66 m/s,214°
695350.307198107,5912805.07706728,2022/12/22 10:07:25,"222",53.32834244,5.933701515,9.08,false,false,false,73.76,73.76,0.01,"459","8","101","305","213","140",7.68,"100318",100.22,  4.66 m/s,214°
695355.080207182,5912806.54759844,2022/12/22 10:07:26,"223",53.32835388,5.933773994,9.15,false,false,false,73.7,73.7,0.01,"470","10","101","305","213","139",7.71,"100313",100.22,  4.66 m/s,214°
695359.835818795,5912808.44294481,2022/12/22 10:07:27,"224",53.32836914,5.933846474,9.22,false,false,false,73.77,73.77,0.01,"456","8","101","305","212","140",7.73,"100313",100.22,  4.66 m/s,214°
695364.577065751,5912809.91218033,2022/12/22 10:07:28,"225",53.32838058,5.933918476,9.31,false,false,false,73.73,73.73,0.01,"463","9","101","305","213","140",7.71,"100314",100.22,  4.66 m/s,214°
695368.937388353,5912811.36687636,2022/12/22 10:07:29,"226",53.32839203,5.933984757,9.37,false,false,false,74.58,74.58,0.01,"463","9","101","305","212","140",7.71,"100313",100.22,  5.04 m/s,217°
695371.727821997,5912812.33151792,2022/12/22 10:07:29,"227",53.32839966,5.934027195,9.37,false,false,false,72.1,72.1,0.01,"459","8","101","305","212","140",7.73,"100313",100.22,  5.04 m/s,217°
695372.042128946,5912813.19437495,2022/12/22 10:07:29,"228",53.32840729,5.93403244,9.42,false,false,false,11.77,11.77,0.01,"456","8","101","305","212","140",7.76,"100296",108.61,  5.04 m/s,217°
695370.97396461,5912814.42481465,2022/12/22 10:07:32,"229",53.32841873,5.934017181,9.47,false,false,false,326.12,326.12,0.01,"456","8","101","305","212","140",7.79,"100291",108.61,  5.04 m/s,217°
695368.988344849,5912814.76871846,2022/12/22 10:07:33,"230",53.32842255,5.933987618,9.48,false,false,false,258.59,258.59,0.01,"459","8","102","305","212","139",7.79,"100284",108.61,  5.04 m/s,217°
695367.086688946,5912813.84061223,2022/12/22 10:07:34,"231",53.32841492,5.93395853,9.44,false,false,false,253.05,253.05,0.01,"456","8","102","304","211","139",7.74,"100284",108.61,  5.04 m/s,217°
695364.042271646,5912812.86553336,2022/12/22 10:07:35,"232",53.32840729,5.933912277,9.4,false,false,false,253.12,253.12,0.01,"443","6","101","305","212","139",7.7,"100278",108.61,  5.04 m/s,217°
695360.39468316,5912811.86566354,2022/12/22 10:07:36,"233",53.32839966,5.933856964,9.35,false,false,false,253.02,253.02,0.01,"436","5","101","304","211","138",7.66,"100272",108.61,  5.04 m/s,217°
695356.161384176,5912810.41619655,2022/12/22 10:07:37,"234",53.32838821,5.933792591,9.28,false,false,false,253.05,253.05,0.01,"427","4","100","305","210","139",7.62,"100272",108.61,  5.04 m/s,217°
695351.515338072,5912808.95088252,2022/12/22 10:07:38,"235",53.32837677,5.933722019,9.22,false,false,false,253.28,253.28,0.01,"426","3","100","304","210","138",7.57,"100271",108.61,  5.04 m/s,217°
695346.537563026,5912807.0464134,2022/12/22 10:07:39,"236",53.32836151,5.933646202,9.17,false,false,false,252.68,252.68,0.01,"433","5","100","304","211","138",7.53,"100273",108.61,  5.04 m/s,217°
695341.542324554,5912805.56675724,2022/12/22 10:07:40,"237",53.32835007,5.933570385,9.1,false,false,false,252.53,252.53,0.01,"418","2","98","304","210","139",7.49,"100275",108.61,  5.04 m/s,217°
695336.818526785,5912803.6727373,2022/12/22 10:07:41,"238",53.32833481,5.933498383,9.01,false,false,false,252.93,252.93,0.01,"418","2","99","305","210","138",7.45,"100270",108.61,  5.04 m/s,217°
695332.013799621,5912802.19980748,2022/12/22 10:07:42,"239",53.32832336,5.933425427,8.92,false,false,false,252.85,252.85,0.01,"416","2","99","304","210","138",7.41,"100274",108.61,  5.04 m/s,217°
695327.272470222,5912800.7306021,2022/12/22 10:07:43,"240",53.32831192,5.933353424,8.83,false,false,false,252.9,252.9,0.01,"413","1","98","304","209","138",7.37,"100276",108.61,  5.04 m/s,217°
695322.516906317,5912798.83529152,2022/12/22 10:07:44,"241",53.32829666,5.933280945,8.75,false,false,false,253.19,253.19,0.01,"426","3","98","304","209","138",7.33,"100275",108.61,  5.04 m/s,217°
695317.743881326,5912797.36479346,2022/12/22 10:07:45,"242",53.32828522,5.933208466,8.68,false,false,false,253.09,253.09,0.01,"409","1","97","305","209","138",7.31,"100269",108.61,  5.04 m/s,217°
695313.002589178,5912795.89449046,2022/12/22 10:07:46,"243",53.32827377,5.933136463,8.6,false,false,false,253.02,253.02,0.01,"409","1","97","305","209","138",7.27,"100271",108.61,  5.04 m/s,217°
695308.197802415,5912794.42269712,2022/12/22 10:07:47,"244",53.32826233,5.933063507,8.54,false,false,false,252.71,252.71,0.01,"409","1","96","304","208","138",7.24,"100288",108.61,  5.04 m/s,217°
695303.410469176,5912792.526101,2022/12/22 10:07:48,"245",53.32824707,5.932990551,8.44,false,false,false,253.03,253.03,0.01,"408","1","97","305","208","137",7.22,"100285",108.61,  5.04 m/s,217°
695298.637433004,5912791.0556224,2022/12/22 10:07:49,"246",53.32823563,5.932918072,8.35,false,false,false,253.1,253.1,0.01,"416","2","97","305","208","138",7.19,"100286",108.61,  5.26 m/s,216°
695293.864439842,5912789.5840366,2022/12/22 10:07:50,"247",53.32822418,5.932845593,8.28,false,false,false,253.09,253.09,0.01,"409","1","96","306","208","138",7.16,"100287",108.61,  5.26 m/s,216°
695289.077030194,5912787.68745242,2022/12/22 10:07:51,"248",53.32820892,5.932772636,8.21,false,false,false,252.91,252.91,0.01,"409","1","96","305","208","138",7.14,"100285",108.61,  5.26 m/s,216°
695284.272229061,5912786.21568362,2022/12/22 10:07:52,"249",53.32819748,5.93269968,8.13,false,false,false,252.89,252.89,0.01,"408","1","96","306","208","138",7.12,"100286",108.61,  5.26 m/s,216°
695279.626141015,5912784.75044089,2022/12/22 10:07:53,"250",53.32818604,5.932629108,8.08,false,false,false,252.36,252.36,0.01,"409","1","96","305","207","137",7.11,"100291",108.61,  5.26 m/s,216°
695276.50394114,5912783.34669959,2022/12/22 10:07:54,"251",53.32817459,5.932581425,8.05,false,false,false,251.76,251.76,0.01,"418","2","96","306","208","138",7.11,"100304",100.22,  3.26 m/s,199°
695275.343653582,5912783.72455267,2022/12/22 10:07:54,"252",53.32817841,5.932564259,7.96,false,false,false,297.37,297.37,0.01,"423","3","97","305","208","138",7.11,"100309",100.22,  3.26 m/s,199°
695275.242219495,5912785.41914271,2022/12/22 10:07:54,"253",53.32819366,5.932563782,7.9,false,false,false,347.7,347.7,0.01,"423","3","97","305","207","138",7.17,"100314",100.22,  3.26 m/s,199°
695276.505801311,5912787.17093001,2022/12/22 10:07:57,"254",53.32820892,5.932583809,7.94,false,false,false,62.02,62.02,0.01,"423","3","97","306","206","138",7.24,"100330",100.22,  3.26 m/s,199°
695278.393068947,5912787.67399617,2022/12/22 10:07:58,"255",53.32821274,5.932612419,7.99,false,false,false,73.83,73.83,0.01,"433","5","97","306","207","138",7.28,"100330",100.22,  3.26 m/s,199°
695281.24704476,5912788.64119342,2022/12/22 10:07:59,"256",53.32822037,5.932655811,8.05,false,false,false,73.63,73.63,0.01,"439","5","97","306","206","138",7.32,"100331",100.22,  3.26 m/s,199°
695284.894664225,5912789.64100173,2022/12/22 10:08:00,"257",53.328228,5.932711124,8.12,false,false,false,73.61,73.61,0.01,"448","7","97","306","207","138",7.38,"100330",100.22,  3.26 m/s,199°
695288.969330017,5912791.0827708,2022/12/22 10:08:01,"258",53.32823944,5.932773113,8.19,false,false,false,73.68,73.68,0.01,"443","6","97","306","207","138",7.43,"100329",100.22,  3.26 m/s,199°
695293.615363711,5912792.54913494,2022/12/22 10:08:02,"259",53.32825089,5.932843685,8.28,false,false,false,73.55,73.55,0.01,"446","7","97","305","207","139",7.47,"100327",100.22,  3.26 m/s,199°
695298.451912394,5912794.0222183,2022/12/22 10:08:03,"260",53.32826233,5.932917118,8.38,false,false,false,73.83,73.83,0.01,"448","7","96","306","207","138",7.46,"100325",100.22,  3.26 m/s,199°
695303.302758525,5912795.9214193,2022/12/22 10:08:04,"261",53.32827759,5.932991028,8.47,false,false,false,73.88,73.88,0.01,"448","7","97","305","207","139",7.47,"100327",100.22,  3.26 m/s,199°
695308.139301318,5912797.39451267,2022/12/22 10:08:05,"262",53.32828903,5.933064461,8.56,false,false,false,73.6,73.6,0.01,"463","9","98","306","207","138",7.47,"100319",100.22,  3.26 m/s,199°
695312.880526541,5912798.86480808,2022/12/22 10:08:06,"263",53.32830048,5.933136463,8.64,false,false,false,73.43,73.43,0.01,"448","7","97","305","207","139",7.47,"100323",100.22,  3.26 m/s,199°
695317.699652071,5912800.76160695,2022/12/22 10:08:07,"264",53.32831573,5.933209896,8.72,false,false,false,73.66,73.66,0.01,"456","8","97","306","207","139",7.49,"100322",100.22,  3.26 m/s,199°
695322.536140588,5912802.23582724,2022/12/22 10:08:08,"265",53.32832718,5.933283329,8.8,false,false,false,73.48,73.48,0.01,"456","8","98","306","207","139",7.51,"100321",100.22,  3.26 m/s,199°
695327.340915732,5912803.70763536,2022/12/22 10:08:09,"266",53.32833862,5.933356285,8.89,false,false,false,73.73,73.73,0.01,"456","8","97","306","207","139",7.54,"100322",100.22,  4.59 m/s,213°
695332.14564247,5912805.18056047,2022/12/22 10:08:10,"267",53.32835007,5.933429241,8.97,false,false,false,73.89,73.89,0.01,"470","10","97","305","206","139",7.56,"100319",100.22,  4.59 m/s,213°
695336.901196574,5912807.07588093,2022/12/22 10:08:11,"268",53.32836533,5.93350172,9.06,false,false,false,73.61,73.61,0.01,"463","9","97","305","207","139",7.58,"100319",100.22,  4.59 m/s,213°
695341.579004465,5912808.54248574,2022/12/22 10:08:11,"269",53.32837677,5.933572769,9.15,false,false,false,73.61,73.61,0.01,"459","8","97","305","206","139",7.59,"100320",100.22,  4.59 m/s,213°
695346.352012092,5912810.01300816,2022/12/22 10:08:11,"270",53.32838821,5.933645248,9.22,false,false,false,73.79,73.79,0.01,"459","8","97","305","206","139",7.62,"100316",100.22,  4.59 m/s,213°
695351.171069046,5912811.91095359,2022/12/22 10:08:14,"271",53.32840347,5.933718681,9.3,false,false,false,73.89,73.89,0.01,"463","9","97","305","206","139",7.67,"100315",100.22,  4.77 m/s,215°
695356.071050315,5912813.38781901,2022/12/22 10:08:15,"272",53.32841492,5.933793068,9.38,false,false,false,73.62,73.62,0.01,"470","10","97","305","205","139",7.68,"100314",100.22,  4.77 m/s,215°
695360.826587919,5912815.28316381,2022/12/22 10:08:16,"273",53.32843018,5.933865547,9.48,false,false,false,73.92,73.92,0.01,"466","10","96","305","206","139",7.73,"100315",100.22,  4.77 m/s,215°
695365.536137918,5912816.75109787,2022/12/22 10:08:17,"274",53.32844162,5.933937073,9.56,false,false,false,74.26,74.26,0.01,"466","10","97","305","205","139",7.76,"100314",100.22,  4.77 m/s,215°
695369.088452938,5912817.74705561,2022/12/22 10:08:18,"275",53.32844925,5.933990955,9.6,false,false,false,74.27,74.27,0.01,"463","9","96","305","204","139",7.8,"100315",100.22,  4.77 m/s,215°
695370.291668874,5912818.64645231,2022/12/22 10:08:19,"276",53.32845688,5.934009552,9.63,false,false,false,39.16,39.16,0.01,"463","9","96","304","205","139",7.82,"100302",100.22,  5.09 m/s,213°
695369.636204206,5912819.89385686,2022/12/22 10:08:20,"277",53.32846832,5.934000492,9.71,false,false,false,341.51,341.51,0.01,"463","9","96","305","205","139",7.86,"100294",108.61,  5.09 m/s,213°
695367.872747403,5912820.24689331,2022/12/22 10:08:21,"278",53.32847214,5.933974266,9.73,false,false,false,277.31,277.31,0.01,"463","9","96","305","205","139",7.88,"100282",108.61,  5.09 m/s,213°
695365.872769466,5912820.16468265,2022/12/22 10:08:22,"279",53.32847214,5.933944225,9.71,false,false,false,253.15,253.15,0.01,"448","7","97","305","205","139",7.81,"100285",108.61,  5.09 m/s,213°
695363.082339605,5912819.20004444,2022/12/22 10:08:23,"280",53.32846451,5.933901787,9.65,false,false,false,253.04,253.04,0.01,"443","6","96","305","205","139",7.76,"100280",108.61,  5.09 m/s,213°
695359.198233783,5912817.76492784,2022/12/22 10:08:24,"281",53.32845306,5.933842659,9.58,false,false,false,253.25,253.25,0.01,"439","5","97","305","204","138",7.72,"100274",108.61,  5.09 m/s,213°
695354.552195815,5912816.29961064,2022/12/22 10:08:25,"282",53.32844162,5.933772087,9.48,false,false,false,253.32,253.32,0.01,"433","5","96","305","204","138",7.67,"100271",108.61,  5.09 m/s,213°
695349.510917183,5912814.39252764,2022/12/22 10:08:26,"283",53.32842636,5.933695316,9.4,false,false,false,252.72,252.72,0.01,"436","5","96","305","204","137",7.61,"100270",108.61,  5.09 m/s,213°
695344.45224135,5912812.91026045,2022/12/22 10:08:27,"284",53.32841492,5.933618546,9.31,false,false,false,252.59,252.59,0.01,"423","3","95","305","203","138",7.57,"100277",108.61,  5.09 m/s,213°
695339.601426903,5912811.01101669,2022/12/22 10:08:28,"285",53.32839966,5.933544636,9.22,false,false,false,252.68,252.68,0.01,"418","2","95","304","203","138",7.52,"100282",108.61,  5.09 m/s,213°
695334.860154103,5912809.54069142,2022/12/22 10:08:29,"286",53.32838821,5.933472633,9.14,false,false,false,252.65,252.65,0.01,"416","2","95","305","202","138",7.47,"100279",108.61,  5.09 m/s,213°
695330.118899506,5912808.07148574,2022/12/22 10:08:30,"287",53.32837677,5.933400631,9.04,false,false,false,252.93,252.93,0.01,"418","2","95","304","202","137",7.43,"100280",108.61,  5.09 m/s,213°
695325.490302944,5912806.18138971,2022/12/22 10:08:31,"288",53.32836151,5.933330059,8.94,false,false,false,252.96,252.96,0.01,"427","4","94","305","202","137",7.39,"100284",108.61,  5.09 m/s,213°
695320.653773575,5912804.70827836,2022/12/22 10:08:32,"289",53.32835007,5.933256626,8.85,false,false,false,252.85,252.85,0.01,"416","2","94","305","202","137",7.36,"100282",108.61,  5.09 m/s,213°
695315.912556248,5912803.237975,2022/12/22 10:08:33,"290",53.32833862,5.933184624,8.75,false,false,false,252.96,252.96,0.01,"413","1","94","305","202","137",7.32,"100281",108.61,  5.09 m/s,213°
695311.188680952,5912801.34397807,2022/12/22 10:08:34,"291",53.32832336,5.933112621,8.65,false,false,false,253.03,253.03,0.01,"413","1","94","305","201","137",7.29,"100288",108.61,  4.69 m/s,217°
695306.415655785,5912799.87349139,2022/12/22 10:08:34,"292",53.32831192,5.933040142,8.57,false,false,false,252.73,252.73,0.01,"413","1","94","305","202","136",7.26,"100286",108.61,  4.69 m/s,217°
695301.737830514,5912798.40692162,2022/12/22 10:08:34,"293",53.32830048,5.932969093,8.49,false,false,false,253.06,253.06,0.01,"418","2","94","305","202","137",7.23,"100283",108.61,  4.69 m/s,217°
695296.837886702,5912796.93011567,2022/12/22 10:08:34,"294",53.32828903,5.932894707,8.39,false,false,false,253.14,253.14,0.01,"413","1","94","305","202","137",7.19,"100285",108.61,  4.69 m/s,217°
695292.209267752,5912795.0400526,2022/12/22 10:08:34,"295",53.32827377,5.932824135,8.31,false,false,false,252.76,252.76,0.01,"408","1","94","305","201","137",7.17,"100288",108.61,  4.69 m/s,217°
695287.372718611,5912793.5669756,2022/12/22 10:08:39,"296",53.32826233,5.932750702,8.22,false,false,false,252.9,252.9,0.01,"408","1","93","305","201","137",7.15,"100291",108.61,  5.13 m/s,219°
695282.663125871,5912792.09912005,2022/12/22 10:08:40,"297",53.32825089,5.932679176,8.13,false,false,false,252.85,252.85,0.01,"408","1","93","305","201","137",7.13,"100297",108.61,  5.13 m/s,219°
695277.875781693,5912790.20254992,2022/12/22 10:08:41,"298",53.32823563,5.93260622,8.04,false,false,false,252.4,252.4,0.01,"416","2","93","306","201","137",7.11,"100294",108.61,  5.13 m/s,219°
695274.513902946,5912789.21448696,2022/12/22 10:08:42,"299",53.328228,5.932555199,8,false,false,false,252.23,252.23,0.01,"416","2","92","305","201","136",7.09,"100301",100.22,  5.13 m/s,219°
695273.21228827,5912789.16100907,2022/12/22 10:08:43,"300",53.328228,5.932535648,7.92,false,false,false,287.98,287.98,0.01,"413","1","93","306","201","138",7.1,"100314",100.22,  5.13 m/s,219°
695272.983850017,5912790.85149501,2022/12/22 10:08:44,"301",53.32824326,5.932533264,7.84,false,false,false,342.06,342.06,0.01,"416","2","94","306","201","137",7.14,"100316",100.22,  5.49 m/s,218°
695273.99355846,5912792.59173721,2022/12/22 10:08:45,"302",53.32825851,5.932549477,7.89,false,false,false,54.76,54.76,0.01,"418","2","94","306","200","138",7.21,"100333",100.22,  5.49 m/s,218°
695275.785554844,5912793.09088816,2022/12/22 10:08:46,"303",53.32826233,5.932576656,7.94,false,false,false,73.08,73.08,0.01,"433","5","94","306","200","138",7.26,"100335",100.22,  5.49 m/s,218°
695278.576081486,5912794.05547711,2022/12/22 10:08:47,"304",53.32826996,5.932619095,8.01,false,false,false,73.51,73.51,0.01,"433","5","94","306","200","137",7.31,"100338",100.22,  5.49 m/s,218°
695282.255453525,5912795.05658825,2022/12/22 10:08:48,"305",53.32827759,5.932674885,8.09,false,false,false,73.6,73.6,0.01,"439","5","94","305","200","138",7.36,"100337",100.22,  5.49 m/s,218°
