X,Y,TimeStamp (UTC),"""TriggerID""","""Latitude""","""Longitude""","""Altitude (Meter AGL)""",Gimbal Roll,"""Gimbal Pitch""","""Gimbal Yaw""","""Drone Yaw""","""Combined Yaw""",HCHO (ppm),CO2 (ppm),TVOC (ppb),NO2 (ppm),C2H5OH (ppm),VOC (ppm),CO (ppm),Temp (Celcius),Pressure (pa),Altitude (meter),wind_speed,wind_direction
695404.456109531,5912749.51173565,2022/12/22 11:15:59,"1",53.32782364,5.934479237,0.18,false,false,false,73.68,73.68,0.01,"645","37","32","309","65","129",12.3,"100430",91.83,  7.39 m/s,244°
695404.360839349,5912749.50781883,2022/12/22 11:16:03,"2",53.32782364,5.934477806,0.79,false,false,false,73.57,73.57,0.01,"634","35","32","310","64","130",12.25,"100425",91.83,  7.39 m/s,244°
695404.329082622,5912749.50651323,2022/12/22 11:16:04,"3",53.32782364,5.934477329,1.13,false,false,false,73.09,73.09,0.01,"629","34","32","310","65","129",12.22,"100419",91.83,  7.39 m/s,244°
695404.392596076,5912749.50912444,2022/12/22 11:16:05,"4",53.32782364,5.934478283,2.88,false,false,false,74.18,74.18,0.01,"634","35","33","309","65","130",12.19,"100400",91.83,  7.39 m/s,244°
695404.487799682,5912749.51303852,2022/12/22 11:16:06,"5",53.32782364,5.934479713,6.03,false,false,false,74.44,74.44,0.01,"605","31","32","306","64","128",12.15,"100369",100.22,  7.39 m/s,244°
695404.724367619,5912749.94717609,2022/12/22 11:16:07,"6",53.32782745,5.934483528,9.2,false,false,false,73.41,73.41,0.01,"596","29","31","308","64","129",12.06,"100322",100.22,  7.39 m/s,244°
695404.851394516,5912749.95239852,2022/12/22 11:16:08,"7",53.32782745,5.934485436,12.26,false,false,false,73.54,73.54,0.01,"588","28","32","308","64","126",11.98,"100281",108.61,  7.39 m/s,244°
695404.883084665,5912749.9537014,2022/12/22 11:16:09,"8",53.32782745,5.934485912,15.29,false,false,false,73.76,73.76,0.01,"581","27","31","307","64","128",11.9,"100250",108.61,  7.39 m/s,244°
695404.787881067,5912749.94978731,2022/12/22 11:16:10,"9",53.32782745,5.934484482,18.25,false,false,false,73.65,73.65,0.01,"581","27","31","307","64","125",11.82,"100213",108.61,  7.39 m/s,244°
695404.724367619,5912749.94717609,2022/12/22 11:16:11,"10",53.32782745,5.934483528,21.26,false,false,false,73.57,73.57,0.01,"567","25","30","308","64","127",11.76,"100177",117.01,  7.39 m/s,244°
695404.692610895,5912749.94587048,2022/12/22 11:16:12,"11",53.32782745,5.934483051,24.31,false,false,false,73.66,73.66,0.01,"552","23","30","307","62","126",11.67,"100146",117.01,  7.39 m/s,244°
695404.692610895,5912749.94587048,2022/12/22 11:16:13,"12",53.32782745,5.934483051,27.31,false,false,false,73.79,73.79,0.01,"543","21","30","308","63","125",11.59,"100109",117.01,  7.39 m/s,244°
695404.773543651,5912749.52478625,2022/12/22 11:16:13,"13",53.32782364,5.934484005,28.86,false,false,false,73.77,73.77,0.01,"537","20","30","301","64","127",11.5,"100076",125.42,  7.39 m/s,244°
695404.805300378,5912749.52609185,2022/12/22 11:16:15,"14",53.32782364,5.934484482,28.75,false,false,false,60.35,60.35,0.01,"531","19","29","301","64","127",11.4,"100060",125.42,  7.39 m/s,244°
695405.073558434,5912749.96153232,2022/12/22 11:16:16,"15",53.32782745,5.934488773,28.64,false,false,false,60.49,60.49,0.01,"519","18","29","305","63","126",11.31,"100068",125.42,  7.39 m/s,244°
695407.038681546,5912750.89226177,2022/12/22 11:16:17,"16",53.32783508,5.934518814,28.54,false,false,false,60.39,60.39,0.01,"514","17","29","310","64","127",11.22,"100082",125.42,  7.39 m/s,244°
695409.921287128,5912752.71065051,2022/12/22 11:16:17,"17",53.32785034,5.93456316,28.48,false,false,false,60.67,60.67,0.01,"503","15","29","308","63","126",11.16,"100083",125.42,  7.39 m/s,244°
695413.421358893,5912754.97995364,2022/12/22 11:16:19,"18",53.32786942,5.934617043,28.44,false,false,false,60.29,60.29,0.01,"514","17","29","309","63","126",11.1,"100083",125.42,  7.39 m/s,244°
695417.475406507,5912757.69533432,2022/12/22 11:16:20,"19",53.3278923,5.934679508,28.42,false,false,false,60.55,60.55,0.01,"524","18","29","309","63","126",11.09,"100087",125.42,  7.39 m/s,244°
695421.878660491,5912760.42619084,2022/12/22 11:16:21,"20",53.32791519,5.934747219,28.4,false,false,false,60.49,60.49,0.01,"531","19","29","309","63","126",11.06,"100091",125.42,  7.39 m/s,244°
695426.377179449,5912763.16096882,2022/12/22 11:16:22,"21",53.32793808,5.934816361,28.39,false,false,false,60.48,60.48,0.01,"524","18","29","309","64","127",11.02,"100088",125.42,  7.39 m/s,244°
695430.685153626,5912765.88791647,2022/12/22 11:16:23,"22",53.32796097,5.934882641,28.37,false,false,false,60.74,60.74,0.01,"524","18","29","308","63","126",11,"100091",125.42,  7.39 m/s,244°
695434.897919727,5912768.61095345,2022/12/22 11:16:24,"23",53.32798386,5.934947491,28.36,false,false,false,60.36,60.36,0.01,"524","18","29","309","63","126",10.96,"100091",125.42,  7.39 m/s,244°
695439.078970237,5912771.33157638,2022/12/22 11:16:25,"24",53.32800674,5.935011864,28.35,false,false,false,60.73,60.73,0.01,"529","19","28","309","63","126",10.93,"100095",125.42,  7.39 m/s,244°
695443.41868659,5912774.05984177,2022/12/22 11:16:25,"25",53.32802963,5.935078621,28.34,false,false,false,60.47,60.47,0.01,"542","21","29","309","63","126",10.91,"100091",125.42,  7.39 m/s,244°
695447.585348608,5912776.35658319,2022/12/22 11:16:27,"26",53.32804871,5.935142517,28.35,false,false,false,60.5,60.5,0.01,"524","18","28","309","63","126",10.91,"100089",125.42,  7.39 m/s,244°
695451.829898417,5912779.07982946,2022/12/22 11:16:28,"27",53.32807159,5.935207844,28.35,false,false,false,60.56,60.56,0.01,"524","18","28","309","63","126",10.91,"100091",125.42,  7.39 m/s,244°
695456.137844189,5912781.80680088,2022/12/22 11:16:29,"28",53.32809448,5.935274124,28.35,false,false,false,60.55,60.55,0.01,"524","18","29","309","63","126",10.9,"100089",125.42,  7.39 m/s,244°
695460.318825691,5912784.52855512,2022/12/22 11:16:30,"29",53.32811737,5.935338497,28.35,false,false,false,60.41,60.41,0.01,"518","17","29","308","64","125",10.88,"100091",125.42,  7.39 m/s,244°
695464.595071947,5912787.25423119,2022/12/22 11:16:31,"30",53.32814026,5.935404301,28.35,false,false,false,60.67,60.67,0.01,"537","20","29","310","64","126",10.86,"100095",125.42,  7.39 m/s,244°
695468.712531066,5912789.97338102,2022/12/22 11:16:32,"31",53.32816315,5.93546772,28.33,false,false,false,60.43,60.43,0.01,"519","18","28","309","63","125",10.84,"100095",125.42,  7.39 m/s,244°
695472.957011352,5912792.6977588,2022/12/22 11:16:33,"32",53.32818604,5.935533047,28.34,false,false,false,60.64,60.64,0.01,"519","18","29","310","64","125",10.86,"100098",125.42,  7.39 m/s,244°
695477.123689322,5912794.99341478,2022/12/22 11:16:34,"33",53.32820511,5.935596943,28.33,false,false,false,60.84,60.84,0.01,"529","19","28","309","63","126",10.9,"100099",125.42,  7.39 m/s,244°
695480.401516525,5912797.25251673,2022/12/22 11:16:35,"34",53.32822418,5.935647488,28.32,false,false,false,60.97,60.97,0.01,"531","19","29","309","63","125",10.89,"100097",125.42,  7.39 m/s,244°
695481.209378434,5912797.71126966,2022/12/22 11:16:36,"35",53.328228,5.935659885,28.33,false,false,false,23.89,23.89,0.01,"542","21","29","308","63","125",10.86,"100071",125.42,  7.39 m/s,244°
695480.877663095,5912797.27210035,2022/12/22 11:16:37,"36",53.32822418,5.93565464,28.35,false,false,false,293.66,293.66,0.01,"524","18","28","309","62","125",10.89,"100068",125.42,  7.39 m/s,244°
695480.64117122,5912796.83796149,2022/12/22 11:16:38,"37",53.32822037,5.935650826,28.34,false,false,false,256.81,256.81,0.01,"497","14","29","309","62","125",10.77,"100061",125.42,  7.39 m/s,244°
695479.991958083,5912796.38573378,2022/12/22 11:16:38,"38",53.32821655,5.935640812,28.33,false,false,false,256.26,256.26,0.01,"492","14","28","308","63","125",10.65,"100063",125.42,  7.39 m/s,244°
695478.041151547,5912795.8810869,2022/12/22 11:16:38,"39",53.32821274,5.935611248,28.34,false,false,false,256.24,256.24,0.01,"487","13","28","308","63","124",10.57,"100055",125.42,  7.39 m/s,244°
695475.201543172,5912795.33877199,2022/12/22 11:16:41,"40",53.32820892,5.935568333,28.32,false,false,false,256.36,256.36,0.01,"485","12","28","309","63","124",10.45,"100057",125.42,  7.39 m/s,244°
695471.680917931,5912794.34403822,2022/12/22 11:16:42,"41",53.32820129,5.935514927,28.34,false,false,false,256.47,256.47,0.01,"476","11","28","308","62","124",10.35,"100051",125.42,  7.39 m/s,244°
695467.366646569,5912793.31666714,2022/12/22 11:16:42,"42",53.32819366,5.9354496,28.34,false,false,false,256.65,256.65,0.01,"460","9","28","309","63","124",10.23,"100042",125.42,  7.39 m/s,244°
695462.657164151,5912791.84863483,2022/12/22 11:16:44,"43",53.32818222,5.935378075,28.32,false,false,false,256.65,256.65,0.01,"452","7","28","306","62","123",10.11,"100040",125.42,  7.39 m/s,244°
695457.644513251,5912790.79255166,2022/12/22 11:16:44,"44",53.32817459,5.935302258,28.37,false,false,false,256.74,256.74,0.01,"441","6","28","309","62","122",9.99,"100038",125.42,  7.39 m/s,244°
695452.680974136,5912789.31408162,2022/12/22 11:16:46,"45",53.32816315,5.935226917,28.39,false,false,false,256.51,256.51,0.01,"441","6","28","308","62","123",9.89,"100050",125.42,  7.39 m/s,244°
695447.763588402,5912788.26192678,2022/12/22 11:16:47,"46",53.32815552,5.935152531,28.38,false,false,false,256.55,256.55,0.01,"448","7","28","306","62","122",9.81,"100046",125.42,  7.39 m/s,244°
695442.736643505,5912786.77974613,2022/12/22 11:16:48,"47",53.32814407,5.935076237,28.38,false,false,false,256.71,256.71,0.01,"427","4","28","309","62","122",9.74,"100036",125.42,  7.39 m/s,244°
695437.931878924,5912785.30782103,2022/12/22 11:16:49,"48",53.32813263,5.935003281,28.39,false,false,false,256.72,256.72,0.01,"423","3","28","310","62","123",9.64,"100045",125.42,  7.39 m/s,244°
695433.204892534,5912784.26351095,2022/12/22 11:16:50,"49",53.328125,5.934931755,28.41,false,false,false,256.66,256.66,0.01,"417","2","27","310","62","123",9.57,"100040",125.42,  7.39 m/s,244°
695428.336609995,5912782.78898407,2022/12/22 11:16:51,"50",53.32811356,5.934857845,28.42,false,false,false,256.65,256.65,0.01,"418","2","27","310","62","122",9.5,"100045",125.42,  7.39 m/s,244°
695423.419213624,5912781.73685468,2022/12/22 11:16:52,"51",53.32810593,5.934783459,28.42,false,false,false,256.85,256.85,0.01,"423","3","28","309","62","122",9.43,"100036",125.42,  7.39 m/s,244°
695418.614484811,5912780.26383729,2022/12/22 11:16:52,"52",53.32809448,5.934710503,28.43,false,false,false,256.92,256.92,0.01,"408","1","28","310","61","121",9.36,"100033",125.42,  7.39 m/s,244°
695413.792287291,5912779.21563235,2022/12/22 11:16:54,"53",53.32808685,5.934637547,28.41,false,false,false,256.95,256.95,0.01,"406","0","28","310","62","122",9.31,"100035",125.42,  7.39 m/s,244°
695409.082710827,5912777.74765106,2022/12/22 11:16:55,"54",53.32807541,5.934566021,28.43,false,false,false,257.17,257.17,0.01,"401","0","28","309","62","121",9.25,"100037",125.42,  7.39 m/s,244°
695404.038279986,5912776.69031937,2022/12/22 11:16:56,"55",53.32806778,5.934489727,28.45,false,false,false,256.43,256.43,0.01,"401","0","27","309","61","122",9.2,"100043",125.42,  7.39 m/s,244°
695399.169982366,5912775.21582274,2022/12/22 11:16:57,"56",53.32805634,5.934415817,28.49,false,false,false,256.4,256.4,0.01,"414","2","27","310","62","122",9.16,"100047",125.42,  7.39 m/s,244°
695394.333484289,5912773.74152464,2022/12/22 11:16:58,"57",53.32804489,5.934342384,28.49,false,false,false,256.4,256.4,0.01,"408","1","27","310","61","122",9.11,"100037",125.42,  7.39 m/s,244°
695389.479519694,5912772.69203908,2022/12/22 11:16:59,"58",53.32803726,5.934268951,28.48,false,false,false,256.45,256.45,0.01,"401","0","27","311","62","121",9.06,"100041",125.42,  7.39 m/s,244°
695384.769997212,5912771.22408494,2022/12/22 11:17:00,"59",53.32802582,5.934197426,28.49,false,false,false,256.58,256.58,0.01,"401","0","27","311","61","121",9.03,"100042",125.42,  7.39 m/s,244°
695379.806531667,5912769.74458265,2022/12/22 11:17:01,"60",53.32801437,5.934122086,28.51,false,false,false,256.48,256.48,0.01,"401","0","27","309","61","121",8.97,"100046",125.42,  7.39 m/s,244°
695374.952560664,5912768.69511208,2022/12/22 11:17:02,"61",53.32800674,5.934048653,28.47,false,false,false,256.66,256.66,0.01,"406","0","27","312","61","121",8.94,"100054",125.42,  7.39 m/s,244°
695370.211207377,5912767.22586441,2022/12/22 11:17:03,"62",53.3279953,5.93397665,28.46,false,false,false,257.06,257.06,0.01,"410","1","27","311","61","121",8.9,"100043",125.42,  7.39 m/s,244°
695365.388988879,5912766.1777091,2022/12/22 11:17:04,"63",53.32798767,5.933903694,28.48,false,false,false,256.7,256.7,0.01,"401","0","28","310","60","120",8.87,"100044",125.42,  7.39 m/s,244°
695360.552427391,5912764.70455787,2022/12/22 11:17:05,"64",53.32797623,5.933830261,28.49,false,false,false,256.59,256.59,0.01,"410","1","27","310","61","121",8.84,"100045",125.42,  7.39 m/s,244°
695355.698448164,5912763.65510718,2022/12/22 11:17:06,"65",53.3279686,5.933756828,28.52,false,false,false,256.56,256.56,0.01,"400","0","27","312","61","119",8.8,"100030",125.42,  7.39 m/s,244°
695350.98895392,5912762.18607488,2022/12/22 11:17:07,"66",53.32795715,5.933685303,28.52,false,false,false,256.87,256.87,0.01,"464","9","27","312","61","121",8.77,"100043",125.42,  7.39 m/s,244°
695345.976253964,5912761.13011071,2022/12/22 11:17:08,"67",53.32794952,5.933609486,28.54,false,false,false,256.43,256.43,0.01,"454","8","26","311","61","122",8.74,"100049",125.42,  7.39 m/s,244°
695341.107925813,5912759.65567431,2022/12/22 11:17:09,"68",53.32793808,5.933535576,28.55,false,false,false,256.33,256.33,0,"459","8","27","312","60","122",8.71,"100048",125.42,  7.39 m/s,244°
695336.285694978,5912758.60754883,2022/12/22 11:17:10,"69",53.32793045,5.93346262,28.53,false,false,false,256.82,256.82,0,"470","10","27","311","61","121",8.69,"100041",125.42,  7.39 m/s,244°
695331.353848479,5912757.13051224,2022/12/22 11:17:11,"70",53.32791901,5.933387756,28.56,false,false,false,256.47,256.47,0,"464","9","27","313","61","122",8.68,"100047",125.42,  7.39 m/s,244°
695326.468166756,5912756.07978933,2022/12/22 11:17:12,"71",53.32791138,5.933313847,28.56,false,false,false,256.61,256.61,0,"459","8","27","313","61","122",8.67,"100045",125.42,  7.39 m/s,244°
695321.663387595,5912754.6068712,2022/12/22 11:17:13,"72",53.32789993,5.933240891,28.6,false,false,false,256.56,256.56,0,"476","11","27","310","60","121",8.65,"100036",125.42,  7.39 m/s,244°
695316.968108699,5912753.56398301,2022/12/22 11:17:14,"73",53.3278923,5.933169842,28.61,false,false,false,256.77,256.77,0,"454","8","27","311","61","122",8.63,"100048",125.42,  7.39 m/s,244°
695312.068008817,5912752.0882717,2022/12/22 11:17:15,"74",53.32788086,5.933095455,28.6,false,false,false,256.89,256.89,0,"459","8","26","313","61","122",8.61,"100038",125.42,  7.39 m/s,244°
695307.277522361,5912751.04148096,2022/12/22 11:17:16,"75",53.32787323,5.933022976,28.62,false,false,false,256.69,256.69,0,"464","9","27","310","61","121",8.6,"100041",125.42,  7.39 m/s,244°
695302.504444292,5912749.57099946,2022/12/22 11:17:17,"76",53.32786179,5.932950497,28.61,false,false,false,256.87,256.87,0,"450","7","27","313","60","121",8.59,"100036",125.42,  7.39 m/s,244°
695297.699652512,5912748.09810587,2022/12/22 11:17:18,"77",53.32785034,5.932877541,28.61,false,false,false,257.2,257.2,0,"454","8","27","314","61","122",8.57,"100023",125.42,  7.39 m/s,244°
695292.782132823,5912747.04611033,2022/12/22 11:17:19,"78",53.32784271,5.932803154,28.62,false,false,false,257,257,0,"459","8","27","313","61","122",8.56,"100037",125.42,  7.39 m/s,244°
695287.91377688,5912745.5717291,2022/12/22 11:17:20,"79",53.32783127,5.932729244,28.64,false,false,false,256.72,256.72,0,"445","6","27","313","61","121",8.55,"100035",125.42,  7.39 m/s,244°
695282.964562851,5912744.51844173,2022/12/22 11:17:21,"80",53.32782364,5.932654381,28.65,false,false,false,256.79,256.79,0,"476","11","26","313","61","122",8.53,"100032",125.42,  7.39 m/s,244°
695278.128004296,5912743.04426338,2022/12/22 11:17:22,"81",53.32781219,5.932580948,28.67,false,false,false,256.85,256.85,0,"450","7","27","314","61","121",8.53,"100031",125.42,  7.39 m/s,244°
695273.273944083,5912741.99600981,2022/12/22 11:17:23,"82",53.32780457,5.932507515,28.7,false,false,false,256.54,256.54,0,"445","6","27","312","60","121",8.51,"100041",125.42,  7.39 m/s,244°
695268.373866991,5912740.51923206,2022/12/22 11:17:24,"83",53.32779312,5.932433128,28.75,false,false,false,256.36,256.36,0,"439","5","26","314","61","121",8.51,"100042",125.42,  7.39 m/s,244°
695263.505564804,5912739.04487888,2022/12/22 11:17:25,"84",53.32778168,5.932359219,28.75,false,false,false,256.34,256.34,0,"454","8","26","313","61","121",8.5,"100042",125.42,  7.39 m/s,244°
695258.556273509,5912737.99161446,2022/12/22 11:17:26,"85",53.32777405,5.932284355,28.74,false,false,false,256.5,256.5,0,"459","8","27","313","60","121",8.5,"100041",125.42,  7.39 m/s,244°
695253.75145896,5912736.51876586,2022/12/22 11:17:27,"86",53.3277626,5.932211399,28.72,false,false,false,256.99,256.99,0,"454","8","26","312","60","122",8.49,"100038",125.42,  7.39 m/s,244°
695248.978352823,5912735.04833881,2022/12/22 11:17:28,"87",53.32775116,5.93213892,28.71,false,false,false,256.69,256.69,0,"459","8","26","313","60","122",8.48,"100041",125.42,  7.39 m/s,244°
695244.187839079,5912734.00161234,2022/12/22 11:17:29,"88",53.32774353,5.932066441,28.71,false,false,false,256.64,256.64,0,"445","6","26","315","60","122",8.48,"100038",125.42,  7.39 m/s,244°
695239.446418247,5912732.53249678,2022/12/22 11:17:30,"89",53.32773209,5.931994438,28.71,false,false,false,257.2,257.2,0,"445","6","26","314","60","121",8.46,"100037",125.42,  7.39 m/s,244°
695234.497182908,5912731.47926041,2022/12/22 11:17:30,"90",53.32772446,5.931919575,28.74,false,false,false,256.57,256.57,0,"470","10","27","315","60","122",8.45,"100044",125.42,  7.39 m/s,244°
695229.692355713,5912730.00643645,2022/12/22 11:17:32,"91",53.32771301,5.931846619,28.75,false,false,false,256.4,256.4,0,"464","9","26","315","61","122",8.45,"100043",125.42,  7.39 m/s,244°
695224.711292775,5912728.9519032,2022/12/22 11:17:33,"92",53.32770538,5.931771278,28.74,false,false,false,256.48,256.48,0,"445","6","27","315","60","122",8.45,"100037",125.42,  7.39 m/s,244°
695220.033442272,5912727.4854188,2022/12/22 11:17:34,"93",53.32769394,5.93170023,28.75,false,false,false,256.77,256.77,0,"459","8","27","314","59","120",8.43,"100026",125.42,  7.39 m/s,244°
695215.3063634,5912726.44132775,2022/12/22 11:17:35,"94",53.32768631,5.931628704,28.76,false,false,false,256.62,256.62,0,"445","6","26","315","60","122",8.43,"100037",125.42,  7.39 m/s,244°
695210.437966883,5912724.96702688,2022/12/22 11:17:36,"95",53.32767487,5.931554794,28.75,false,false,false,256.86,256.86,0,"454","8","26","315","60","123",8.42,"100037",125.42,  7.39 m/s,244°
695205.679193674,5912723.92164393,2022/12/22 11:17:36,"96",53.32766724,5.931482792,28.74,false,false,false,257.08,257.08,0,"450","7","27","314","59","121",8.42,"100027",125.42,  7.39 m/s,244°
695201.033069394,5912722.45536794,2022/12/22 11:17:38,"97",53.32765579,5.93141222,28.74,false,false,false,257.18,257.18,0,"435","5","26","313","60","122",8.41,"100025",125.42,  7.39 m/s,244°
695196.020303672,5912721.39956357,2022/12/22 11:17:39,"98",53.32764816,5.931336403,28.75,false,false,false,256.98,256.98,0,"428","4","26","313","60","121",8.41,"100024",125.42,  7.39 m/s,244°
695191.469399496,5912719.93832174,2022/12/22 11:17:40,"99",53.32763672,5.931267262,28.81,false,false,false,257.5,257.5,0,"445","6","26","314","60","121",8.4,"100029",125.42,  7.39 m/s,244°
695186.944052236,5912720.17688931,2022/12/22 11:17:41,"100",53.32764053,5.931199551,28.76,false,false,false,283.58,283.58,0,"426","3","26","315","60","121",8.39,"100029",125.42,  7.39 m/s,244°
695183.188674661,5912722.57247398,2022/12/22 11:17:42,"101",53.32766342,5.931144714,28.69,false,false,false,320.9,320.9,0,"454","8","26","314","60","122",8.39,"100025",125.42,  7.39 m/s,244°
695181.427208923,5912726.74981114,2022/12/22 11:17:43,"102",53.32770157,5.931120873,28.54,false,false,false,346.01,346.01,0,"454","8","27","314","59","121",8.43,"100046",125.42,  7.39 m/s,244°
695180.727612416,5912731.39516513,2022/12/22 11:17:44,"103",53.32774353,5.931113243,28.43,false,false,false,354.47,354.47,0,"454","8","27","314","60","122",8.51,"100061",125.42,  7.39 m/s,244°
695181.791506635,5912735.68852756,2022/12/22 11:17:45,"104",53.32778168,5.93113184,28.33,false,false,false,25.14,25.14,0,"470","10","27","314","60","123",8.59,"100071",125.42,  7.39 m/s,244°
695184.921989355,5912739.2157088,2022/12/22 11:17:46,"105",53.32781219,5.931180954,28.28,false,false,false,57.02,57.02,0,"476","11","26","314","60","122",8.68,"100081",125.42,  7.39 m/s,244°
695189.060192393,5912740.66111087,2022/12/22 11:17:46,"106",53.32782364,5.931243897,28.31,false,false,false,76.24,76.24,0,"491","13","27","315","60","123",8.71,"100084",125.42,  7.39 m/s,244°
695193.501516782,5912741.69344101,2022/12/22 11:17:48,"107",53.32783127,5.931311131,28.32,false,false,false,77.42,77.42,0,"496","14","27","315","59","123",8.75,"100091",125.42,  7.39 m/s,244°
695198.196760267,5912742.73620368,2022/12/22 11:17:49,"108",53.3278389,5.931382179,28.33,false,false,false,77.09,77.09,0,"496","14","27","315","60","124",8.8,"100098",125.42,  7.39 m/s,244°
695202.923825282,5912743.78027803,2022/12/22 11:17:50,"109",53.32784653,5.931453705,28.33,false,false,false,77.03,77.03,0,"498","14","27","315","60","123",8.86,"100096",125.42,  7.39 m/s,244°
695207.919164151,5912745.25978605,2022/12/22 11:17:51,"110",53.32785797,5.931529522,28.34,false,false,false,77.42,77.42,0,"503","15","27","315","60","124",8.9,"100095",125.42,  7.39 m/s,244°
695212.93190242,5912746.31560362,2022/12/22 11:17:52,"111",53.3278656,5.931605339,28.36,false,false,false,77.37,77.37,0,"519","18","27","315","60","123",8.94,"100096",125.42,  7.39 m/s,244°
695217.768519144,5912747.78860322,2022/12/22 11:17:52,"112",53.32787704,5.931678772,28.37,false,false,false,77.41,77.41,0,"519","18","27","314","60","124",9,"100094",125.42,  7.39 m/s,244°
695222.686049643,5912748.84052085,2022/12/22 11:17:54,"113",53.32788467,5.931753159,28.37,false,false,false,77.63,77.63,0,"517","17","27","314","60","124",9.05,"100095",125.42,  7.39 m/s,244°
695227.522615668,5912750.31464257,2022/12/22 11:17:55,"114",53.32789612,5.931826592,28.38,false,false,false,77.67,77.67,0,"519","18","27","314","60","123",9.09,"100094",125.42,  7.39 m/s,244°
695232.535345488,5912751.37048102,2022/12/22 11:17:56,"115",53.32790375,5.931902409,28.39,false,false,false,77.78,77.78,0,"519","18","27","314","60","123",9.15,"100095",125.42,  7.39 m/s,244°
695237.276682105,5912752.83958736,2022/12/22 11:17:57,"116",53.32791519,5.931974411,28.38,false,false,false,77.57,77.57,0,"540","21","27","313","59","122",9.18,"100095",125.42,  7.39 m/s,244°
695242.098934247,5912753.88761181,2022/12/22 11:17:58,"117",53.32792282,5.932047367,28.39,false,false,false,77.58,77.58,0,"549","22","27","314","60","123",9.19,"100094",125.42,  7.39 m/s,244°
695247.030760246,5912755.3656672,2022/12/22 11:17:59,"118",53.32793427,5.932122231,28.4,false,false,false,77.33,77.33,0,"543","21","26","313","60","123",9.22,"100096",125.42,  7.39 m/s,244°
695251.726027318,5912756.40737124,2022/12/22 11:18:00,"119",53.32794189,5.932193279,28.4,false,false,false,77.2,77.2,0,"540","21","26","313","60","122",9.24,"100097",125.42,  7.39 m/s,244°
695256.594334987,5912757.8828275,2022/12/22 11:18:01,"120",53.32795334,5.932267189,28.41,false,false,false,77.41,77.41,0,"549","22","27","313","60","123",9.29,"100099",125.42,  7.39 m/s,244°
695261.416578923,5912758.93087176,2022/12/22 11:18:02,"121",53.32796097,5.932340145,28.41,false,false,false,77.63,77.63,0,"543","21","27","313","60","123",9.31,"100097",125.42,  7.39 m/s,244°
695266.284927259,5912760.40522601,2022/12/22 11:18:03,"122",53.32797241,5.932414055,28.41,false,false,false,77.66,77.66,0,"569","25","27","313","60","123",9.34,"100092",125.42,  7.39 m/s,244°
695271.21667384,5912761.88330408,2022/12/22 11:18:04,"123",53.32798386,5.932488918,28.41,false,false,false,77.28,77.28,0,"549","22","27","313","60","123",9.38,"100094",125.42,  7.39 m/s,244°
695276.038911374,5912762.93136333,2022/12/22 11:18:05,"124",53.32799149,5.932561874,28.41,false,false,false,77.55,77.55,0,"549","22","27","313","59","123",9.42,"100097",125.42,  7.39 m/s,244°
695280.907251935,5912764.40573275,2022/12/22 11:18:06,"125",53.32800293,5.932635784,28.41,false,false,false,77.32,77.32,0,"543","21","27","313","60","123",9.46,"100093",125.42,  7.39 m/s,244°
695285.570768921,5912765.4472806,2022/12/22 11:18:07,"126",53.32801056,5.932706356,28.42,false,false,false,77.45,77.45,0.01,"549","22","27","314","60","124",9.5,"100095",125.42,  7.39 m/s,244°
695290.534307715,5912766.92557171,2022/12/22 11:18:08,"127",53.328022,5.932781696,28.43,false,false,false,76.63,76.63,0.01,"569","25","27","314","60","124",9.54,"100096",125.42,  7.39 m/s,244°
695295.402594844,5912768.40106823,2022/12/22 11:18:09,"128",53.32803345,5.932855606,28.44,false,false,false,76.66,76.66,0.01,"569","25","27","315","60","124",9.58,"100096",125.42,  7.39 m/s,244°
695300.25657847,5912769.4504572,2022/12/22 11:18:10,"129",53.32804108,5.932929039,28.43,false,false,false,76.85,76.85,0.01,"569","25","27","315","59","124",9.61,"100097",125.42,  7.39 m/s,244°
695305.061393127,5912770.92224185,2022/12/22 11:18:11,"130",53.32805252,5.933001995,28.43,false,false,false,77.94,77.94,0.01,"566","25","27","315","60","124",9.64,"100095",125.42,  7.39 m/s,244°
695309.915372634,5912771.97164079,2022/12/22 11:18:12,"131",53.32806015,5.933075428,28.43,false,false,false,77.87,77.87,0.01,"569","25","27","314","60","125",9.68,"100099",125.42,  7.39 m/s,244°
695314.720182315,5912773.44343533,2022/12/22 11:18:13,"132",53.32807159,5.933148384,28.44,false,false,false,77.7,77.7,0.01,"581","27","28","315","60","124",9.72,"100095",125.42,  7.39 m/s,244°
695319.60591425,5912774.49414927,2022/12/22 11:18:14,"133",53.32807922,5.933222294,28.45,false,false,false,77.75,77.75,0.01,"575","26","27","315","59","125",9.75,"100093",125.42,  7.39 m/s,244°
695324.315403628,5912775.96315057,2022/12/22 11:18:15,"134",53.32809067,5.933293819,28.46,false,false,false,78.16,78.16,0.01,"581","27","28","314","60","126",9.81,"100095",125.42,  7.39 m/s,244°
695329.296401037,5912777.0177898,2022/12/22 11:18:16,"135",53.3280983,5.93336916,28.46,false,false,false,78.03,78.03,0.01,"596","29","27","315","60","126",9.83,"100096",125.42,  7.39 m/s,244°
695334.101200743,5912778.48960418,2022/12/22 11:18:16,"136",53.32810974,5.933442116,28.46,false,false,false,76.68,76.68,0.01,"596","29","27","315","60","126",9.85,"100096",125.42,  7.39 m/s,244°
695339.050370855,5912779.54294586,2022/12/22 11:18:18,"137",53.32811737,5.933516979,28.46,false,false,false,76.47,76.47,0.01,"596","29","28","315","60","125",9.88,"100092",125.42,  7.39 m/s,244°
695343.982191585,5912781.01999105,2022/12/22 11:18:19,"138",53.32812881,5.933591843,28.47,false,false,false,77.38,77.38,0.01,"596","29","27","314","60","125",9.89,"100097",125.42,  7.39 m/s,244°
695348.88214076,5912782.49684551,2022/12/22 11:18:20,"139",53.32814026,5.933666229,28.47,false,false,false,77.73,77.73,0.01,"602","30","27","314","60","125",9.91,"100092",125.42,  7.39 m/s,244°
695353.640898539,5912783.54237659,2022/12/22 11:18:20,"140",53.32814789,5.933738232,28.47,false,false,false,77.59,77.59,0.01,"620","33","28","314","60","125",9.92,"100096",125.42,  7.39 m/s,244°
695358.445685523,5912785.0142159,2022/12/22 11:18:22,"141",53.32815933,5.933811188,28.48,false,false,false,77.52,77.52,0.01,"602","30","27","313","60","125",9.93,"100096",125.42,  7.39 m/s,244°
695363.377383414,5912786.4923908,2022/12/22 11:18:23,"142",53.32817078,5.933886051,28.48,false,false,false,77.31,77.31,0.01,"596","29","27","313","60","125",9.95,"100097",125.42,  7.39 m/s,244°
695368.231337693,5912787.54184992,2022/12/22 11:18:23,"143",53.32817841,5.933959484,28.48,false,false,false,77.31,77.31,0.01,"596","29","28","314","60","125",9.96,"100098",125.42,  7.39 m/s,244°
695373.004360501,5912789.01239877,2022/12/22 11:18:25,"144",53.32818985,5.934031963,28.48,false,false,false,77.31,77.31,0.01,"602","30","28","314","60","125",10,"100094",125.42,  7.39 m/s,244°
695377.921823571,5912790.06447869,2022/12/22 11:18:25,"145",53.32819748,5.93410635,28.48,false,false,false,77.32,77.32,0.01,"611","32","28","314","60","125",10.02,"100096",125.42,  7.39 m/s,244°
695382.726597852,5912791.53634286,2022/12/22 11:18:27,"146",53.32820892,5.934179306,28.48,false,false,false,77.15,77.15,0.01,"602","30","28","314","60","125",10.06,"100096",125.42,  7.39 m/s,244°
695387.453584715,5912792.58060269,2022/12/22 11:18:28,"147",53.32821655,5.934250832,28.49,false,false,false,77.58,77.58,0.01,"596","29","27","314","60","125",10.08,"100095",125.42,  7.39 m/s,244°
695392.385267471,5912794.05880807,2022/12/22 11:18:29,"148",53.328228,5.934325695,28.49,false,false,false,77.61,77.61,0.01,"589","28","27","313","59","126",10.1,"100097",125.42,  7.39 m/s,244°
695397.158277652,5912795.52938148,2022/12/22 11:18:30,"149",53.32823944,5.934398174,28.5,false,false,false,77.66,77.66,0.01,"589","28","27","313","60","124",10.1,"100094",125.42,  7.39 m/s,244°
695401.980460886,5912796.57756987,2022/12/22 11:18:31,"150",53.32824707,5.93447113,28.51,false,false,false,77.61,77.61,0.01,"602","30","27","312","59","125",10.12,"100092",125.42,  7.39 m/s,244°
695406.816978929,5912798.0507643,2022/12/22 11:18:32,"151",53.32825851,5.934544563,28.52,false,false,false,77.19,77.19,0.01,"596","29","27","313","60","125",10.14,"100095",125.42,  7.39 m/s,244°
695411.63915806,5912799.09896259,2022/12/22 11:18:33,"152",53.32826614,5.934617519,28.53,false,false,false,76.76,76.76,0.01,"596","29","27","313","60","124",10.17,"100097",125.42,  7.39 m/s,244°
695416.602650937,5912800.57850182,2022/12/22 11:18:33,"153",53.32827759,5.93469286,28.54,false,false,false,77.08,77.08,0.01,"589","28","27","313","60","125",10.19,"100092",125.42,  7.39 m/s,244°
695421.520028508,5912801.63062459,2022/12/22 11:18:33,"154",53.32828522,5.934767246,28.53,false,false,false,77.56,77.56,0.01,"596","29","28","312","60","125",10.22,"100091",125.42,  7.39 m/s,244°
695426.324780127,5912803.10253339,2022/12/22 11:18:36,"155",53.32829666,5.934840202,28.51,false,false,false,78.03,78.03,0.01,"589","28","27","313","60","125",10.25,"100091",125.42,  7.39 m/s,244°
695430.9247896,5912804.14161661,2022/12/22 11:18:37,"156",53.32830429,5.934909821,28.52,false,false,false,77.89,77.89,0.01,"620","33","28","313","60","125",10.28,"100091",125.42,  7.39 m/s,244°
695435.888251525,5912805.62006143,2022/12/22 11:18:37,"157",53.32831573,5.934985161,28.54,false,false,false,77.24,77.24,0.01,"596","29","28","313","60","124",10.29,"100094",125.42,  7.39 m/s,244°
695440.597680719,5912807.08917944,2022/12/22 11:18:39,"158",53.32832718,5.935056686,28.55,false,false,false,77.58,77.58,0.01,"581","27","27","312","59","124",10.28,"100090",125.42,  7.39 m/s,244°
695445.610383322,5912808.1452477,2022/12/22 11:18:40,"159",53.32833481,5.935132504,28.55,false,false,false,77.5,77.5,0.01,"596","29","27","312","60","124",10.3,"100097",125.42,  7.39 m/s,244°
695450.510324714,5912809.6210962,2022/12/22 11:18:41,"160",53.32834625,5.93520689,28.54,false,false,false,77.62,77.62,0.01,"581","27","27","312","60","124",10.3,"100097",125.42,  7.39 m/s,244°
695455.378527869,5912811.09675867,2022/12/22 11:18:42,"161",53.3283577,5.9352808,28.53,false,false,false,77.51,77.51,0.01,"611","32","28","312","60","124",10.32,"100096",125.42,  7.39 m/s,244°
695460.200685988,5912812.14500676,2022/12/22 11:18:43,"162",53.32836533,5.935353756,28.53,false,false,false,77.79,77.79,0.01,"589","28","27","311","60","124",10.33,"100093",125.42,  7.39 m/s,244°
695464.878458583,5912813.61173382,2022/12/22 11:18:44,"163",53.32837677,5.935424805,28.54,false,false,false,77.79,77.79,0.01,"575","26","28","311","59","124",10.33,"100091",125.42,  7.39 m/s,244°
695469.129198924,5912814.63649097,2022/12/22 11:18:45,"164",53.3283844,5.935489178,28.55,false,false,false,70.42,70.42,0.01,"589","28","28","310","60","124",10.34,"100084",125.42,  7.39 m/s,244°
695472.467320191,5912817.74800596,2022/12/22 11:18:46,"165",53.3284111,5.935541153,28.62,false,false,false,36.78,36.78,0.01,"569","25","28","312","60","124",10.34,"100071",125.42,  7.39 m/s,244°
695473.576948728,5912822.46774524,2022/12/22 11:18:46,"166",53.32845306,5.935560703,28.77,false,false,false,2.11,2.11,0.01,"569","25","28","311","59","124",10.34,"100060",125.42,  7.39 m/s,244°
695472.640578481,5912826.67892439,2022/12/22 11:18:48,"167",53.32849121,5.935549259,28.92,false,false,false,347.36,347.36,0.01,"575","26","27","312","60","124",10.35,"100061",125.42,  7.39 m/s,244°
695470.705815561,5912830.4235159,2022/12/22 11:18:49,"168",53.32852554,5.935522556,29.02,false,false,false,332.1,332.1,0.01,"575","26","28","311","59","124",10.38,"100048",125.42,  7.39 m/s,244°
695467.345654852,5912833.26066126,2022/12/22 11:18:50,"169",53.32855225,5.935473919,29.1,false,false,false,303.08,303.08,0.01,"566","25","27","311","59","124",10.33,"100025",125.42,  7.39 m/s,244°
695463.310812275,5912833.94465964,2022/12/22 11:18:51,"170",53.32855988,5.935413837,29.11,false,false,false,273.28,273.28,0.01,"540","21","28","311","59","123",10.21,"100036",125.42,  7.39 m/s,244°
695459.060088653,5912832.91990731,2022/12/22 11:18:52,"171",53.32855225,5.935349464,29.09,false,false,false,256.74,256.74,0.01,"540","21","27","311","59","122",10.11,"100040",125.42,  7.39 m/s,244°
695454.572917044,5912831.4599092,2022/12/22 11:18:52,"172",53.3285408,5.935281277,29.08,false,false,false,255.92,255.92,0.01,"540","21","28","311","60","123",10.03,"100036",125.42,  7.39 m/s,244°
695449.768201792,5912829.98797096,2022/12/22 11:18:54,"173",53.32852936,5.935208321,29.06,false,false,false,256.03,256.03,0.01,"519","18","27","312","59","123",9.92,"100036",125.42,  7.39 m/s,244°
695444.677790295,5912828.50317534,2022/12/22 11:18:55,"174",53.32851791,5.935131073,29.05,false,false,false,256.13,256.13,0.01,"503","15","27","311","59","123",9.83,"100035",125.42,  7.39 m/s,244°
695439.760378045,5912827.45102511,2022/12/22 11:18:56,"175",53.32851028,5.935056686,29.04,false,false,false,256.2,256.2,0.01,"503","15","27","312","59","122",9.74,"100039",125.42,  7.39 m/s,244°
695434.860452924,5912825.97518732,2022/12/22 11:18:57,"176",53.32849884,5.9349823,29,false,false,false,256.22,256.22,0.01,"498","14","27","312","59","123",9.65,"100034",125.42,  7.39 m/s,244°
695429.992214701,5912824.50065769,2022/12/22 11:18:58,"177",53.3284874,5.93490839,29,false,false,false,256.56,256.56,0.01,"519","18","27","313","59","122",9.57,"100042",125.42,  7.39 m/s,244°
695425.106552201,5912823.44982857,2022/12/22 11:18:58,"178",53.32847977,5.93483448,28.99,false,false,false,256.42,256.42,0.01,"498","14","27","312","59","122",9.5,"100039",125.42,  7.39 m/s,244°
695420.270110912,5912821.97550273,2022/12/22 11:18:58,"179",53.32846832,5.934761047,28.97,false,false,false,256.85,256.85,0.01,"491","13","27","314","59","123",9.41,"100035",125.42,  7.39 m/s,244°
695415.479713018,5912820.92860078,2022/12/22 11:19:01,"180",53.32846069,5.934688568,28.96,false,false,false,257.03,257.03,0.01,"496","14","27","312","59","122",9.33,"100031",125.42,  7.39 m/s,244°
695410.721069564,5912819.88300936,2022/12/22 11:19:02,"181",53.32845306,5.934616566,28.92,false,false,false,256.82,256.82,0.01,"481","12","27","312","58","121",9.26,"100032",125.42,  7.39 m/s,244°
695405.948087846,5912818.41242165,2022/12/22 11:19:03,"182",53.32844162,5.934544087,28.91,false,false,false,256.63,256.63,0.01,"485","12","27","311","59","122",9.21,"100033",125.42,  7.39 m/s,244°
695401.125861222,5912817.36422595,2022/12/22 11:19:04,"183",53.32843399,5.93447113,28.91,false,false,false,256.88,256.88,0.01,"470","10","27","312","59","122",9.15,"100026",125.42,  7.39 m/s,244°
695396.257672288,5912815.88973405,2022/12/22 11:19:05,"184",53.32842255,5.934397221,28.92,false,false,false,256.85,256.85,0.01,"459","8","27","312","58","123",9.09,"100025",125.42,  7.39 m/s,244°
695391.357703467,5912814.41282687,2022/12/22 11:19:06,"185",53.3284111,5.934322834,28.91,false,false,false,256.6,256.6,0.01,"464","9","26","313","58","121",9.03,"100032",125.42,  7.39 m/s,244°
695386.440268129,5912813.36073239,2022/12/22 11:19:07,"186",53.32840347,5.934248447,28.9,false,false,false,256.61,256.61,0.01,"459","8","27","312","59","122",8.98,"100035",125.42,  7.39 m/s,244°
695381.540315095,5912811.88495026,2022/12/22 11:19:07,"187",53.32839203,5.934174061,28.89,false,false,false,256.42,256.42,0.01,"470","10","27","312","58","122",8.95,"100035",125.42,  7.39 m/s,244°
695376.703851074,5912810.41066931,2022/12/22 11:19:09,"188",53.32838058,5.934100628,28.85,false,false,false,256.79,256.79,0.01,"464","9","26","312","58","122",8.91,"100030",125.42,  7.39 m/s,244°
695371.945145153,5912809.36622919,2022/12/22 11:19:10,"189",53.32837296,5.934028626,28.85,false,false,false,256.76,256.76,0.01,"464","9","27","312","58","121",8.88,"100037",125.42,  7.39 m/s,244°
695366.98165083,5912807.88673667,2022/12/22 11:19:11,"190",53.32836151,5.933953285,28.85,false,false,false,256.63,256.63,0.01,"459","8","27","312","59","121",8.85,"100037",125.42,  7.39 m/s,244°
695362.1912302,5912806.839889,2022/12/22 11:19:12,"191",53.32835388,5.933880806,28.84,false,false,false,256.79,256.79,0.01,"450","7","26","313","58","121",8.81,"100030",125.42,  7.39 m/s,244°
695357.513425627,5912805.37326382,2022/12/22 11:19:13,"192",53.32834244,5.933809757,28.82,false,false,false,256.91,256.91,0.01,"454","8","27","314","58","120",8.77,"100026",125.42,  7.39 m/s,244°
695352.564285757,5912804.31990219,2022/12/22 11:19:14,"193",53.32833481,5.933734894,28.8,false,false,false,256.77,256.77,0.01,"464","9","26","313","59","121",8.75,"100033",125.42,  7.39 m/s,244°
695347.72780675,5912802.8456511,2022/12/22 11:19:15,"194",53.32832336,5.933661461,28.79,false,false,false,256.64,256.64,0.01,"454","8","26","313","58","122",8.73,"100041",125.42,  7.39 m/s,244°
695342.764320404,5912801.36729898,2022/12/22 11:19:16,"195",53.32831192,5.933586121,28.77,false,false,false,256.73,256.73,0.01,"445","6","26","313","58","120",8.71,"100040",125.42,  7.39 m/s,244°
695337.878620188,5912800.31656048,2022/12/22 11:19:16,"196",53.32830429,5.933512211,28.75,false,false,false,256.73,256.73,0.01,"459","8","27","311","58","121",8.68,"100035",125.42,  7.39 m/s,244°
695333.042087705,5912798.84343658,2022/12/22 11:19:16,"197",53.32829285,5.933438778,28.74,false,false,false,256.67,256.67,0.01,"445","6","26","313","58","121",8.66,"100039",125.42,  7.39 m/s,244°
695328.188139735,5912797.79401328,2022/12/22 11:19:19,"198",53.32828522,5.933365345,28.72,false,false,false,256.93,256.93,0.01,"459","8","27","314","58","122",8.64,"100032",125.42,  7.39 m/s,244°
695323.446917157,5912796.32370252,2022/12/22 11:19:20,"199",53.32827377,5.933293343,28.7,false,false,false,256.63,256.63,0.01,"454","8","26","314","58","121",8.62,"100035",125.42,  7.39 m/s,244°
695318.529452264,5912795.27167904,2022/12/22 11:19:21,"200",53.32826614,5.933218956,28.71,false,false,false,256.76,256.76,0.01,"445","6","26","314","58","121",8.6,"100034",125.42,  7.39 m/s,244°
695313.724666202,5912793.79988009,2022/12/22 11:19:22,"201",53.3282547,5.933146,28.7,false,false,false,257.03,257.03,0.01,"435","5","26","314","58","122",8.57,"100026",125.42,  7.39 m/s,244°
695308.838953571,5912792.74917175,2022/12/22 11:19:23,"202",53.32824707,5.93307209,28.69,false,false,false,257,257,0.01,"445","6","26","312","59","121",8.55,"100032",125.42,  7.39 m/s,244°
695304.002406089,5912791.27607778,2022/12/22 11:19:24,"203",53.32823563,5.932998657,28.68,false,false,false,256.52,256.52,0.01,"454","8","26","314","58","121",8.54,"100034",125.42,  7.39 m/s,244°
695299.229414467,5912789.80448655,2022/12/22 11:19:25,"204",53.32822418,5.932926178,28.67,false,false,false,256.39,256.39,0.01,"445","6","26","313","58","121",8.53,"100030",125.42,  7.39 m/s,244°
695294.438964754,5912788.75770789,2022/12/22 11:19:26,"205",53.32821655,5.932853699,28.65,false,false,false,256.94,256.94,0.01,"459","8","26","314","58","120",8.51,"100031",125.42,  7.39 m/s,244°
695289.729368839,5912787.28984541,2022/12/22 11:19:27,"206",53.32820511,5.932782173,28.61,false,false,false,256.82,256.82,0.01,"439","5","26","316","58","122",8.51,"100032",125.42,  7.39 m/s,244°
695284.875402143,5912786.24046681,2022/12/22 11:19:28,"207",53.32819748,5.93270874,28.61,false,false,false,257.18,257.18,0.01,"439","5","27","315","58","121",8.49,"100024",125.42,  7.39 m/s,244°
695279.975395639,5912784.76479071,2022/12/22 11:19:29,"208",53.32818604,5.932634354,28.6,false,false,false,256.99,256.99,0.01,"450","7","26","315","58","121",8.47,"100030",125.42,  7.39 m/s,244°
695275.184871188,5912783.71802893,2022/12/22 11:19:30,"209",53.32817841,5.932561874,28.6,false,false,false,256.54,256.54,0,"454","7","26","314","58","121",8.45,"100032",125.42,  7.39 m/s,244°
695270.316661828,5912782.2425556,2022/12/22 11:19:31,"210",53.32816696,5.932487965,28.57,false,false,false,256.42,256.42,0,"450","7","26","313","58","121",8.44,"100040",125.42,  7.39 m/s,244°
695265.54354038,5912780.77210797,2022/12/22 11:19:32,"211",53.32815552,5.932415485,28.55,false,false,false,256.57,256.57,0,"464","9","26","307","58","120",8.44,"100039",125.42,  7.39 m/s,244°
695260.56260372,5912779.71753847,2022/12/22 11:19:33,"212",53.32814789,5.932340145,28.56,false,false,false,256.59,256.59,0,"435","5","26","314","58","121",8.43,"100041",125.42,  7.39 m/s,244°
695255.662630069,5912778.24077569,2022/12/22 11:19:34,"213",53.32813644,5.932265759,28.54,false,false,false,256.62,256.62,0,"435","5","26","313","57","120",8.42,"100043",125.42,  7.39 m/s,244°
695250.808648684,5912777.19143225,2022/12/22 11:19:35,"214",53.32812881,5.932192326,28.54,false,false,false,256.51,256.51,0,"439","5","26","315","58","121",8.41,"100045",125.42,  7.39 m/s,244°
695245.90855772,5912775.71578899,2022/12/22 11:19:36,"215",53.32811737,5.932117939,28.52,false,false,false,256.56,256.56,0,"439","5","26","315","58","120",8.41,"100047",125.42,  7.39 m/s,244°
695241.135490147,5912774.24536891,2022/12/22 11:19:37,"216",53.32810593,5.93204546,28.51,false,false,false,256.51,256.51,0,"459","8","26","313","58","121",8.39,"100039",125.42,  7.39 m/s,244°
695236.249745812,5912773.19473598,2022/12/22 11:19:38,"217",53.3280983,5.93197155,28.52,false,false,false,256.43,256.43,0,"450","7","26","316","58","121",8.38,"100047",125.42,  7.39 m/s,244°
695231.540165487,5912771.72581984,2022/12/22 11:19:39,"218",53.32808685,5.931900024,28.49,false,false,false,256.58,256.58,0,"439","5","26","315","58","120",8.37,"100037",125.42,  7.39 m/s,244°
695226.590970487,5912770.67259077,2022/12/22 11:19:40,"219",53.32807922,5.931825161,28.46,false,false,false,256.76,256.76,0,"435","5","26","315","57","120",8.35,"100043",125.42,  7.39 m/s,244°
695221.659176726,5912769.19567113,2022/12/22 11:19:41,"220",53.32806778,5.931750298,28.46,false,false,false,256.64,256.64,0,"439","5","26","314","58","120",8.35,"100045",125.42,  7.39 m/s,244°
695216.932140386,5912768.15157747,2022/12/22 11:19:42,"221",53.32806015,5.931678772,28.46,false,false,false,256.23,256.23,0,"454","8","26","315","58","121",8.35,"100050",125.42,  7.39 m/s,244°
695211.936828419,5912766.67205934,2022/12/22 11:19:43,"222",53.32804871,5.931602955,28.45,false,false,false,256.13,256.13,0,"459","8","26","315","57","120",8.34,"100050",125.42,  7.39 m/s,244°
695207.100275701,5912765.19795317,2022/12/22 11:19:43,"223",53.32803726,5.931529522,28.43,false,false,false,256.57,256.57,0,"450","7","26","314","58","120",8.34,"100044",125.42,  7.39 m/s,244°
695202.309786424,5912764.15126837,2022/12/22 11:19:45,"224",53.32802963,5.931457043,28.42,false,false,false,256.71,256.71,0,"450","7","26","315","58","121",8.32,"100044",125.42,  7.39 m/s,244°
695197.519228752,5912763.1045857,2022/12/22 11:19:46,"225",53.328022,5.931384563,28.41,false,false,false,256.41,256.41,0,"445","6","26","314","58","121",8.31,"100045",125.42,  7.39 m/s,244°
695192.682689688,5912761.63160919,2022/12/22 11:19:47,"226",53.32801056,5.931311131,28.42,false,false,false,256.56,256.56,0,"450","7","26","315","58","121",8.31,"100046",125.42,  7.39 m/s,244°
695187.70165479,5912760.57711411,2022/12/22 11:19:48,"227",53.32800293,5.93123579,28.37,false,false,false,256.73,256.73,0,"454","8","26","316","58","121",8.31,"100047",125.42,  7.39 m/s,244°
695182.992070629,5912759.10936148,2022/12/22 11:19:49,"228",53.32799149,5.931164265,28.37,false,false,false,256.51,256.51,0,"445","6","26","315","58","120",8.31,"100044",125.42,  7.39 m/s,244°
695178.850795156,5912758.51377216,2022/12/22 11:19:50,"229",53.32798767,5.931101799,28.35,false,false,false,271.14,271.14,0,"464","9","26","316","58","121",8.3,"100051",125.42,  7.39 m/s,244°
695174.541541946,5912760.46109227,2022/12/22 11:19:51,"230",53.32800674,5.93103838,28.37,false,false,false,307.57,307.57,0,"439","5","26","316","57","121",8.3,"100049",125.42,  7.39 m/s,244°
695172.049892609,5912764.60844722,2022/12/22 11:19:51,"231",53.32804489,5.931003571,28.36,false,false,false,341.19,341.19,0,"459","8","26","316","58","121",8.31,"100060",125.42,  7.39 m/s,244°
695171.082029713,5912768.81837562,2022/12/22 11:19:53,"232",53.32808304,5.93099165,28.29,false,false,false,349.74,349.74,0,"485","12","27","315","58","121",8.39,"100071",125.42,  7.39 m/s,244°
695171.571395281,5912773.9369643,2022/12/22 11:19:54,"233",53.32812881,5.93100214,28.3,false,false,false,17.74,17.74,0,"481","12","26","316","58","122",8.48,"100084",125.42,  7.39 m/s,244°
695174.289109971,5912777.44830395,2022/12/22 11:19:55,"234",53.32815933,5.931045055,28.33,false,false,false,49.92,49.92,0,"491","13","26","316","58","122",8.55,"100092",125.42,  7.39 m/s,244°
695178.265477557,5912779.73698759,2022/12/22 11:19:56,"235",53.32817841,5.931106091,28.37,false,false,false,74.19,74.19,0,"485","12","27","316","58","123",8.61,"100096",125.42,  7.39 m/s,244°
695182.597185816,5912780.33928406,2022/12/22 11:19:57,"236",53.32818222,5.931171417,28.4,false,false,false,77.14,77.14,0,"496","14","27","316","58","123",8.66,"100093",125.42,  7.39 m/s,244°
695187.419418008,5912781.38725345,2022/12/22 11:19:58,"237",53.32818985,5.931244373,28.43,false,false,false,77.32,77.32,0,"503","15","26","315","58","122",8.73,"100095",125.42,  7.39 m/s,244°
695192.463877117,5912782.44435441,2022/12/22 11:19:59,"238",53.32819748,5.931320667,28.44,false,false,false,77.21,77.21,0,"517","17","26","315","58","123",8.79,"100095",125.42,  7.39 m/s,244°
695197.490933258,5912783.92515658,2022/12/22 11:20:00,"239",53.32820892,5.931396961,28.47,false,false,false,77.21,77.21,0,"517","17","27","314","57","122",8.85,"100094",125.42,  7.39 m/s,244°
695202.440185272,5912784.97835828,2022/12/22 11:20:01,"240",53.32821655,5.931471825,28.48,false,false,false,77.76,77.76,0,"517","17","27","314","58","122",8.9,"100091",125.42,  7.39 m/s,244°
695207.403677662,5912786.4576746,2022/12/22 11:20:02,"241",53.328228,5.931547165,28.52,false,false,false,77.32,77.32,0,"519","18","27","315","58","123",8.94,"100092",125.42,  7.39 m/s,244°
695212.225899684,5912787.50566943,2022/12/22 11:20:03,"242",53.32823563,5.931620121,28.55,false,false,false,76.78,76.78,0,"540","21","27","314","58","123",8.99,"100090",125.42,  7.39 m/s,244°
695216.967204187,5912788.97475625,2022/12/22 11:20:04,"243",53.32824707,5.931692123,28.57,false,false,false,77.69,77.69,0,"543","21","26","314","58","122",9.03,"100094",125.42,  7.39 m/s,244°
695221.852934982,5912790.02536966,2022/12/22 11:20:05,"244",53.3282547,5.931766033,28.58,false,false,false,77.69,77.69,0,"531","19","27","314","58","123",9.06,"100093",125.42,  7.39 m/s,244°
695226.753016645,5912791.50098833,2022/12/22 11:20:06,"245",53.32826614,5.93184042,28.6,false,false,false,78.01,78.01,0,"540","21","27","314","58","123",9.11,"100091",125.42,  7.39 m/s,244°
695231.575230455,5912792.54900299,2022/12/22 11:20:07,"246",53.32827377,5.931913376,28.62,false,false,false,78.12,78.12,0,"531","19","27","314","57","123",9.16,"100091",125.42,  7.39 m/s,244°
695236.411748586,5912794.02313489,2022/12/22 11:20:07,"247",53.32828522,5.931986809,28.65,false,false,false,77.34,77.34,0,"543","21","27","315","58","123",9.19,"100092",125.42,  7.39 m/s,244°
695241.26571469,5912795.07246397,2022/12/22 11:20:09,"248",53.32829285,5.932060242,28.68,false,false,false,77.41,77.41,0,"549","22","27","314","58","123",9.24,"100092",125.42,  7.39 m/s,244°
695246.007004334,5912796.54158013,2022/12/22 11:20:10,"249",53.32830429,5.932132244,28.7,false,false,false,77.33,77.33,0,"543","21","27","314","58","123",9.27,"100088",125.42,  7.39 m/s,244°
695250.970519394,5912798.01983046,2022/12/22 11:20:11,"250",53.32831573,5.932207584,28.72,false,false,false,77.7,77.7,0,"543","21","27","314","58","123",9.32,"100089",125.42,  7.39 m/s,244°
695255.72927654,5912799.06526345,2022/12/22 11:20:12,"251",53.32832336,5.932279587,28.74,false,false,false,77.54,77.54,0,"549","22","27","314","58","123",9.35,"100092",125.42,  7.39 m/s,244°
695260.660984476,5912800.54333147,2022/12/22 11:20:13,"252",53.32833481,5.93235445,28.76,false,false,false,77.44,77.44,0,"549","22","26","314","58","123",9.39,"100092",125.42,  7.39 m/s,244°
695265.387981185,5912801.58746958,2022/12/22 11:20:14,"253",53.32834244,5.932425976,28.79,false,false,false,77.25,77.25,0.01,"569","25","26","314","58","123",9.42,"100091",125.42,  7.39 m/s,244°
695270.319729768,5912803.06443568,2022/12/22 11:20:15,"254",53.32835388,5.932500839,28.81,false,false,false,77.64,77.64,0.01,"555","23","27","314","58","123",9.44,"100089",125.42,  7.39 m/s,244°
695275.078478762,5912804.10988824,2022/12/22 11:20:16,"255",53.32836151,5.932572842,28.82,false,false,false,77.53,77.53,0.01,"566","25","27","314","58","124",9.46,"100089",125.42,  7.39 m/s,244°
695279.91497418,5912805.58406498,2022/12/22 11:20:17,"256",53.32837296,5.932646275,28.85,false,false,false,77.34,77.34,0.01,"549","22","27","314","58","123",9.5,"100087",125.42,  7.39 m/s,244°
695284.832413292,5912806.63493379,2022/12/22 11:20:18,"257",53.32838058,5.932720661,28.88,false,false,false,77.22,77.22,0.01,"555","23","27","314","58","124",9.52,"100088",125.42,  7.39 m/s,244°
695289.573701309,5912808.10520877,2022/12/22 11:20:19,"258",53.32839203,5.932792664,28.9,false,false,false,77.35,77.35,0.01,"575","26","27","314","57","124",9.53,"100086",125.42,  7.39 m/s,244°
695294.441924438,5912809.57959052,2022/12/22 11:20:19,"259",53.32840347,5.932866573,28.92,false,false,false,77.43,77.43,0.01,"566","25","27","314","58","124",9.56,"100086",125.42,  7.39 m/s,244°
695299.295865371,5912810.6289795,2022/12/22 11:20:21,"260",53.3284111,5.932940006,28.94,false,false,false,77.45,77.45,0.01,"566","25","26","314","58","124",9.58,"100086",125.42,  7.39 m/s,244°
695304.227616939,5912812.10709603,2022/12/22 11:20:22,"261",53.32842255,5.93301487,28.97,false,false,false,77.42,77.42,0.01,"566","25","27","314","58","124",9.62,"100090",125.42,  7.39 m/s,244°
695308.922772291,5912813.14997022,2022/12/22 11:20:23,"262",53.32843018,5.933085918,28.99,false,false,false,77.26,77.26,0.01,"569","25","27","314","58","124",9.66,"100089",125.42,  7.39 m/s,244°
695313.822808247,5912814.62567979,2022/12/22 11:20:24,"263",53.32844162,5.933160305,29.02,false,false,false,77.42,77.42,0.01,"575","26","27","314","58","124",9.68,"100088",125.42,  7.39 m/s,244°
695318.644984657,5912815.67378372,2022/12/22 11:20:25,"264",53.32844925,5.933233261,29.04,false,false,false,77.61,77.61,0.01,"575","26","27","314","58","124",9.71,"100086",125.42,  7.39 m/s,244°
695323.576771834,5912817.15080852,2022/12/22 11:20:26,"265",53.32846069,5.933308125,29.06,false,false,false,77.29,77.29,0.01,"569","25","27","314","58","125",9.76,"100084",125.42,  7.39 m/s,244°
695328.33543161,5912818.19631224,2022/12/22 11:20:27,"266",53.32846832,5.933380127,29.08,false,false,false,77.61,77.61,0.01,"581","27","28","314","57","124",9.81,"100085",125.42,  7.39 m/s,244°
695333.235411787,5912819.67315413,2022/12/22 11:20:28,"267",53.32847977,5.933454514,29.11,false,false,false,77.37,77.37,0.01,"575","26","27","314","58","124",9.82,"100085",125.42,  7.39 m/s,244°
695338.089336212,5912820.72258314,2022/12/22 11:20:29,"268",53.3284874,5.933527947,29.13,false,false,false,77.61,77.61,0.01,"575","26","27","314","59","124",9.85,"100085",125.42,  7.39 m/s,244°
695342.894088345,5912822.19440754,2022/12/22 11:20:30,"269",53.32849884,5.933600903,29.15,false,false,false,77.23,77.23,0.01,"602","30","27","314","58","125",9.88,"100086",125.42,  7.39 m/s,244°
695347.63532533,5912823.66362639,2022/12/22 11:20:31,"270",53.32851028,5.933672905,29.17,false,false,false,77.55,77.55,0.01,"589","28","27","314","58","125",9.89,"100087",125.42,  7.39 m/s,244°
695352.584445449,5912824.71698334,2022/12/22 11:20:32,"271",53.32851791,5.933747768,29.19,false,false,false,77.36,77.36,0.01,"581","27","27","314","58","124",9.9,"100084",125.42,  7.39 m/s,244°
695357.420900391,5912826.19123994,2022/12/22 11:20:33,"272",53.32852936,5.933821201,29.21,false,false,false,77.64,77.64,0.01,"589","28","28","314","58","125",9.91,"100086",125.42,  7.39 m/s,244°
695362.211368462,5912827.23808598,2022/12/22 11:20:34,"273",53.32853699,5.933893681,29.25,false,false,false,77.39,77.39,0.01,"589","28","27","314","58","125",9.97,"100084",125.42,  7.39 m/s,244°
695366.984351745,5912828.70862971,2022/12/22 11:20:35,"274",53.32854843,5.93396616,29.26,false,false,false,77.34,77.34,0.01,"611","32","27","314","58","125",10.01,"100082",125.42,  7.39 m/s,244°
695371.838261543,5912829.75809356,2022/12/22 11:20:36,"275",53.32855606,5.934039593,29.27,false,false,false,77.33,77.33,0.01,"602","30","27","314","58","124",10.02,"100085",125.42,  7.39 m/s,244°
695376.801710359,5912831.23647694,2022/12/22 11:20:37,"276",53.3285675,5.934114933,29.29,false,false,false,77.32,77.32,0.01,"589","28","27","313","58","124",10.02,"100083",125.42,  7.39 m/s,244°
695381.669908737,5912832.71206397,2022/12/22 11:20:38,"277",53.32857895,5.934188843,29.32,false,false,false,77.58,77.58,0.01,"596","29","28","313","58","125",10.02,"100081",125.42,  7.39 m/s,244°
695386.555568258,5912833.76284847,2022/12/22 11:20:39,"278",53.32858658,5.934262753,29.35,false,false,false,77.59,77.59,0.01,"581","27","27","313","58","125",10.02,"100083",125.42,  7.39 m/s,244°
695391.328538859,5912835.23341696,2022/12/22 11:20:39,"279",53.32859802,5.934335232,29.37,false,false,false,77.6,77.6,0.01,"596","29","27","313","58","125",10.03,"100082",125.42,  7.39 m/s,244°
695396.277639963,5912836.28681989,2022/12/22 11:20:41,"280",53.32860565,5.934410095,29.4,false,false,false,77.73,77.73,0.01,"596","29","27","312","58","125",10.05,"100084",125.42,  7.39 m/s,244°
695401.018870301,5912837.75720747,2022/12/22 11:20:42,"281",53.3286171,5.934482098,29.43,false,false,false,77.47,77.47,0.01,"589","28","27","313","58","124",10.08,"100085",125.42,  7.39 m/s,244°
695405.967967233,5912838.81062059,2022/12/22 11:20:42,"282",53.32862473,5.934556961,29.45,false,false,false,77.37,77.37,0.01,"575","30","27","313","59","125",10.11,"100081",125.42,  7.39 m/s,244°
695410.772684002,5912840.28251448,2022/12/22 11:20:44,"283",53.32863617,5.934629917,29.48,false,false,false,77.47,77.47,0.01,"589","28","28","313","58","125",10.14,"100082",125.42,  7.39 m/s,244°
695415.418684081,5912841.74788757,2022/12/22 11:20:45,"284",53.32864761,5.934700489,29.49,false,false,false,77.44,77.44,0.01,"581","27","28","313","58","124",10.13,"100080",125.42,  7.39 m/s,244°
695420.431286771,5912842.8039273,2022/12/22 11:20:46,"285",53.32865524,5.934776306,29.51,false,false,false,77.51,77.51,0.01,"589","28","28","313","58","125",10.15,"100086",125.42,  7.39 m/s,244°
695425.10899232,5912844.27172777,2022/12/22 11:20:47,"286",53.32866669,5.934847355,29.54,false,false,false,77.31,77.31,0.01,"589","28","28","313","58","125",10.15,"100083",125.42,  7.39 m/s,244°
695429.899364746,5912845.31864002,2022/12/22 11:20:48,"287",53.32867432,5.934919834,29.56,false,false,false,77.44,77.44,0.01,"611","32","28","313","58","125",10.16,"100081",125.42,  7.39 m/s,244°
695434.926294908,5912846.79969645,2022/12/22 11:20:49,"288",53.32868576,5.934996128,29.59,false,false,false,77.41,77.41,0.01,"596","29","27","313","58","124",10.17,"100081",125.42,  7.39 m/s,244°
695439.780175366,5912847.84923042,2022/12/22 11:20:50,"289",53.32869339,5.935069561,29.61,false,false,false,77.36,77.36,0.01,"581","27","27","313","58","125",10.18,"100080",125.42,  7.39 m/s,244°
695444.584874489,5912849.32115893,2022/12/22 11:20:50,"290",53.32870483,5.935142517,29.63,false,false,false,77.42,77.42,0.01,"596","29","27","313","58","125",10.2,"100083",125.42,  7.39 m/s,244°
695449.421281236,5912850.79551035,2022/12/22 11:20:52,"291",53.32871628,5.93521595,29.64,false,false,false,77.24,77.24,0.01,"589","28","28","313","58","125",10.22,"100080",125.42,  7.39 m/s,244°
695454.243399241,5912851.84375333,2022/12/22 11:20:52,"292",53.32872391,5.935288906,29.66,false,false,false,77.61,77.61,0.01,"611","32","27","312","58","124",10.24,"100079",125.42,  7.39 m/s,244°
695458.508437697,5912853.29350312,2022/12/22 11:20:54,"293",53.32873535,5.935353756,29.68,false,false,false,72.53,72.53,0.01,"611","32","28","313","58","125",10.27,"100077",125.42,  7.39 m/s,244°
695461.959228783,5912855.98523387,2022/12/22 11:20:55,"294",53.32875824,5.935407162,29.76,false,false,false,41.69,41.69,0.01,"602","30","27","312","58","125",10.28,"100072",125.42,  7.39 m/s,244°
695463.372017195,5912860.29302687,2022/12/22 11:20:56,"295",53.32879639,5.935431004,29.9,false,false,false,6.18,6.18,0.01,"596","29","28","313","58","124",10.27,"100058",125.42,  7.39 m/s,244°
695462.513436203,5912864.93181854,2022/12/22 11:20:57,"296",53.32883835,5.93542099,30.03,false,false,false,347.59,347.59,0.01,"596","29","28","313","58","125",10.25,"100047",125.42,  7.39 m/s,244°
695460.705717593,5912868.68163781,2022/12/22 11:20:58,"297",53.32887268,5.935396195,30.12,false,false,false,333.83,333.83,0.01,"589","28","28","312","58","124",10.21,"100035",125.42,  7.39 m/s,244°
695457.32809656,5912871.94248229,2022/12/22 11:20:59,"298",53.3289032,5.935347557,30.2,false,false,false,303.76,303.76,0.01,"575","26","28","312","58","124",10.2,"100027",125.42,  7.39 m/s,244°
695453.134575099,5912872.61996141,2022/12/22 11:21:00,"299",53.32891083,5.935285091,30.23,false,false,false,272.48,272.48,0.01,"543","21","28","312","58","124",10.1,"100018",125.42,  7.39 m/s,244°
695448.834771927,5912872.01760964,2022/12/22 11:21:01,"300",53.32890701,5.935220242,30.2,false,false,false,256.78,256.78,0.01,"540","21","28","311","58","124",10,"100030",125.42,  7.39 m/s,244°
695444.364992779,5912870.13392218,2022/12/22 11:21:02,"301",53.32889175,5.935152054,30.14,false,false,false,256.06,256.06,0.01,"540","21","28","312","58","124",9.93,"100026",125.42,  7.39 m/s,244°
695439.560315235,5912868.66199338,2022/12/22 11:21:03,"302",53.32888031,5.935079098,30.14,false,false,false,255.74,255.74,0.01,"540","21","27","312","58","123",9.84,"100021",125.42,  7.39 m/s,244°
695434.547743259,5912867.60593274,2022/12/22 11:21:03,"303",53.32887268,5.935003281,30.1,false,false,false,256.25,256.25,0.01,"543","21","28","313","58","124",9.75,"100028",125.42,  7.39 m/s,244°
695429.584280934,5912866.12748503,2022/12/22 11:21:03,"304",53.32886124,5.93492794,30.05,false,false,false,256.3,256.3,0.01,"531","19","28","312","57","124",9.65,"100031",125.42,  7.39 m/s,244°
695424.684440037,5912864.65054476,2022/12/22 11:21:06,"305",53.32884979,5.934853554,30,false,false,false,256.81,256.81,0.01,"526","19","27","313","58","123",9.57,"100027",125.42,  7.39 m/s,244°
695419.862330689,5912863.6023316,2022/12/22 11:21:06,"306",53.32884216,5.934780598,29.99,false,false,false,256.65,256.65,0.01,"517","17","27","312","57","123",9.5,"100020",125.42,  7.39 m/s,244°
