X,Y,TimeStamp (UTC),"""TriggerID""","""Latitude""","""Longitude""","""Altitude (Meter AGL)""",Gimbal Roll,"""Gimbal Pitch""","""Gimbal Yaw""","""Drone Yaw""","""Combined Yaw""",HCHO (ppm),CO2 (ppm),TVOC (ppb),NO2 (ppm),C2H5OH (ppm),VOC (ppm),CO (ppm),Temp (Celcius),Pressure (pa),Altitude (meter),wind_speed,wind_direction
695392.678772078,5912757.52580809,2022/12/21 12:46:58,"1",53.32789993,5.934307575,0.16,false,false,false,339.07,339.07,0.01,"623","33","63","330","83","144",10.44,"100802",58.34,  10.85 m/s,210°
695392.774042094,5912757.52972468,2022/12/21 12:46:59,"2",53.32789993,5.934309006,0.78,false,false,false,339.23,339.23,0.01,"623","33","62","330","83","144",10.42,"100772",66.7,  10.85 m/s,210°
695392.851781522,5912757.95844607,2022/12/21 12:46:59,"3",53.32790375,5.934310436,1.14,false,false,false,338.75,338.75,0.01,"589","28","63","330","83","144",10.4,"100755",66.7,  10.85 m/s,210°
695392.91529486,5912757.96105713,2022/12/21 12:47:01,"4",53.32790375,5.93431139,2.57,false,false,false,338.01,338.01,0.01,"575","26","62","330","83","143",10.36,"100737",66.7,  10.85 m/s,210°
695392.947051529,5912757.96236266,2022/12/21 12:47:02,"5",53.32790375,5.934311867,5.78,false,false,false,338.9,338.9,0.01,"543","21","61","330","83","143",10.33,"100707",66.7,  10.85 m/s,210°
695392.929633226,5912758.38605813,2022/12/21 12:47:03,"6",53.32790756,5.934311867,8.91,false,false,false,338.48,338.48,0.01,"534","20","61","329","83","143",10.28,"100650",75.07,  10.85 m/s,210°
695393.024836649,5912758.38997199,2022/12/21 12:47:04,"7",53.32790756,5.934313297,11.99,false,false,false,338.42,338.42,0.01,"537","20","59","329","83","142",10.2,"100619",75.07,  10.85 m/s,210°
695393.024836649,5912758.38997199,2022/12/21 12:47:04,"8",53.32790756,5.934313297,15.03,false,false,false,338.43,338.43,0.01,"530","19","59","329","82","143",10.11,"100580",83.45,  10.85 m/s,210°
695392.929633226,5912758.38605813,2022/12/21 12:47:04,"9",53.32790756,5.934311867,18.07,false,false,false,338.58,338.58,0.01,"506","16","59","328","83","142",10.05,"100545",83.45,  10.85 m/s,210°
695392.866119894,5912758.38344707,2022/12/21 12:47:07,"10",53.32790756,5.934310913,21.08,false,false,false,338.52,338.52,0.01,"502","15","59","329","82","142",9.99,"100512",83.45,  10.85 m/s,210°
695392.851781522,5912757.95844607,2022/12/21 12:47:08,"11",53.32790375,5.934310436,24.08,false,false,false,338.65,338.65,0.01,"496","14","58","330","82","142",9.96,"100476",91.83,  10.85 m/s,210°
695392.851781522,5912757.95844607,2022/12/21 12:47:09,"12",53.32790375,5.934310436,27.07,false,false,false,338.66,338.66,0.01,"506","16","57","328","83","142",9.89,"100438",91.83,  10.85 m/s,210°
695392.883538191,5912757.9597516,2022/12/21 12:47:10,"13",53.32790375,5.934310913,29.3,false,false,false,338.52,338.52,0.01,"506","16","57","328","82","142",9.83,"100417",91.83,  10.85 m/s,210°
695392.978808198,5912757.96366819,2022/12/21 12:47:11,"14",53.32790375,5.934312344,29.39,false,false,false,29.35,29.35,0.01,"506","16","56","327","82","142",9.79,"100418",91.83,  10.85 m/s,210°
695392.820024854,5912757.95714054,2022/12/21 12:47:12,"15",53.32790375,5.934309959,29.24,false,false,false,69.1,69.1,0.01,"519","18","56","329","82","141",9.73,"100469",91.83,  10.85 m/s,210°
695392.947051529,5912757.96236266,2022/12/21 12:47:13,"16",53.32790375,5.934311867,29.17,false,false,false,68.03,68.03,0.01,"534","20","56","331","82","141",9.75,"100460",91.83,  10.85 m/s,210°
695394.753389912,5912758.88655941,2022/12/21 12:47:14,"17",53.32791138,5.934339523,29.12,false,false,false,68.25,68.25,0.01,"543","21","56","330","82","141",9.76,"100462",91.83,  10.85 m/s,210°
695397.639121082,5912759.85513217,2022/12/21 12:47:15,"18",53.32791901,5.934383392,29.05,false,false,false,68.38,68.38,0.01,"567","25","56","330","82","142",9.77,"100460",91.83,  10.85 m/s,210°
695401.251860646,5912761.70353276,2022/12/21 12:47:16,"19",53.32793427,5.934438705,29,false,false,false,68.35,68.35,0.01,"555","23","55","330","82","141",9.77,"100466",91.83,  10.85 m/s,210°
695405.340859582,5912763.57040281,2022/12/21 12:47:17,"20",53.32794952,5.934501171,28.96,false,false,false,68.4,68.4,0.01,"555","23","55","330","82","141",9.74,"100464",91.83,  10.85 m/s,210°
695409.969472582,5912765.46057624,2022/12/21 12:47:18,"21",53.32796478,5.934571743,28.93,false,false,false,68.74,68.74,0.01,"555","23","56","330","82","141",9.73,"100465",91.83,  10.85 m/s,210°
695414.739332575,5912767.78208742,2022/12/21 12:47:19,"22",53.32798386,5.934644699,28.93,false,false,false,68.55,68.55,0.01,"561","24","55","330","82","141",9.75,"100465",91.83,  10.85 m/s,210°
695419.431451364,5912769.6748816,2022/12/21 12:47:20,"23",53.32799912,5.934716225,28.91,false,false,false,68.49,68.49,0.01,"575","26","55","330","81","141",9.76,"100465",91.83,  10.85 m/s,210°
695424.074322336,5912771.99006746,2022/12/21 12:47:21,"24",53.32801819,5.934787273,28.89,false,false,false,68.56,68.56,0.01,"567","25","54","330","82","141",9.77,"100465",91.83,  10.85 m/s,210°
695428.607717431,5912773.87634492,2022/12/21 12:47:22,"25",53.32803345,5.934856415,28.9,false,false,false,68.5,68.5,0.01,"567","25","55","330","82","141",9.8,"100468",91.83,  10.85 m/s,210°
695433.141042565,5912775.76262404,2022/12/21 12:47:23,"26",53.32804871,5.934925556,28.9,false,false,false,68.33,68.33,0.01,"561","24","55","330","82","140",9.79,"100465",91.83,  10.85 m/s,210°
695437.625251948,5912778.0712999,2022/12/21 12:47:24,"27",53.32806778,5.934994221,28.88,false,false,false,68.29,68.29,0.01,"567","25","55","330","81","140",9.79,"100469",91.83,  10.85 m/s,210°
695442.222082964,5912779.96019953,2022/12/21 12:47:25,"28",53.32808304,5.935064316,28.88,false,false,false,68.32,68.32,0.01,"575","26","55","330","81","141",9.79,"100473",91.83,  10.85 m/s,210°
695446.865000339,5912782.27541087,2022/12/21 12:47:26,"29",53.32810211,5.935135365,28.87,false,false,false,68.82,68.82,0.01,"572","26","54","330","82","141",9.76,"100473",91.83,  10.85 m/s,210°
695451.49351397,5912784.16562281,2022/12/21 12:47:27,"30",53.32811737,5.935205936,28.89,false,false,false,68.64,68.64,0.01,"561","24","54","330","81","141",9.77,"100474",91.83,  10.85 m/s,210°
695456.090400802,5912786.05453885,2022/12/21 12:47:28,"31",53.32813263,5.935276032,28.89,false,false,false,68.66,68.66,0.01,"555","23","53","330","81","140",9.75,"100469",91.83,  10.85 m/s,210°
695460.606280166,5912788.36454009,2022/12/21 12:47:29,"32",53.3281517,5.935345173,28.88,false,false,false,68.56,68.56,0.01,"555","23","53","329","81","141",9.71,"100471",91.83,  10.85 m/s,210°
695465.171336693,5912790.25215636,2022/12/21 12:47:30,"33",53.32816696,5.935414791,28.89,false,false,false,68.49,68.49,0.01,"555","23","54","329","81","141",9.64,"100471",91.83,  10.85 m/s,210°
695469.831659166,5912792.14369526,2022/12/21 12:47:31,"34",53.32818222,5.93548584,28.9,false,false,false,68.66,68.66,0.01,"572","26","53","330","81","140",9.62,"100467",91.83,  10.85 m/s,210°
695474.474552388,5912794.45893417,2022/12/21 12:47:32,"35",53.32820129,5.935556889,28.92,false,false,false,68.85,68.85,0.01,"555","23","53","330","81","141",9.61,"100466",91.83,  10.85 m/s,210°
695478.75385694,5912796.33481177,2022/12/21 12:47:33,"36",53.32821655,5.935622215,28.92,false,false,false,69.41,69.41,0.01,"552","23","53","330","81","141",9.61,"100474",91.83,  10.85 m/s,210°
695481.258606979,5912797.28776838,2022/12/21 12:47:34,"37",53.32822418,5.935660362,28.91,false,false,false,69.92,69.92,0.01,"552","23","53","329","81","141",9.6,"100469",91.83,  10.85 m/s,210°
695481.385632658,5912797.29299289,2022/12/21 12:47:35,"38",53.32822418,5.93566227,28.91,false,false,false,354.86,354.86,0.01,"552","23","52","330","81","140",9.58,"100410",91.83,  10.85 m/s,210°
695481.036378617,5912797.27862824,2022/12/21 12:47:36,"39",53.32822418,5.935657024,28.92,false,false,false,269.08,269.08,0.01,"555","23","53","331","81","140",9.56,"100402",91.83,  10.85 m/s,210°
695480.768130335,5912796.84318325,2022/12/21 12:47:37,"40",53.32822037,5.935652733,28.87,false,false,false,258.3,258.3,0.01,"543","21","52","330","81","140",9.44,"100402",91.83,  10.85 m/s,210°
695479.720501267,5912796.80009499,2022/12/21 12:47:38,"41",53.32822037,5.935636997,28.91,false,false,false,257.46,257.46,0.01,"537","20","52","330","81","141",9.34,"100410",91.83,  10.85 m/s,210°
695477.660207555,5912795.86541914,2022/12/21 12:47:39,"42",53.32821274,5.935605526,28.89,false,false,false,257.7,257.7,0.01,"526","19","52","330","81","141",9.19,"100399",100.22,  10.85 m/s,210°
695474.630127127,5912795.31527069,2022/12/21 12:47:40,"43",53.32820892,5.93555975,28.91,false,false,false,257.02,257.02,0.01,"523","18","52","331","81","141",9.09,"100409",91.83,  10.85 m/s,210°
695470.60153192,5912794.29964592,2022/12/21 12:47:41,"44",53.32820129,5.935498714,28.96,false,false,false,257.17,257.17,0.01,"530","19","52","331","81","141",9.03,"100393",100.22,  10.85 m/s,210°
695465.892051295,5912792.83161036,2022/12/21 12:47:42,"45",53.32818985,5.935427189,28.97,false,false,false,257.57,257.57,0.01,"523","18","52","330","81","141",8.93,"100396",100.22,  10.85 m/s,210°
695460.769800668,5912791.3466044,2022/12/21 12:47:43,"46",53.32817841,5.935349464,28.98,false,false,false,257.23,257.23,0.01,"514","17","52","330","81","141",8.85,"100386",100.22,  10.85 m/s,210°
695455.788905401,5912790.29182919,2022/12/21 12:47:44,"47",53.32817078,5.935274124,28.98,false,false,false,257.05,257.05,0.01,"506","16","51","330","81","140",8.74,"100389",100.22,  10.85 m/s,210°
695450.888990546,5912788.81486363,2022/12/21 12:47:45,"48",53.32815933,5.935199738,29,false,false,false,256.91,256.91,0.01,"506","16","51","331","81","141",8.64,"100391",100.22,  10.85 m/s,210°
695446.052473588,5912787.3416243,2022/12/21 12:47:46,"49",53.32814789,5.935126305,29,false,false,false,256.96,256.96,0.01,"514","17","51","331","81","141",8.57,"100392",100.22,  10.85 m/s,210°
695441.198531151,5912786.29208537,2022/12/21 12:47:47,"50",53.32814026,5.935052872,29.01,false,false,false,256.7,256.7,0.01,"519","18","51","330","81","140",8.5,"100387",100.22,  10.85 m/s,210°
695436.362054919,5912784.81774396,2022/12/21 12:47:48,"51",53.32812881,5.934979439,29.01,false,false,false,256.63,256.63,0.01,"498","14","51","331","80","140",8.41,"100394",100.22,  10.85 m/s,210°
695431.430260722,5912783.34060223,2022/12/21 12:47:49,"52",53.32811737,5.934904575,29.01,false,false,false,256.61,256.61,0.01,"496","14","51","331","81","140",8.35,"100396",100.22,  10.85 m/s,210°
695426.608068369,5912782.29238415,2022/12/21 12:47:50,"53",53.32810974,5.934831619,29.01,false,false,false,256.5,256.5,0.01,"492","14","51","331","80","140",8.29,"100400",91.83,  10.85 m/s,210°
695421.835051708,5912780.8217813,2022/12/21 12:47:51,"54",53.3280983,5.93475914,29.02,false,false,false,257.11,257.11,0.01,"496","14","50","331","81","140",8.22,"100388",100.22,  10.85 m/s,210°
695417.044611791,5912779.77487875,2022/12/21 12:47:52,"55",53.32809067,5.934686661,29.01,false,false,false,257.71,257.71,0.01,"506","16","50","331","80","140",8.14,"100382",100.22,  10.85 m/s,210°
695412.285860014,5912778.729284,2022/12/21 12:47:53,"56",53.32808304,5.934614658,29.01,false,false,false,257.45,257.45,0.01,"492","14","50","332","80","140",8.09,"100380",100.22,  10.85 m/s,210°
695407.481125355,5912777.25627802,2022/12/21 12:47:54,"57",53.32807159,5.934541702,29.04,false,false,false,257.7,257.7,0.01,"498","14","50","330","80","140",8.03,"100372",100.22,  10.85 m/s,210°
695402.658923001,5912776.20808449,2022/12/21 12:47:55,"58",53.32806396,5.934468746,29.03,false,false,false,257.68,257.68,0.01,"496","14","50","332","81","140",7.99,"100382",100.22,  10.85 m/s,210°
695397.631908325,5912774.7270642,2022/12/21 12:47:56,"59",53.32805252,5.934392452,29.06,false,false,false,257.38,257.38,0.01,"486","13","49","332","81","140",7.94,"100388",100.22,  10.85 m/s,210°
695392.795363643,5912773.25387975,2022/12/21 12:47:57,"60",53.32804108,5.934319019,29.09,false,false,false,256.96,256.96,0.01,"486","13","49","331","81","140",7.91,"100385",100.22,  10.85 m/s,210°
695387.877951732,5912772.20178752,2022/12/21 12:47:58,"61",53.32803345,5.934244633,29.11,false,false,false,257.41,257.41,0.01,"492","14","49","331","80","140",7.89,"100380",100.22,  10.85 m/s,210°
695383.055741116,5912771.15361409,2022/12/21 12:47:58,"62",53.32802582,5.934171677,29.12,false,false,false,257.79,257.79,0.01,"498","14","49","332","80","140",7.86,"100380",100.22,  10.85 m/s,210°
695378.250991444,5912769.68063803,2022/12/21 12:48:00,"63",53.32801437,5.934098721,29.12,false,false,false,257.38,257.38,0.01,"502","15","49","331","81","140",7.85,"100371",100.22,  10.85 m/s,210°
695373.446193355,5912768.20877895,2022/12/21 12:48:00,"64",53.32800293,5.934025765,29.09,false,false,false,257.04,257.04,0.01,"482","12","49","332","80","140",7.81,"100378",100.22,  10.85 m/s,210°
695368.655666402,5912767.16192295,2022/12/21 12:48:02,"65",53.3279953,5.933953285,29.07,false,false,false,257.46,257.46,0.01,"486","13","49","332","80","140",7.78,"100364",100.22,  10.85 m/s,210°
695363.81910674,5912765.68876836,2022/12/21 12:48:03,"66",53.32798386,5.933879852,29.08,false,false,false,257.48,257.48,0.01,"486","13","49","332","80","139",7.75,"100369",100.22,  10.85 m/s,210°
695358.933439,5912764.63801172,2022/12/21 12:48:04,"67",53.32797623,5.933805943,29.11,false,false,false,257.28,257.28,0.01,"492","14","49","333","80","139",7.73,"100377",100.22,  10.85 m/s,210°
695354.128676664,5912763.16506036,2022/12/21 12:48:05,"68",53.32796478,5.933732987,29.12,false,false,false,257.4,257.4,0.01,"502","15","48","333","80","140",7.71,"100381",100.22,  10.85 m/s,210°
695349.228596004,5912761.68931026,2022/12/21 12:48:06,"69",53.32795334,5.9336586,29.14,false,false,false,257.07,257.07,0.01,"492","14","48","333","80","140",7.71,"100383",100.22,  10.85 m/s,210°
695344.342855243,5912760.63856605,2022/12/21 12:48:07,"70",53.32794571,5.93358469,29.14,false,false,false,257.07,257.07,0.01,"492","14","49","333","80","140",7.71,"100383",100.22,  10.85 m/s,210°
695339.506282829,5912759.16543652,2022/12/21 12:48:08,"71",53.32793427,5.933511257,29.16,false,false,false,257.23,257.23,0.01,"496","14","48","333","80","140",7.7,"100385",100.22,  10.85 m/s,210°
695334.65229458,5912758.11600755,2022/12/21 12:48:09,"72",53.32792664,5.933437824,29.16,false,false,false,257.22,257.22,0.01,"492","14","48","333","80","140",7.69,"100382",100.22,  10.85 m/s,210°
695329.911032871,5912756.64569126,2022/12/21 12:48:10,"73",53.32791519,5.933365822,29.18,false,false,false,256.76,256.76,0.01,"486","13","49","334","80","140",7.67,"100374",100.22,  10.85 m/s,210°
695325.074452761,5912755.1725766,2022/12/21 12:48:11,"74",53.32790375,5.933292389,29.21,false,false,false,256.62,256.62,0.01,"486","13","48","332","80","139",7.63,"100385",100.22,  10.85 m/s,210°
695320.283971491,5912754.12577261,2022/12/21 12:48:12,"75",53.32789612,5.93321991,29.22,false,false,false,256.7,256.7,0.01,"482","12","48","334","80","141",7.61,"100379",100.22,  10.85 m/s,210°
695315.352162017,5912752.64764078,2022/12/21 12:48:13,"76",53.32788467,5.933145046,29.23,false,false,false,256.89,256.89,0.01,"482","12","48","333","81","139",7.59,"100381",100.22,  10.85 m/s,210°
695310.529919947,5912751.59954172,2022/12/21 12:48:13,"77",53.32787704,5.93307209,29.22,false,false,false,257.64,257.64,0.01,"482","12","48","333","80","140",7.56,"100376",100.22,  10.85 m/s,210°
695305.72508654,5912750.12775198,2022/12/21 12:48:15,"78",53.3278656,5.932999134,29.19,false,false,false,257.91,257.91,0.01,"486","13","48","333","80","140",7.54,"100364",100.22,  10.85 m/s,210°
695300.871083658,5912749.07835787,2022/12/21 12:48:16,"79",53.32785797,5.932925701,29.24,false,false,false,257.69,257.69,0.01,"480","12","48","334","80","139",7.52,"100371",100.22,  10.85 m/s,210°
695296.017078933,5912748.02896877,2022/12/21 12:48:17,"80",53.32785034,5.932852268,29.22,false,false,false,257.62,257.62,0.01,"460","9","48","333","80","140",7.49,"100367",100.22,  10.85 m/s,210°
695291.212238273,5912746.55719388,2022/12/21 12:48:18,"81",53.3278389,5.932779312,29.24,false,false,false,257.44,257.44,0.01,"475","11","47","333","80","139",7.49,"100366",100.22,  10.85 m/s,210°
695286.280480224,5912745.07909532,2022/12/21 12:48:18,"82",53.32782745,5.932704449,29.24,false,false,false,257.7,257.7,0.01,"477","11","47","333","79","140",7.47,"100359",100.22,  10.85 m/s,210°
695281.394712334,5912744.0284165,2022/12/21 12:48:20,"83",53.32781982,5.932630539,29.28,false,false,false,257.61,257.61,0.01,"486","13","47","333","79","139",7.47,"100372",100.22,  10.85 m/s,210°
695276.526350439,5912742.55404708,2022/12/21 12:48:21,"84",53.32780838,5.932556629,29.28,false,false,false,257.4,257.4,0.01,"496","14","47","334","80","140",7.47,"100376",100.22,  10.85 m/s,210°
695271.672335157,5912741.50468311,2022/12/21 12:48:22,"85",53.32780075,5.932483196,29.27,false,false,false,257.89,257.89,0.01,"482","12","48","333","80","139",7.47,"100362",100.22,  10.85 m/s,210°
695266.899238545,5912740.03423783,2022/12/21 12:48:23,"86",53.32778931,5.932410717,29.26,false,false,false,257.9,257.9,0.01,"480","12","47","334","80","139",7.46,"100360",100.22,  10.85 m/s,210°
695262.140489478,5912738.98879775,2022/12/21 12:48:24,"87",53.32778168,5.932338715,29.24,false,false,false,258.3,258.3,0.01,"480","12","47","333","80","139",7.45,"100356",100.22,  10.85 m/s,210°
695257.33567684,5912737.51594548,2022/12/21 12:48:25,"88",53.32777023,5.932265759,29.26,false,false,false,257.74,257.74,0.01,"480","12","47","335","80","139",7.44,"100361",100.22,  10.85 m/s,210°
695252.51334356,5912736.46790316,2022/12/21 12:48:26,"89",53.3277626,5.932192802,29.29,false,false,false,257.49,257.49,0.01,"482","12","47","334","79","140",7.42,"100357",100.22,  10.85 m/s,210°
695247.708480268,5912734.99617281,2022/12/21 12:48:27,"90",53.32775116,5.932119846,29.29,false,false,false,257.93,257.93,0.01,"475","11","47","334","80","139",7.4,"100349",100.22,  10.85 m/s,210°
695242.871857464,5912733.52314286,2022/12/21 12:48:28,"91",53.32773972,5.932046413,29.31,false,false,false,257.57,257.57,0.01,"475","11","47","334","79","140",7.38,"100356",100.22,  10.85 m/s,210°
695237.986137336,5912732.47251186,2022/12/21 12:48:29,"92",53.32773209,5.931972504,29.37,false,false,false,256.62,256.62,0.01,"470","10","47","334","79","139",7.37,"100370",100.22,  10.85 m/s,210°
695233.117798376,5912730.99707541,2022/12/21 12:48:30,"93",53.32772064,5.931898594,29.37,false,false,false,256.81,256.81,0.01,"477","11","47","332","79","140",7.37,"100377",100.22,  10.85 m/s,210°
695228.249410996,5912729.52275607,2022/12/21 12:48:31,"94",53.3277092,5.931824684,29.38,false,false,false,256.59,256.59,0.01,"492","14","47","335","80","140",7.37,"100377",100.22,  10.85 m/s,210°
695223.317619445,5912728.04472368,2022/12/21 12:48:32,"95",53.32769775,5.931749821,29.4,false,false,false,257.38,257.38,0.01,"480","12","47","334","79","139",7.35,"100366",100.22,  10.85 m/s,210°
695218.273106309,5912726.98759121,2022/12/21 12:48:33,"96",53.32769012,5.931673527,29.35,false,false,false,258.35,258.35,0.01,"480","12","47","334","79","140",7.34,"100358",100.22,  10.85 m/s,210°
695213.450776992,5912725.94070375,2022/12/21 12:48:34,"97",53.3276825,5.931600571,29.33,false,false,false,258.03,258.03,0.01,"477","11","47","335","79","140",7.34,"100368",100.22,  10.85 m/s,210°
695208.741142918,5912724.47181147,2022/12/21 12:48:35,"98",53.32767105,5.931529045,29.36,false,false,false,257.89,257.89,0.01,"482","12","47","335","80","139",7.34,"100370",100.22,  10.85 m/s,210°
695203.696623677,5912723.41469463,2022/12/21 12:48:36,"99",53.32766342,5.931452751,29.37,false,false,false,257.69,257.69,0.01,"492","14","47","334","79","139",7.35,"100365",100.22,  10.85 m/s,210°
695198.891734905,5912721.94301426,2022/12/21 12:48:37,"100",53.32765198,5.931379795,29.36,false,false,false,258.07,258.07,0.01,"480","12","46","333","79","139",7.34,"100363",100.22,  10.85 m/s,210°
695194.037686159,5912720.89373041,2022/12/21 12:48:38,"101",53.32764435,5.931306362,29.38,false,false,false,256.98,256.98,0.01,"480","12","47","335","79","139",7.34,"100370",100.22,  10.85 m/s,210°
695189.691612699,5912719.86531272,2022/12/21 12:48:39,"102",53.32763672,5.931240559,29.43,false,false,false,263.56,263.56,0.01,"486","13","47","335","79","140",7.35,"100380",100.22,  10.85 m/s,210°
695185.30753817,5912720.53520779,2022/12/21 12:48:40,"103",53.32764435,5.931175232,29.4,false,false,false,296.63,296.63,0.01,"496","14","47","336","79","140",7.38,"100405",91.83,  10.85 m/s,210°
695182.088807947,5912723.802766,2022/12/21 12:48:41,"104",53.32767487,5.931128979,29.27,false,false,false,330.17,330.17,0.01,"514","17","47","335","80","140",7.43,"100419",91.83,  10.85 m/s,210°
695180.70827152,5912727.99463255,2022/12/21 12:48:42,"105",53.32771301,5.931110859,29.1,false,false,false,346.12,346.12,0.01,"530","19","47","335","79","140",7.51,"100424",91.83,  10.85 m/s,210°
695180.534050762,5912732.23715102,2022/12/21 12:48:43,"106",53.32775116,5.931110859,29,false,false,false,2.65,2.65,0.01,"498","14","47","334","80","141",7.56,"100432",91.83,  10.85 m/s,210°
695182.042340077,5912736.54876283,2022/12/21 12:48:44,"107",53.32778931,5.931136131,28.91,false,false,false,31.42,31.42,0.01,"523","18","48","335","79","141",7.62,"100443",91.83,  10.85 m/s,210°
695184.98550288,5912739.21831707,2022/12/21 12:48:45,"108",53.32781219,5.931181908,28.88,false,false,false,58.48,58.48,0.01,"530","19","47","334","79","141",7.66,"100462",91.83,  10.85 m/s,210°
695188.679177926,5912740.64546364,2022/12/21 12:48:46,"109",53.32782364,5.931238174,28.89,false,false,false,75.64,75.64,0.01,"534","20","47","335","80","140",7.73,"100466",91.83,  10.85 m/s,210°
695192.693553705,5912741.23473509,2022/12/21 12:48:47,"110",53.32782745,5.931298733,28.91,false,false,false,77.13,77.13,0.01,"552","23","47","335","79","140",7.77,"100468",91.83,  10.85 m/s,210°
695197.134876977,5912742.26706866,2022/12/21 12:48:48,"111",53.32783508,5.931365967,28.91,false,false,false,76.99,76.99,0.01,"537","20","48","335","79","140",7.84,"100468",91.83,  10.85 m/s,210°
695201.988903008,5912743.31635621,2022/12/21 12:48:48,"112",53.32784271,5.9314394,28.91,false,false,false,77.27,77.27,0.01,"537","20","48","334","79","140",7.91,"100467",91.83,  10.85 m/s,210°
695206.984196931,5912744.79697529,2022/12/21 12:48:48,"113",53.32785416,5.931515217,28.93,false,false,false,77.36,77.36,0.01,"543","21","48","334","79","140",7.97,"100460",91.83,  10.85 m/s,210°
695212.028692564,5912745.85409617,2022/12/21 12:48:48,"114",53.32786179,5.931591511,28.93,false,false,false,77.44,77.44,0.01,"548","22","48","334","79","140",8.03,"100463",91.83,  10.85 m/s,210°
695216.960513554,5912747.33100516,2022/12/21 12:48:52,"115",53.32787323,5.931666374,28.95,false,false,false,77.58,77.58,0.01,"567","25","48","334","79","140",8.07,"100464",91.83,  10.85 m/s,210°
695221.751084408,5912748.37770713,2022/12/21 12:48:52,"116",53.32788086,5.931738854,28.94,false,false,false,77.45,77.45,0.01,"552","23","49","335","79","140",8.11,"100460",91.83,  10.85 m/s,210°
695226.619386946,5912749.85201751,2022/12/21 12:48:52,"117",53.3278923,5.931812763,28.95,false,false,false,77.64,77.64,0.01,"552","23","48","335","79","140",8.15,"100461",91.83,  10.85 m/s,210°
695231.392504151,5912751.32353711,2022/12/21 12:48:52,"118",53.32790375,5.931885243,28.95,false,false,false,77.57,77.57,0.01,"548","22","49","334","79","139",8.2,"100459",91.83,  10.85 m/s,210°
695236.309962244,5912752.37546624,2022/12/21 12:48:56,"119",53.32791138,5.931959629,28.94,false,false,false,77.34,77.34,0.01,"552","23","49","335","79","140",8.25,"100460",91.83,  10.85 m/s,210°
695240.956093463,5912753.84066559,2022/12/21 12:48:57,"120",53.32792282,5.932030201,28.93,false,false,false,77.31,77.31,0.01,"567","25","48","334","79","140",8.28,"100460",91.83,  10.85 m/s,210°
695245.746587333,5912754.88738927,2022/12/21 12:48:58,"121",53.32793045,5.93210268,28.93,false,false,false,77.52,77.52,0.01,"561","24","49","335","79","140",8.3,"100464",91.83,  10.85 m/s,210°
695250.519740347,5912756.35781627,2022/12/21 12:48:59,"122",53.32794189,5.93217516,28.93,false,false,false,77.27,77.27,0.01,"561","24","49","334","79","139",8.32,"100462",91.83,  10.85 m/s,210°
695255.43719018,5912757.40976539,2022/12/21 12:49:00,"123",53.32794952,5.932249546,28.95,false,false,false,77.21,77.21,0.01,"561","24","49","335","79","140",8.34,"100461",91.83,  10.85 m/s,210°
695260.273739245,5912758.88392086,2022/12/21 12:49:01,"124",53.32796097,5.932322979,28.95,false,false,false,77.19,77.19,0.01,"561","24","49","334","79","140",8.37,"100467",91.83,  10.85 m/s,210°
695265.173844543,5912760.35957861,2022/12/21 12:49:02,"125",53.32797241,5.932397366,28.97,false,false,false,77.17,77.17,0.01,"572","26","49","334","79","140",8.4,"100464",91.83,  10.85 m/s,210°
695270.027841215,5912761.40893638,2022/12/21 12:49:03,"126",53.32798004,5.932470799,28.97,false,false,false,77.49,77.49,0.01,"572","26","49","334","79","139",8.42,"100459",91.83,  10.85 m/s,210°
695274.864315961,5912762.88310415,2022/12/21 12:49:04,"127",53.32799149,5.932544231,28.98,false,false,false,77.39,77.39,0.01,"561","24","48","334","79","140",8.42,"100454",91.83,  10.85 m/s,210°
695279.845334954,5912763.93769102,2022/12/21 12:49:05,"128",53.32799912,5.932619572,28.98,false,false,false,77.35,77.35,0.01,"567","25","49","334","79","140",8.44,"100464",91.83,  10.85 m/s,210°
695284.777120158,5912765.41467126,2022/12/21 12:49:06,"129",53.32801056,5.932694435,28.99,false,false,false,77.54,77.54,0.01,"567","25","48","334","79","140",8.48,"100461",91.83,  10.85 m/s,210°
695289.662865132,5912766.4653541,2022/12/21 12:49:07,"130",53.32801819,5.932768345,28.98,false,false,false,77.33,77.33,0.01,"572","26","48","333","78","140",8.5,"100461",91.83,  10.85 m/s,210°
695294.531198652,5912767.93973765,2022/12/21 12:49:08,"131",53.32802963,5.932842255,29,false,false,false,77.22,77.22,0.01,"580","27","48","334","78","139",8.52,"100461",91.83,  10.85 m/s,210°
695299.240700847,5912769.40871379,2022/12/21 12:49:09,"132",53.32804108,5.93291378,29,false,false,false,77.22,77.22,0.01,"561","24","49","334","78","139",8.52,"100457",91.83,  10.85 m/s,210°
695304.045515796,5912770.88049741,2022/12/21 12:49:10,"133",53.32805252,5.932986736,29,false,false,false,77.35,77.35,0.01,"561","24","48","334","79","140",8.52,"100455",91.83,  10.85 m/s,210°
695308.963008629,5912771.93250524,2022/12/21 12:49:11,"134",53.32806015,5.933061123,28.98,false,false,false,77.52,77.52,0.01,"561","24","49","333","79","140",8.55,"100465",91.83,  10.85 m/s,210°
695313.816986481,5912772.9819082,2022/12/21 12:49:12,"135",53.32806778,5.933134556,28.99,false,false,false,77.59,77.59,0.01,"561","24","49","334","79","139",8.58,"100466",91.83,  10.85 m/s,210°
695318.685307254,5912774.4563168,2022/12/21 12:49:13,"136",53.32807922,5.933208466,29,false,false,false,77.3,77.3,0.01,"575","26","49","334","79","139",8.6,"100466",91.83,  10.85 m/s,210°
695323.553513012,5912775.93183979,2022/12/21 12:49:14,"137",53.32809067,5.933282375,29.02,false,false,false,77.43,77.43,0.01,"555","23","49","334","79","140",8.62,"100462",91.83,  10.85 m/s,210°
695328.280524891,5912776.97604014,2022/12/21 12:49:15,"138",53.3280983,5.933353901,29.02,false,false,false,77.54,77.54,0.01,"555","23","48","333","79","139",8.63,"100466",91.83,  10.85 m/s,210°
695333.117081411,5912778.44915862,2022/12/21 12:49:16,"139",53.32810974,5.933427334,29.03,false,false,false,77.66,77.66,0.01,"567","25","48","333","79","139",8.65,"100460",91.83,  10.85 m/s,210°
695337.90753571,5912779.49597618,2022/12/21 12:49:17,"140",53.32811737,5.933499813,29.04,false,false,false,77.03,77.03,0.01,"555","23","48","333","79","139",8.63,"100463",91.83,  10.85 m/s,210°
695342.871046701,5912780.97432264,2022/12/21 12:49:18,"141",53.32812881,5.933575153,29.05,false,false,false,77.39,77.39,0.01,"561","24","48","333","79","139",8.64,"100461",91.83,  10.85 m/s,210°
695347.693253394,5912782.02245536,2022/12/21 12:49:18,"142",53.32813644,5.933648109,29.03,false,false,false,77.45,77.45,0.01,"561","24","48","333","78","139",8.66,"100463",91.83,  10.85 m/s,210°
695352.62502367,5912783.5006217,2022/12/21 12:49:20,"143",53.32814789,5.933722973,29.03,false,false,false,77.36,77.36,0.01,"572","26","48","333","79","139",8.67,"100460",91.83,  10.85 m/s,210°
695357.415469754,5912784.54745913,2022/12/21 12:49:20,"144",53.32815552,5.933795452,29.05,false,false,false,77.42,77.42,0.01,"567","25","48","334","79","138",8.68,"100464",91.83,  10.85 m/s,210°
695362.283767726,5912786.02191295,2022/12/21 12:49:20,"145",53.32816696,5.933869362,29.05,false,false,false,77.55,77.55,0.01,"552","23","48","333","78","139",8.69,"100461",91.83,  10.85 m/s,210°
695367.12026078,5912787.49617854,2022/12/21 12:49:20,"146",53.32817841,5.933942795,29.06,false,false,false,77.4,77.4,0.01,"555","23","48","333","79","138",8.7,"100461",91.83,  10.85 m/s,210°
695371.942456973,5912788.54433613,2022/12/21 12:49:24,"147",53.32818604,5.934015751,29.06,false,false,false,77.51,77.51,0.01,"555","23","48","334","78","139",8.72,"100463",91.83,  10.85 m/s,210°
695376.778990744,5912790.0174996,2022/12/21 12:49:24,"148",53.32819748,5.934089184,29.04,false,false,false,77.69,77.69,0.01,"561","24","48","334","79","140",8.73,"100466",91.83,  10.85 m/s,210°
695381.664695726,5912791.06827801,2022/12/21 12:49:24,"149",53.32820511,5.934163094,29.06,false,false,false,77.71,77.71,0.01,"567","25","48","333","79","140",8.75,"100463",91.83,  10.85 m/s,210°
695386.46946805,5912792.54014601,2022/12/21 12:49:24,"150",53.32821655,5.93423605,29.08,false,false,false,77.47,77.47,0.01,"555","23","48","334","78","139",8.76,"100462",91.83,  10.85 m/s,210°
695391.418615178,5912793.5935428,2022/12/21 12:49:28,"151",53.32822418,5.934310913,29.06,false,false,false,77.35,77.35,0.01,"552","23","47","333","78","139",8.77,"100466",91.83,  10.85 m/s,210°
695396.128134088,5912795.06261891,2022/12/21 12:49:29,"152",53.32823563,5.934382439,29.07,false,false,false,77.78,77.78,0.01,"552","23","47","333","78","139",8.77,"100468",91.83,  10.85 m/s,210°
695400.869385906,5912796.53189054,2022/12/21 12:49:30,"153",53.32824707,5.934454441,29.05,false,false,false,77.3,77.3,0.01,"555","23","47","332","78","138",8.77,"100473",91.83,  10.85 m/s,210°
695405.723323935,5912797.58138836,2022/12/21 12:49:31,"154",53.3282547,5.934527874,29.05,false,false,false,77.26,77.26,0.01,"567","25","48","333","78","139",8.77,"100472",91.83,  10.85 m/s,210°
695410.528083618,5912799.05328099,2022/12/21 12:49:32,"155",53.32826614,5.93460083,29.05,false,false,false,77.49,77.49,0.01,"548","22","48","333","78","139",8.77,"100469",91.83,  10.85 m/s,210°
695415.49151024,5912800.53281631,2022/12/21 12:49:33,"156",53.32827759,5.93467617,29.06,false,false,false,77.49,77.49,0.01,"548","22","47","333","78","139",8.77,"100467",91.83,  10.85 m/s,210°
695420.345441842,5912801.58232922,2022/12/21 12:49:34,"157",53.32828522,5.934749603,29.05,false,false,false,77.67,77.67,0.01,"543","21","47","332","79","139",8.77,"100470",91.83,  10.85 m/s,210°
695425.231127976,5912802.63315289,2022/12/21 12:49:35,"158",53.32829285,5.934823513,29.07,false,false,false,77.53,77.53,0.01,"548","22","47","333","78","139",8.77,"100465",91.83,  10.85 m/s,210°
695430.067634015,5912804.10637128,2022/12/21 12:49:36,"159",53.32830429,5.934896946,29.08,false,false,false,77.58,77.58,0.01,"561","24","47","333","78","139",8.78,"100464",91.83,  10.85 m/s,210°
695434.953316002,5912805.15720505,2022/12/21 12:49:37,"160",53.32831192,5.934970856,29.08,false,false,false,77.5,77.5,0.01,"552","23","47","333","79","139",8.78,"100464",91.83,  10.85 m/s,210°
695439.789817029,5912806.63043345,2022/12/21 12:49:38,"161",53.32832336,5.935044289,29.09,false,false,false,77.67,77.67,0.01,"548","22","47","333","78","139",8.79,"100463",91.83,  10.85 m/s,210°
695444.548469492,5912807.67605378,2022/12/21 12:49:39,"162",53.32833099,5.935116291,29.08,false,false,false,77.29,77.29,0.01,"555","23","47","333","78","139",8.79,"100464",91.83,  10.85 m/s,210°
695449.353163478,5912809.14909822,2022/12/21 12:49:40,"163",53.32834244,5.935189247,29.09,false,false,false,77.05,77.05,0.01,"555","23","47","333","78","138",8.77,"100467",91.83,  10.85 m/s,210°
695454.25316947,5912810.62495337,2022/12/21 12:49:41,"164",53.32835388,5.935263634,29.08,false,false,false,77.25,77.25,0.01,"567","25","47","333","79","139",8.77,"100468",91.83,  10.85 m/s,210°
695459.107084571,5912811.67450628,2022/12/21 12:49:42,"165",53.32836151,5.935337067,29.09,false,false,false,77.51,77.51,0.01,"561","24","47","333","78","139",8.77,"100469",91.83,  10.85 m/s,210°
695463.975216892,5912813.15017492,2022/12/21 12:49:43,"166",53.32837296,5.935410976,29.09,false,false,false,77.77,77.77,0.01,"552","23","48","333","78","139",8.76,"100472",91.83,  10.85 m/s,210°
695468.240288773,5912814.59993266,2022/12/21 12:49:44,"167",53.3283844,5.935475826,29.11,false,false,false,73.73,73.73,0.01,"548","22","47","333","79","139",8.74,"100466",91.83,  10.85 m/s,210°
695471.803845354,5912816.8707806,2022/12/21 12:49:45,"168",53.32840347,5.935530663,29.15,false,false,false,43.98,43.98,0.01,"555","23","48","334","78","140",8.74,"100462",91.83,  10.85 m/s,210°
695473.389618946,5912821.61010263,2022/12/21 12:49:46,"169",53.32844543,5.935557365,29.25,false,false,false,9.17,9.17,0.01,"567","25","47","331","79","140",8.73,"100439",91.83,  10.85 m/s,210°
695472.675475796,5912825.83042158,2022/12/21 12:49:47,"170",53.32848358,5.935549259,29.41,false,false,false,346.89,346.89,0.01,"561","24","48","334","78","140",8.73,"100434",91.83,  10.85 m/s,210°
695470.913711821,5912830.00765415,2022/12/21 12:49:48,"171",53.32852173,5.935525417,29.54,false,false,false,335.29,335.29,0.01,"548","22","48","334","78","140",8.72,"100419",91.83,  10.85 m/s,210°
695467.521840269,5912832.84238128,2022/12/21 12:49:49,"172",53.32854843,5.935476303,29.63,false,false,false,302.87,302.87,0.01,"555","23","48","334","78","140",8.74,"100406",91.83,  10.85 m/s,210°
695463.437836962,5912833.94988369,2022/12/21 12:49:50,"173",53.32855988,5.935415745,29.64,false,false,false,275.1,275.1,0.01,"543","21","48","333","79","140",8.65,"100392",100.22,  10.85 m/s,210°
695459.709343991,5912833.37102019,2022/12/21 12:49:51,"174",53.32855606,5.935359478,29.63,false,false,false,259.12,259.12,0.01,"530","19","48","333","79","139",8.55,"100378",100.22,  10.85 m/s,210°
695455.730026468,5912831.93302066,2022/12/21 12:49:52,"175",53.32854462,5.93529892,29.64,false,false,false,257.88,257.88,0.01,"537","20","48","333","78","140",8.44,"100376",100.22,  10.85 m/s,210°
695451.511056004,5912830.90958112,2022/12/21 12:49:53,"176",53.32853699,5.935235024,29.65,false,false,false,257.96,257.96,0.01,"523","18","48","334","78","139",8.36,"100385",100.22,  10.85 m/s,210°
695446.833343387,5912829.44175481,2022/12/21 12:49:54,"177",53.32852554,5.935163975,29.61,false,false,false,257.22,257.22,0,"514","17","47","333","78","140",8.29,"100385",100.22,  10.85 m/s,210°
695441.965111732,5912827.96721276,2022/12/21 12:49:55,"178",53.3285141,5.935090065,29.63,false,false,false,257.03,257.03,0,"506","16","47","332","78","140",8.22,"100385",100.22,  10.85 m/s,210°
695436.906406607,5912826.4848435,2022/12/21 12:49:56,"179",53.32850266,5.935013294,29.62,false,false,false,257.39,257.39,0,"514","17","47","333","78","139",8.15,"100372",100.22,  10.85 m/s,210°
695432.020813828,5912825.43400993,2022/12/21 12:49:57,"180",53.32849503,5.934939385,29.6,false,false,false,256.94,256.94,0,"519","18","47","333","78","140",8.08,"100385",100.22,  10.85 m/s,210°
695427.247822194,5912823.96228575,2022/12/21 12:49:58,"181",53.32848358,5.934866905,29.58,false,false,false,257.04,257.04,0,"502","15","47","333","78","140",8.03,"100379",100.22,  10.85 m/s,210°
695422.298712802,5912822.90885075,2022/12/21 12:49:59,"182",53.32847595,5.934792042,29.55,false,false,false,257.07,257.07,0,"496","14","47","333","78","140",7.97,"100372",100.22,  10.85 m/s,210°
695417.620939205,5912821.44216563,2022/12/21 12:50:00,"183",53.32846451,5.934720993,29.53,false,false,false,257.35,257.35,0,"496","14","47","333","78","139",7.91,"100375",100.22,  10.85 m/s,210°
695412.671825654,5912820.38874075,2022/12/21 12:50:01,"184",53.32845688,5.93464613,29.52,false,false,false,256.96,256.96,0,"496","14","47","333","78","140",7.85,"100376",100.22,  10.85 m/s,210°
695407.962336609,5912818.91964754,2022/12/21 12:50:01,"185",53.32844543,5.934574604,29.52,false,false,false,256.88,256.88,0,"486","13","46","333","78","139",7.8,"100384",100.22,  10.85 m/s,210°
695403.094084403,5912817.44514581,2022/12/21 12:50:03,"186",53.32843399,5.934500694,29.54,false,false,false,257.11,257.11,0,"498","14","46","333","78","139",7.75,"100374",100.22,  10.85 m/s,210°
695398.208476929,5912816.39434737,2022/12/21 12:50:04,"187",53.32842636,5.934426785,29.5,false,false,false,257.1,257.1,0,"486","13","47","334","78","139",7.71,"100373",100.22,  10.85 m/s,210°
695393.371975976,5912814.92116131,2022/12/21 12:50:04,"188",53.32841492,5.934353352,29.48,false,false,false,257.13,257.13,0,"486","13","46","333","78","140",7.66,"100377",100.22,  10.85 m/s,210°
695388.391028897,5912813.8664537,2022/12/21 12:50:06,"189",53.32840729,5.934278011,29.47,false,false,false,257.3,257.3,0,"480","12","46","333","78","139",7.62,"100376",100.22,  10.85 m/s,210°
695383.681593836,5912812.39738759,2022/12/21 12:50:06,"190",53.32839584,5.934206486,29.46,false,false,false,256.8,256.8,0,"486","13","46","334","78","139",7.59,"100381",100.22,  10.85 m/s,210°
695378.84508516,5912810.9242165,2022/12/21 12:50:08,"191",53.3283844,5.934133053,29.48,false,false,false,256.71,256.71,0,"482","12","46","334","78","138",7.56,"100387",100.22,  10.85 m/s,210°
695373.800685511,5912809.86691619,2022/12/21 12:50:08,"192",53.32837677,5.934056759,29.46,false,false,false,256.89,256.89,0,"480","12","46","334","77","139",7.52,"100388",100.22,  10.85 m/s,210°
695368.995928106,5912808.39506066,2022/12/21 12:50:10,"193",53.32836533,5.933983803,29.46,false,false,false,256.57,256.57,0,"463","9","46","334","78","140",7.49,"100393",100.22,  10.85 m/s,210°
695364.095944698,5912806.91818195,2022/12/21 12:50:11,"194",53.32835388,5.933909416,29.43,false,false,false,257.03,257.03,0,"477","11","47","333","77","140",7.46,"100387",100.22,  10.85 m/s,210°
695359.242009938,5912805.8687266,2022/12/21 12:50:12,"195",53.32834625,5.933835983,29.4,false,false,false,257.22,257.22,0,"486","13","46","334","78","139",7.44,"100388",100.22,  10.85 m/s,210°
695354.405488472,5912804.39558069,2022/12/21 12:50:13,"196",53.32833481,5.93376255,29.4,false,false,false,256.9,256.9,0.01,"498","14","46","333","78","140",7.41,"100388",100.22,  10.85 m/s,210°
695349.519859803,5912803.34483283,2022/12/21 12:50:14,"197",53.32832718,5.933688641,29.39,false,false,false,256.72,256.72,0.01,"480","12","46","334","78","139",7.4,"100398",100.22,  10.85 m/s,210°
695344.715135401,5912801.87189009,2022/12/21 12:50:15,"198",53.32831573,5.933615685,29.37,false,false,false,256.89,256.89,0.01,"477","11","46","334","78","139",7.39,"100387",100.22,  10.85 m/s,210°
695340.083308155,5912800.83269761,2022/12/21 12:50:16,"199",53.32830811,5.933545589,29.33,false,false,false,257.61,257.61,0.01,"482","12","46","334","78","139",7.36,"100381",100.22,  10.85 m/s,210°
695335.102404398,5912799.77804917,2022/12/21 12:50:17,"200",53.32830048,5.933470249,29.32,false,false,false,257.83,257.83,0.01,"482","12","46","332","78","139",7.35,"100377",100.22,  10.85 m/s,210°
695330.297672767,5912798.30512119,2022/12/21 12:50:18,"201",53.32828903,5.933397293,29.31,false,false,false,258.16,258.16,0.01,"496","14","46","334","78","140",7.34,"100376",100.22,  10.85 m/s,210°
695325.443723813,5912797.25570071,2022/12/21 12:50:19,"202",53.3282814,5.93332386,29.29,false,false,false,257.91,257.91,0.01,"482","12","46","334","78","140",7.33,"100371",100.22,  10.85 m/s,210°
695320.6389415,5912795.78389468,2022/12/21 12:50:20,"203",53.32826996,5.933250904,29.32,false,false,false,257.75,257.75,0.01,"482","12","46","334","77","139",7.33,"100367",100.22,  10.85 m/s,210°
695315.738999517,5912794.30706918,2022/12/21 12:50:21,"204",53.32825851,5.933176518,29.31,false,false,false,257.31,257.31,0.01,"482","12","46","334","77","140",7.33,"100379",100.22,  10.85 m/s,210°
695310.916688296,5912793.26007805,2022/12/21 12:50:22,"205",53.32825089,5.933103561,29.28,false,false,false,257.29,257.29,0.01,"486","13","46","334","78","139",7.31,"100376",100.22,  10.85 m/s,210°
695306.048497698,5912791.78456766,2022/12/21 12:50:23,"206",53.32823944,5.933029652,29.28,false,false,false,256.92,256.92,0.01,"496","14","46","334","77","140",7.31,"100383",100.22,  10.85 m/s,210°
695301.194538205,5912790.73517221,2022/12/21 12:50:24,"207",53.32823181,5.932956219,29.24,false,false,false,257.07,257.07,0.01,"486","13","46","335","78","139",7.3,"100380",100.22,  10.85 m/s,210°
695296.453189512,5912789.26599805,2022/12/21 12:50:25,"208",53.32822037,5.932884216,29.23,false,false,false,257.04,257.04,0.01,"480","12","46","334","78","139",7.3,"100386",100.22,  10.85 m/s,210°
695291.553234728,5912787.78919781,2022/12/21 12:50:26,"209",53.32820892,5.93280983,29.2,false,false,false,257.72,257.72,0.01,"482","12","46","334","77","139",7.29,"100384",100.22,  10.85 m/s,210°
695286.540553107,5912786.73329594,2022/12/21 12:50:27,"210",53.32820129,5.932734013,29.2,false,false,false,257.05,257.05,0.01,"486","13","45","335","78","139",7.31,"100386",100.22,  10.85 m/s,210°
695281.799196727,5912785.26413659,2022/12/21 12:50:28,"211",53.32818985,5.93266201,29.21,false,false,false,256.86,256.86,0.01,"492","14","45","334","78","139",7.31,"100388",100.22,  10.85 m/s,210°
695276.786510892,5912784.20824511,2022/12/21 12:50:29,"212",53.32818222,5.932586193,29.18,false,false,false,257.16,257.16,0.01,"498","14","45","333","78","139",7.31,"100381",100.22,  10.85 m/s,210°
695272.140418994,5912782.74300979,2022/12/21 12:50:30,"213",53.32817078,5.932515621,29.16,false,false,false,257.05,257.05,0.01,"486","13","45","333","77","140",7.32,"100385",100.22,  10.85 m/s,210°
695267.254688353,5912781.69234465,2022/12/21 12:50:31,"214",53.32816315,5.932441711,29.16,false,false,false,257.4,257.4,0.01,"482","12","45","333","77","139",7.31,"100385",100.22,  10.85 m/s,210°
695262.576947352,5912780.22470477,2022/12/21 12:50:31,"215",53.3281517,5.932370663,29.14,false,false,false,257.24,257.24,0.01,"480","12","45","334","78","139",7.31,"100389",100.22,  10.85 m/s,210°
695257.613349449,5912778.74643997,2022/12/21 12:50:33,"216",53.32814026,5.932295322,29.13,false,false,false,257.04,257.04,0.01,"482","12","44","333","77","139",7.3,"100385",100.22,  10.85 m/s,210°
695252.822881924,5912777.6997037,2022/12/21 12:50:33,"217",53.32813263,5.932222843,29.13,false,false,false,256.54,256.54,0.01,"496","14","45","335","77","139",7.29,"100391",100.22,  10.85 m/s,210°
695247.891102039,5912776.22275651,2022/12/21 12:50:35,"218",53.32812119,5.93214798,29.1,false,false,false,256.78,256.78,0.01,"480","12","45","335","77","139",7.29,"100390",100.22,  10.85 m/s,210°
695243.118081157,5912774.75122236,2022/12/21 12:50:36,"219",53.32810974,5.932075501,29.07,false,false,false,256.73,256.73,0.01,"480","12","46","334","77","139",7.27,"100394",100.22,  10.85 m/s,210°
695238.200581118,5912773.69928287,2022/12/21 12:50:37,"220",53.32810211,5.932001114,29.07,false,false,false,256.6,256.6,0.01,"480","12","46","334","77","139",7.26,"100395",100.22,  10.85 m/s,210°
695233.363996482,5912772.2262617,2022/12/21 12:50:38,"221",53.32809067,5.931927681,29.08,false,false,false,256.53,256.53,0.01,"482","12","45","334","78","138",7.26,"100396",100.22,  10.85 m/s,210°
695228.573518498,5912771.17955014,2022/12/21 12:50:39,"222",53.32808304,5.931855202,29.06,false,false,false,256.96,256.96,0.01,"477","11","45","334","77","139",7.25,"100392",100.22,  10.85 m/s,210°
695224.022650487,5912769.71716097,2022/12/21 12:50:40,"223",53.32807159,5.93178606,29.02,false,false,false,257.77,257.77,0.01,"477","11","46","334","78","140",7.22,"100392",100.22,  10.85 m/s,210°
695218.978182485,5912768.66002671,2022/12/21 12:50:41,"224",53.32806396,5.931709766,28.99,false,false,false,257.53,257.53,0.01,"482","12","46","334","78","140",7.21,"100387",100.22,  10.85 m/s,210°
695214.109897885,5912767.18572374,2022/12/21 12:50:42,"225",53.32805252,5.931635857,28.99,false,false,false,257.75,257.75,0.01,"492","14","45","335","77","139",7.21,"100375",100.22,  10.85 m/s,210°
695209.192385391,5912766.13381458,2022/12/21 12:50:43,"226",53.32804489,5.93156147,28.96,false,false,false,257.69,257.69,0.01,"482","12","45","334","77","139",7.21,"100380",100.22,  10.85 m/s,210°
695204.306627621,5912765.08321482,2022/12/21 12:50:44,"227",53.32803726,5.93148756,28.96,false,false,false,257.57,257.57,0.01,"482","12","46","333","77","139",7.2,"100387",100.22,  10.85 m/s,210°
695199.470025706,5912763.61022857,2022/12/21 12:50:45,"228",53.32802582,5.931414127,28.95,false,false,false,257.38,257.38,0.01,"486","13","46","334","78","140",7.21,"100385",100.22,  10.85 m/s,210°
695194.633466742,5912762.13613525,2022/12/21 12:50:46,"229",53.32801437,5.931340694,28.94,false,false,false,257.37,257.37,0.01,"492","14","46","334","77","139",7.2,"100391",100.22,  10.85 m/s,210°
695189.779525727,5912761.08685753,2022/12/21 12:50:47,"230",53.32800674,5.931267262,28.95,false,false,false,256.7,256.7,0.01,"502","15","46","335","78","140",7.2,"100392",100.22,  10.85 m/s,210°
695184.974606139,5912759.61518766,2022/12/21 12:50:48,"231",53.3279953,5.931194305,28.92,false,false,false,256.8,256.8,0.01,"486","13","46","334","77","140",7.19,"100389",100.22,  10.85 m/s,210°
695180.596810766,5912758.58547334,2022/12/21 12:50:49,"232",53.32798767,5.931128025,28.95,false,false,false,261.05,261.05,0.01,"492","14","46","335","77","140",7.18,"100403",91.83,  10.85 m/s,210°
695176.14932637,5912759.25277056,2022/12/21 12:50:50,"233",53.3279953,5.931061745,28.95,false,false,false,293.68,293.68,0.01,"498","14","46","335","77","140",7.19,"100397",100.22,  10.85 m/s,210°
695172.771843109,5912762.51381408,2022/12/21 12:50:51,"234",53.32802582,5.931013107,28.92,false,false,false,329.05,329.05,0.01,"514","17","46","335","77","141",7.24,"100430",91.83,  10.85 m/s,210°
695171.359632654,5912766.70438177,2022/12/21 12:50:52,"235",53.32806396,5.930994511,28.88,false,false,false,346.51,346.51,0.01,"537","20","46","335","77","141",7.31,"100434",91.83,  10.85 m/s,210°
695170.977501017,5912771.3638869,2022/12/21 12:50:53,"236",53.32810593,5.93099165,28.87,false,false,false,2.26,2.26,0.01,"530","19","46","335","78","140",7.37,"100440",91.83,  10.85 m/s,210°
695172.408024142,5912775.24677861,2022/12/21 12:50:54,"237",53.32814026,5.931015492,28.88,false,false,false,30.73,30.73,0.01,"534","20","47","335","77","141",7.4,"100454",91.83,  10.85 m/s,210°
695175.351053564,5912777.91743675,2022/12/21 12:50:55,"238",53.32816315,5.931061268,28.93,false,false,false,58.07,58.07,0.01,"537","20","47","335","78","141",7.43,"100458",91.83,  10.85 m/s,210°
695179.076568577,5912779.34477128,2022/12/21 12:50:56,"239",53.32817459,5.931118012,28.97,false,false,false,75.62,75.62,0.01,"548","22","47","335","77","140",7.49,"100461",91.83,  10.85 m/s,210°
695183.168602862,5912780.36275019,2022/12/21 12:50:57,"240",53.32818222,5.93118,29,false,false,false,76.92,76.92,0.01,"561","24","47","335","77","141",7.56,"100463",91.83,  10.85 m/s,210°
695187.754316411,5912780.97659651,2022/12/21 12:50:58,"241",53.32818604,5.931249142,29.01,false,false,false,77.16,77.16,0.01,"561","24","48","335","77","141",7.62,"100462",91.83,  10.85 m/s,210°
695192.717862341,5912782.45478524,2022/12/21 12:50:59,"242",53.32819748,5.931324482,29.02,false,false,false,77.37,77.37,0.01,"555","23","48","335","78","141",7.67,"100461",91.83,  10.85 m/s,210°
695197.603603714,5912783.50537345,2022/12/21 12:51:00,"243",53.32820511,5.931398392,29.04,false,false,false,77.27,77.27,0.01,"555","23","48","334","77","141",7.71,"100464",91.83,  10.85 m/s,210°
695202.630657453,5912784.98618112,2022/12/21 12:51:01,"244",53.32821655,5.931474686,29.07,false,false,false,77.47,77.47,0.01,"555","23","47","335","77","141",7.74,"100460",91.83,  10.85 m/s,210°
695207.467190562,5912786.4602832,2022/12/21 12:51:02,"245",53.328228,5.931548119,29.09,false,false,false,77.28,77.28,0.01,"572","26","48","335","78","140",7.78,"100461",91.83,  10.85 m/s,210°
695212.352858885,5912787.510884,2022/12/21 12:51:03,"246",53.32823563,5.931622028,29.12,false,false,false,77.42,77.42,0.01,"572","26","48","334","77","140",7.82,"100457",91.83,  10.85 m/s,210°
695217.221189091,5912788.98518839,2022/12/21 12:51:04,"247",53.32824707,5.931695938,29.13,false,false,false,77.44,77.44,0.01,"561","24","48","334","78","140",7.86,"100455",91.83,  10.85 m/s,210°
695222.106919836,5912790.03580207,2022/12/21 12:51:05,"248",53.3282547,5.931769848,29.14,false,false,false,77.55,77.55,0.01,"561","24","48","335","77","140",7.9,"100457",91.83,  10.85 m/s,210°
695226.879975748,5912791.5062033,2022/12/21 12:51:06,"249",53.32826614,5.931842327,29.16,false,false,false,77.38,77.38,0.01,"567","25","48","334","77","140",7.95,"100460",91.83,  10.85 m/s,210°
695231.797458772,5912792.55813146,2022/12/21 12:51:07,"250",53.32827377,5.931916714,29.19,false,false,false,77.32,77.32,0.01,"572","26","47","334","76","140",7.98,"100458",91.83,  10.85 m/s,210°
695236.63397684,5912794.03226359,2022/12/21 12:51:08,"251",53.32828522,5.931990147,29.21,false,false,false,77.42,77.42,0.01,"580","27","48","334","77","140",7.99,"100456",91.83,  10.85 m/s,210°
695241.4879429,5912795.0815929,2022/12/21 12:51:09,"252",53.32829285,5.93206358,29.23,false,false,false,77.52,77.52,0.01,"567","25","48","334","77","140",8.03,"100456",91.83,  10.85 m/s,210°
695246.292745257,5912796.55331839,2022/12/21 12:51:10,"253",53.32830429,5.932136536,29.25,false,false,false,77.47,77.47,0.01,"572","26","47","334","77","140",8.06,"100459",91.83,  10.85 m/s,210°
695251.160991096,5912798.02765526,2022/12/21 12:51:11,"254",53.32831573,5.932210445,29.28,false,false,false,77.37,77.37,0.01,"567","25","48","334","77","140",8.08,"100455",91.83,  10.85 m/s,210°
695255.983260952,5912799.07569768,2022/12/21 12:51:12,"255",53.32832336,5.932283402,29.3,false,false,false,77.42,77.42,0.01,"575","26","48","334","77","140",8.11,"100457",91.83,  10.85 m/s,210°
695260.819699722,5912800.549852,2022/12/21 12:51:13,"256",53.32833481,5.932356834,29.32,false,false,false,77.37,77.37,0.01,"589","28","47","334","77","140",8.14,"100458",91.83,  10.85 m/s,210°
695265.578452757,5912801.59529495,2022/12/21 12:51:14,"257",53.32834244,5.932428837,29.35,false,false,false,77.37,77.37,0.01,"572","26","48","334","77","140",8.17,"100456",91.83,  10.85 m/s,210°
695270.478444937,5912803.07095653,2022/12/21 12:51:15,"258",53.32835388,5.932503223,29.37,false,false,false,77.63,77.63,0.01,"572","26","48","334","77","140",8.19,"100456",91.83,  10.85 m/s,210°
695275.395909038,5912804.12293028,2022/12/21 12:51:16,"259",53.32836151,5.93257761,29.37,false,false,false,77.28,77.28,0.01,"567","25","48","333","77","140",8.22,"100458",91.83,  10.85 m/s,210°
695280.200648031,5912805.59580255,2022/12/21 12:51:17,"260",53.32837296,5.932650566,29.4,false,false,false,77.6,77.6,0.01,"567","25","48","333","77","140",8.26,"100461",91.83,  10.85 m/s,210°
695285.037186338,5912807.0688725,2022/12/21 12:51:18,"261",53.3283844,5.932723999,29.43,false,false,false,77.43,77.43,0.01,"575","26","47","333","77","140",8.27,"100459",91.83,  10.85 m/s,210°
695289.891131339,5912808.11825178,2022/12/21 12:51:19,"262",53.32839203,5.932797432,29.46,false,false,false,77.61,77.61,0.01,"572","26","47","333","76","140",8.29,"100452",91.83,  10.85 m/s,210°
695294.727664644,5912809.59133171,2022/12/21 12:51:20,"263",53.32840347,5.932870865,29.48,false,false,false,77.18,77.18,0.01,"567","25","47","333","77","140",8.32,"100454",91.83,  10.85 m/s,210°
695299.645118126,5912810.64333081,2022/12/21 12:51:21,"264",53.3284111,5.932945252,29.52,false,false,false,77.41,77.41,0.01,"567","25","48","334","77","140",8.33,"100450",91.83,  10.85 m/s,210°
695304.481534138,5912812.11753013,2022/12/21 12:51:22,"265",53.32842255,5.933018684,29.53,false,false,false,77.32,77.32,0.01,"561","24","48","333","76","140",8.36,"100457",91.83,  10.85 m/s,210°
695309.303781163,5912813.16562722,2022/12/21 12:51:23,"266",53.32843018,5.933091641,29.56,false,false,false,77.58,77.58,0.01,"572","26","48","334","77","139",8.38,"100452",91.83,  10.85 m/s,210°
695314.140237879,5912814.63872443,2022/12/21 12:51:24,"267",53.32844162,5.933165073,29.59,false,false,false,77.62,77.62,0.01,"572","26","47","333","76","140",8.4,"100446",91.83,  10.85 m/s,210°
695318.835455714,5912815.68161125,2022/12/21 12:51:25,"268",53.32844925,5.933236122,29.58,false,false,false,77.44,77.44,0.01,"561","24","47","333","77","139",8.41,"100451",91.83,  10.85 m/s,210°
695323.830688787,5912817.16124366,2022/12/21 12:51:26,"269",53.32846069,5.933311939,29.63,false,false,false,77.45,77.45,0.01,"561","24","47","333","76","139",8.42,"100455",91.83,  10.85 m/s,210°
695328.635402398,5912818.63416552,2022/12/21 12:51:27,"270",53.32847214,5.933384895,29.66,false,false,false,77.68,77.68,0.01,"561","24","48","333","77","139",8.44,"100455",91.83,  10.85 m/s,210°
695333.552841111,5912819.68620008,2022/12/21 12:51:28,"271",53.32847977,5.933459282,29.69,false,false,false,77.79,77.79,0.01,"567","25","47","333","76","139",8.46,"100453",91.83,  10.85 m/s,210°
695338.32583919,5912821.15671466,2022/12/21 12:51:28,"272",53.32849121,5.933531761,29.72,false,false,false,77.37,77.37,0.01,"572","26","47","333","77","139",8.48,"100453",91.83,  10.85 m/s,210°
695343.211517515,5912822.20745413,2022/12/21 12:51:30,"273",53.32849884,5.933605671,29.75,false,false,false,77.32,77.32,0.01,"552","23","47","332","77","139",8.5,"100450",91.83,  10.85 m/s,210°
695347.95275441,5912823.6766733,2022/12/21 12:51:31,"274",53.32851028,5.933677673,29.77,false,false,false,77.54,77.54,0.01,"555","23","47","333","77","140",8.51,"100452",91.83,  10.85 m/s,210°
695352.90194104,5912824.73003332,2022/12/21 12:51:32,"275",53.32851791,5.933752537,29.79,false,false,false,77.5,77.5,0.01,"555","23","47","333","77","139",8.53,"100454",91.83,  10.85 m/s,210°
695357.611371061,5912826.19906903,2022/12/21 12:51:32,"276",53.32852936,5.933824062,29.8,false,false,false,77.44,77.44,0.01,"555","23","47","333","76","139",8.54,"100452",91.83,  10.85 m/s,210°
695362.465284922,5912827.2485232,2022/12/21 12:51:32,"277",53.32853699,5.933897495,29.82,false,false,false,77.51,77.51,0.01,"572","26","47","333","77","139",8.55,"100453",91.83,  10.85 m/s,210°
695367.270024324,5912828.72037255,2022/12/21 12:51:32,"278",53.32854843,5.933970451,29.82,false,false,false,77.38,77.38,0.01,"555","23","47","333","77","139",8.56,"100453",91.83,  10.85 m/s,210°
695372.106471493,5912830.1946443,2022/12/21 12:51:32,"279",53.32855988,5.934043884,29.85,false,false,false,77.4,77.4,0.01,"552","23","47","332","77","139",8.57,"100455",91.83,  10.85 m/s,210°
695376.928668491,5912831.24169593,2022/12/21 12:51:32,"280",53.3285675,5.93411684,29.87,false,false,false,77.25,77.25,0.01,"552","23","47","332","77","139",8.58,"100454",91.83,  10.85 m/s,210°
695381.892135336,5912832.7211995,2022/12/21 12:51:38,"281",53.32857895,5.934192181,29.9,false,false,false,77.39,77.39,0.01,"555","23","47","333","77","140",8.57,"100454",91.83,  10.85 m/s,210°
695386.650770168,5912833.76676223,2022/12/21 12:51:39,"282",53.32858658,5.934264183,29.93,false,false,false,77.43,77.43,0.01,"572","26","47","333","76","139",8.58,"100452",91.83,  10.85 m/s,210°
695391.614211079,5912835.24516128,2022/12/21 12:51:40,"283",53.32859802,5.934339523,29.96,false,false,false,77.6,77.6,0.01,"555","23","46","333","77","139",8.6,"100453",91.83,  10.85 m/s,210°
695396.404664547,5912836.29204215,2022/12/21 12:51:41,"284",53.32860565,5.934412003,29.99,false,false,false,77.55,77.55,0.01,"552","23","47","332","76","139",8.6,"100449",91.83,  10.85 m/s,210°
695401.33629852,5912837.77025797,2022/12/21 12:51:42,"285",53.3286171,5.934486866,30,false,false,false,77.44,77.44,0.01,"552","23","47","333","77","139",8.62,"100451",91.83,  10.85 m/s,210°
695406.126681311,5912838.817146,2022/12/21 12:51:43,"286",53.32862473,5.934559345,30.04,false,false,false,77.47,77.47,0.01,"555","23","47","332","76","139",8.62,"100449",91.83,  10.85 m/s,210°
695410.931398035,5912840.28904006,2022/12/21 12:51:44,"287",53.32863617,5.934632301,30.05,false,false,false,77.44,77.44,0.01,"567","25","47","333","76","139",8.62,"100446",91.83,  10.85 m/s,210°
695415.736112056,5912841.76093903,2022/12/21 12:51:45,"288",53.32864761,5.934705257,30.06,false,false,false,77.53,77.53,0.01,"567","25","46","333","77","139",8.62,"100448",91.83,  10.85 m/s,210°
695420.399530665,5912842.80262157,2022/12/21 12:51:46,"289",53.32865524,5.934775829,30.08,false,false,false,77.4,77.4,0.01,"561","24","47","333","76","140",8.62,"100448",91.83,  10.85 m/s,210°
695425.394664044,5912844.28347413,2022/12/21 12:51:47,"290",53.32866669,5.934851646,30.1,false,false,false,77.34,77.34,0.01,"561","24","47","333","77","140",8.61,"100449",91.83,  10.85 m/s,210°
695430.121590807,5912845.32777783,2022/12/21 12:51:48,"291",53.32867432,5.934923172,30.12,false,false,false,77.32,77.32,0.01,"561","24","47","333","76","140",8.59,"100447",91.83,  10.85 m/s,210°
695434.95805099,5912846.80100227,2022/12/21 12:51:48,"292",53.32868576,5.934996605,30.15,false,false,false,77.24,77.24,0.01,"572","26","47","333","77","139",8.59,"100447",91.83,  10.85 m/s,210°
695439.811931441,5912847.85053627,2022/12/21 12:51:48,"293",53.32869339,5.935070038,30.18,false,false,false,77.44,77.44,0.01,"572","26","47","333","77","140",8.57,"100443",91.83,  10.85 m/s,210°
695444.71183218,5912849.32637975,2022/12/21 12:51:51,"294",53.32870483,5.935144424,30.21,false,false,false,77.27,77.27,0.01,"561","24","47","334","76","140",8.56,"100444",91.83,  10.85 m/s,210°
695449.534019008,5912850.37462063,2022/12/21 12:51:52,"295",53.32871246,5.935217381,30.24,false,false,false,77.3,77.3,0.01,"567","25","48","333","77","139",8.54,"100444",91.83,  10.85 m/s,210°
695454.465625022,5912851.85289227,2022/12/21 12:51:53,"296",53.32872391,5.935292244,30.26,false,false,false,77.56,77.56,0.01,"567","25","48","334","77","139",8.53,"100442",91.83,  10.85 m/s,210°
695458.698907373,5912853.30133628,2022/12/21 12:51:54,"297",53.32873535,5.935356617,30.27,false,false,false,71.46,71.46,0.01,"567","25","48","334","77","140",8.54,"100446",91.83,  10.85 m/s,210°
695462.149698355,5912855.99306717,2022/12/21 12:51:55,"298",53.32875824,5.935410023,30.32,false,false,false,38.95,38.95,0.01,"586","28","48","333","76","140",8.55,"100443",91.83,  10.85 m/s,210°
695463.386281456,5912860.71802556,2022/12/21 12:51:56,"299",53.3288002,5.93543148,30.49,false,false,false,4.21,4.21,0.01,"572","26","48","333","77","140",8.56,"100429",91.83,  10.85 m/s,210°
695462.481680239,5912864.93051253,2022/12/21 12:51:57,"300",53.32883835,5.935420513,30.6,false,false,false,346.98,346.98,0.01,"567","25","48","334","77","140",8.56,"100423",91.83,  10.85 m/s,210°
695460.561223144,5912869.10122128,2022/12/21 12:51:58,"301",53.3288765,5.935394287,30.69,false,false,false,332.42,332.42,0.01,"567","25","49","333","77","140",8.58,"100418",91.83,  10.85 m/s,210°
695457.264584726,5912871.93987034,2022/12/21 12:51:58,"302",53.3289032,5.935346603,30.75,false,false,false,302.63,302.63,0.01,"561","24","48","333","76","141",8.58,"100406",91.83,  10.85 m/s,210°
695452.975862114,5912872.6134344,2022/12/21 12:52:00,"303",53.32891083,5.935282707,30.79,false,false,false,273.29,273.29,0.01,"555","23","48","333","77","141",8.52,"100396",100.22,  10.85 m/s,210°
695448.852195857,5912871.59391421,2022/12/21 12:52:00,"304",53.3289032,5.935220242,30.78,false,false,false,257.57,257.57,0.01,"543","21","49","333","77","141",8.43,"100390",100.22,  10.85 m/s,210°
