X,Y,TimeStamp (UTC),"""TriggerID""","""Latitude""","""Longitude""","""Altitude (Meter AGL)""",Gimbal Roll,"""Gimbal Pitch""","""Gimbal Yaw""","""Drone Yaw""","""Combined Yaw""",HCHO (ppm),CO2 (ppm),TVOC (ppb),NO2 (ppm),C2H5OH (ppm),VOC (ppm),CO (ppm),Temp (Celcius),Pressure (pa),Altitude (meter),wind_speed,wind_direction
695392.047030421,5912756.64989997,2022/12/12 10:56:05,"41",53.3278923,5.934297562,0,false,false,false,309.29,309.29,0.01,"759","54","143","302","169","152",3.04,"101350",16.64,  2.02 m/s,170°
695392.047030421,5912756.64989997,2022/12/12 10:56:06,"42",53.3278923,5.934297562,0,false,false,false,309.28,309.28,0.01,"759","54","142","302","169","151",3.09,"101352",16.64,  2.02 m/s,170°
695392.047030421,5912756.64989997,2022/12/12 10:56:07,"43",53.3278923,5.934297562,0,false,false,false,309.28,309.28,0.01,"740","51","142","302","169","151",3.12,"101353",16.64,  2.02 m/s,170°
695392.047030421,5912756.64989997,2022/12/12 10:56:08,"44",53.3278923,5.934297562,0,false,false,false,309.29,309.29,0.01,"740","51","141","302","169","151",3.12,"101357",16.64,  2.02 m/s,170°
695392.047030421,5912756.64989997,2022/12/12 10:56:09,"45",53.3278923,5.934297562,0,false,false,false,309.3,309.3,0.01,"748","53","140","301","169","150",3.14,"101350",16.64,  2.02 m/s,170°
695392.047030421,5912756.64989997,2022/12/12 10:56:10,"46",53.3278923,5.934297562,0,false,false,false,309.27,309.27,0.01,"740","51","140","301","169","150",3.17,"101348",16.64,  2.02 m/s,170°
695392.047030421,5912756.64989997,2022/12/12 10:56:11,"47",53.3278923,5.934297562,0,false,false,false,309.29,309.29,0.01,"732","50","139","301","169","150",3.16,"101346",16.64,  2.02 m/s,170°
695392.047030421,5912756.64989997,2022/12/12 10:56:12,"48",53.3278923,5.934297562,0.02,false,false,false,308.33,308.33,0.01,"748","53","137","301","168","150",3.17,"101346",16.64,  2.02 m/s,170°
695392.015273744,5912756.64859445,2022/12/12 10:56:13,"49",53.3278923,5.934297085,0.58,false,false,false,308.12,308.12,0.01,"697","45","136","300","168","150",3.16,"101341",16.64,  2.02 m/s,170°
695391.983517066,5912756.64728892,2022/12/12 10:56:14,"50",53.3278923,5.934296608,1.05,false,false,false,308.02,308.02,0.01,"688","43","135","300","168","149",3.14,"101334",16.64,  2.02 m/s,170°
695391.951760388,5912756.6459834,2022/12/12 10:56:15,"51",53.3278923,5.934296131,1.86,false,false,false,307.75,307.75,0.01,"688","43","134","299","168","148",3.17,"101324",16.64,  2.43 m/s,191°
695391.951760388,5912756.6459834,2022/12/12 10:56:16,"52",53.3278923,5.934296131,4.81,false,false,false,308.04,308.04,0.01,"678","42","132","300","167","149",3.16,"101282",24.96,  2.43 m/s,191°
695391.920003711,5912756.64467788,2022/12/12 10:56:16,"53",53.3278923,5.934295654,7.98,false,false,false,308.13,308.13,0.01,"688","43","132","302","167","148",3.12,"101240",24.96,  2.43 m/s,191°
695391.951760388,5912756.6459834,2022/12/12 10:56:18,"54",53.3278923,5.934296131,11.05,false,false,false,308.07,308.07,0.01,"660","39","131","301","167","148",3.14,"101208",24.96,  2.43 m/s,191°
695391.983517066,5912756.64728892,2022/12/12 10:56:19,"55",53.3278923,5.934296608,14.08,false,false,false,308.28,308.28,0.01,"671","41","131","300","167","149",3.17,"101167",33.3,  2.43 m/s,191°
695391.983517066,5912756.64728892,2022/12/12 10:56:20,"56",53.3278923,5.934296608,17.1,false,false,false,308.17,308.17,0.01,"643","37","129","301","167","148",3.15,"101132",33.3,  2.43 m/s,191°
695391.951760388,5912756.6459834,2022/12/12 10:56:20,"57",53.3278923,5.934296131,19.25,false,false,false,308.29,308.29,0.01,"643","37","129","302","166","148",3.09,"101101",33.3,  2.43 m/s,191°
695391.888313609,5912756.64337509,2022/12/12 10:56:22,"58",53.3278923,5.934295178,19.32,false,false,false,356.61,356.61,0.01,"671","41","128","302","166","149",3.11,"101102",33.3,  2.43 m/s,191°
695391.856556931,5912756.64206957,2022/12/12 10:56:23,"59",53.3278923,5.934294701,19.12,false,false,false,68.44,68.44,0.01,"643","37","127","301","166","149",3.09,"101107",33.3,  2.43 m/s,191°
695391.951760388,5912756.6459834,2022/12/12 10:56:24,"60",53.3278923,5.934296131,19.01,false,false,false,68.94,68.94,0.01,"650","38","127","301","166","149",3.12,"101109",33.3,  2.43 m/s,191°
695393.299367445,5912757.12690948,2022/12/12 10:56:25,"61",53.32789612,5.934316635,18.96,false,false,false,68.74,68.74,0.01,"650","38","126","301","166","149",3.16,"101110",33.3,  2.43 m/s,191°
695395.882004524,5912758.50743231,2022/12/12 10:56:26,"62",53.32790756,5.934356213,18.95,false,false,false,69.13,69.13,0.01,"643","37","125","300","165","148",3.12,"101102",33.3,  2.43 m/s,191°
695399.099461271,5912759.91516908,2022/12/12 10:56:27,"63",53.32791901,5.934405327,18.93,false,false,false,68.68,68.68,0.01,"660","39","125","300","165","148",3.04,"101103",33.3,  2.43 m/s,191°
695402.920138518,5912761.34659411,2022/12/12 10:56:28,"64",53.32793045,5.934463501,18.89,false,false,false,68.7,68.7,0.01,"633","35","125","300","166","148",3.01,"101104",33.3,  2.43 m/s,191°
695407.49957831,5912763.65915494,2022/12/12 10:56:29,"65",53.32794952,5.934533596,18.87,false,false,false,68.59,68.59,0.01,"637","36","124","300","166","148",2.98,"101111",33.3,  2.43 m/s,191°
695412.382176893,5912765.55977304,2022/12/12 10:56:30,"66",53.32796478,5.934607983,18.87,false,false,false,70.23,70.23,0.01,"633","35","123","300","165","147",2.93,"101096",41.64,  3.24 m/s,157°
695417.010785528,5912767.44995344,2022/12/12 10:56:31,"67",53.32798004,5.934678555,18.88,false,false,false,69.19,69.19,0.01,"623","33","124","300","165","146",2.88,"101088",41.64,  3.24 m/s,157°
695421.748883861,5912769.77016608,2022/12/12 10:56:32,"68",53.32799912,5.934751034,18.85,false,false,false,68.55,68.55,0.01,"633","35","123","299","165","147",2.8,"101100",33.3,  3.24 m/s,157°
695426.377530834,5912771.65924372,2022/12/12 10:56:32,"69",53.32801437,5.934821606,18.83,false,false,false,68.63,68.63,0.01,"623","33","122","299","164","146",2.75,"101110",33.3,  3.24 m/s,157°
695430.925147981,5912773.97163392,2022/12/12 10:56:34,"70",53.32803345,5.934891224,18.82,false,false,false,68.97,68.97,0.01,"615","32","123","298","165","146",2.73,"101103",33.3,  3.24 m/s,157°
695435.236242929,5912775.8487773,2022/12/12 10:56:35,"71",53.32804871,5.934957027,18.85,false,false,false,68.96,68.96,0.01,"607","31","122","299","165","146",2.67,"101105",33.3,  3.66 m/s,162°
695439.991905426,5912777.74309172,2022/12/12 10:56:35,"72",53.32806396,5.935029507,18.85,false,false,false,69.04,69.04,0.01,"607","31","122","298","164","145",2.64,"101106",33.3,  3.66 m/s,162°
695444.461709853,5912779.62677014,2022/12/12 10:56:37,"73",53.32807922,5.935097694,18.85,false,false,false,68.99,68.99,0.01,"615","32","121","298","163","145",2.6,"101099",41.64,  3.66 m/s,162°
695449.136337409,5912781.94440166,2022/12/12 10:56:38,"74",53.3280983,5.93516922,18.86,false,false,false,69.12,69.12,0.01,"607","31","121","299","164","145",2.54,"101096",41.64,  3.66 m/s,162°
695453.764917191,5912783.83461855,2022/12/12 10:56:39,"75",53.32811356,5.935239792,18.86,false,false,false,68.87,68.87,0.01,"594","29","120","298","164","145",2.52,"101104",33.3,  3.66 m/s,162°
695458.425295741,5912785.72503395,2022/12/12 10:56:40,"76",53.32812881,5.935310841,18.86,false,false,false,68.93,68.93,0.01,"594","29","121","298","163","144",2.48,"101105",33.3,  3.66 m/s,162°
695463.053868595,5912787.61526006,2022/12/12 10:56:41,"77",53.32814407,5.935381413,18.85,false,false,false,68.74,68.74,0.01,"588","28","120","297","163","144",2.49,"101112",33.3,  3.66 m/s,162°
695467.569697719,5912789.92638008,2022/12/12 10:56:41,"78",53.32816315,5.935450554,18.85,false,false,false,68.42,68.42,0.01,"600","30","118","297","162","144",2.46,"101110",33.3,  3.66 m/s,162°
695472.007791115,5912791.80878163,2022/12/12 10:56:43,"79",53.32817841,5.935518265,18.85,false,false,false,68.85,68.85,0.01,"607","31","118","297","163","144",2.46,"101110",33.3,  3.66 m/s,162°
695475.874510686,5912793.6665739,2022/12/12 10:56:44,"80",53.32819366,5.935577393,18.85,false,false,false,69.9,69.9,0.01,"588","28","117","297","163","144",2.47,"101107",33.3,  3.66 m/s,162°
695476.999871449,5912794.13838426,2022/12/12 10:56:45,"81",53.32819748,5.935594559,18.78,false,false,false,43.42,43.42,0.01,"588","28","117","297","161","144",2.5,"101113",33.3,  3.66 m/s,162°
695476.668155458,5912793.69921526,2022/12/12 10:56:46,"82",53.32819366,5.935589314,18.78,false,false,false,313.84,313.84,0.01,"588","28","116","297","162","144",2.53,"101095",41.64,  3.66 m/s,162°
695476.255454851,5912793.68224151,2022/12/12 10:56:47,"83",53.32819366,5.935583115,18.79,false,false,false,254.78,254.78,0.01,"588","28","116","297","161","144",2.56,"101092",41.64,  3.66 m/s,162°
695475.764910792,5912793.23765418,2022/12/12 10:56:48,"84",53.32818985,5.935575485,18.8,false,false,false,255.22,255.22,0.01,"600","30","116","297","161","144",2.57,"101094",41.64,  3.66 m/s,162°
695474.16335696,5912792.74737319,2022/12/12 10:56:49,"85",53.32818604,5.935551167,18.85,false,false,false,255.27,255.27,0.01,"588","28","116","297","162","143",2.56,"101082",41.64,  3.66 m/s,162°
695471.372861744,5912791.78266861,2022/12/12 10:56:50,"86",53.32817841,5.935508728,18.87,false,false,false,255.25,255.25,0.01,"577","26","115","296","161","144",2.52,"101088",41.64,  3.66 m/s,162°
695467.883989645,5912790.78924379,2022/12/12 10:56:50,"87",53.32817078,5.935455799,18.91,false,false,false,254.99,254.99,0.01,"561","24","115","297","161","143",2.47,"101084",41.64,  3.66 m/s,162°
695463.460225592,5912789.33184754,2022/12/12 10:56:52,"88",53.32815933,5.935388565,18.95,false,false,false,254.93,254.93,0.01,"561","24","115","297","161","143",2.39,"101088",41.64,  3.66 m/s,162°
695458.433239941,5912787.85076222,2022/12/12 10:56:53,"89",53.32814789,5.935312271,19,false,false,false,254.78,254.78,0.01,"577","26","115","297","161","143",2.32,"101082",41.64,  3.66 m/s,162°
695453.279337814,5912786.36334921,2022/12/12 10:56:54,"90",53.32813644,5.93523407,19.04,false,false,false,254.7,254.7,0.01,"553","23","115","297","161","143",2.22,"101079",41.64,  3.66 m/s,162°
695448.31585946,5912784.88488661,2022/12/12 10:56:55,"91",53.328125,5.93515873,19.08,false,false,false,254.9,254.9,0.01,"551","23","114","297","161","143",2.15,"101079",41.64,  1.54 m/s,128°
695443.430158313,5912783.83403954,2022/12/12 10:56:56,"92",53.32811737,5.93508482,19.11,false,false,false,255.24,255.24,0.01,"551","23","114","297","161","143",2.08,"101080",41.64,  1.54 m/s,128°
695438.561877813,5912782.35950213,2022/12/12 10:56:57,"93",53.32810593,5.93501091,19.16,false,false,false,255.27,255.27,0.01,"551","23","114","297","161","142",2.01,"101073",41.64,  1.54 m/s,128°
695433.693640301,5912780.88385772,2022/12/12 10:56:58,"94",53.32809448,5.934937,19.21,false,false,false,255.49,255.49,0.01,"553","23","114","297","160","142",1.98,"101075",41.64,  1.54 m/s,128°
695428.857110854,5912779.41063619,2022/12/12 10:56:59,"95",53.32808304,5.934863567,19.25,false,false,false,255.39,255.39,0.01,"542","21","113","296","160","142",1.96,"101071",41.64,  1.54 m/s,128°
695424.193696727,5912778.36894954,2022/12/12 10:57:00,"96",53.32807541,5.934792996,19.28,false,false,false,254.84,254.84,0.01,"536","20","113","296","160","143",1.91,"101072",41.64,  2.54 m/s,140°
695419.388898027,5912776.89592871,2022/12/12 10:57:01,"97",53.32806396,5.934720039,19.37,false,false,false,254.76,254.76,0.01,"542","21","113","297","160","143",1.86,"101083",41.64,  2.54 m/s,140°
695414.696807479,5912775.00424919,2022/12/12 10:57:01,"98",53.32804871,5.934648514,19.4,false,false,false,254.77,254.77,0.01,"551","23","112","297","160","142",1.84,"101084",41.64,  2.54 m/s,140°
695409.765043267,5912773.52601826,2022/12/12 10:57:03,"99",53.32803726,5.93457365,19.44,false,false,false,254.46,254.46,0.01,"561","24","111","297","159","142",1.82,"101085",41.64,  2.54 m/s,140°
695404.911080837,5912772.47651688,2022/12/12 10:57:04,"100",53.32802963,5.934500217,19.46,false,false,false,255.18,255.18,0.01,"561","24","112","297","159","143",1.81,"101086",41.64,  2.54 m/s,140°
695400.042845569,5912771.00202219,2022/12/12 10:57:05,"101",53.32801819,5.934426308,19.51,false,false,false,255.02,255.02,0.01,"553","23","111","297","159","142",1.77,"101084",41.64,  4.27 m/s,188°
695395.206343297,5912769.52772331,2022/12/12 10:57:06,"102",53.32800674,5.934352875,19.55,false,false,false,255.17,255.17,0.01,"551","23","112","297","159","142",1.74,"101081",41.64,  4.27 m/s,188°
695390.433305787,5912768.0571525,2022/12/12 10:57:07,"103",53.3279953,5.934280396,19.59,false,false,false,255.1,255.1,0.01,"551","23","110","297","158","143",1.7,"101080",41.64,  4.27 m/s,188°
695385.674537921,5912767.01158479,2022/12/12 10:57:08,"104",53.32798767,5.934208393,19.65,false,false,false,254.79,254.79,0.01,"561","24","111","297","159","143",1.68,"101082",41.64,  4.27 m/s,188°
695380.837982252,5912765.53841277,2022/12/12 10:57:09,"105",53.32797623,5.93413496,19.7,false,false,false,254.94,254.94,0.01,"553","23","111","297","158","143",1.67,"101075",41.64,  4.27 m/s,188°
695376.096739453,5912764.06804994,2022/12/12 10:57:09,"106",53.32796478,5.934062958,19.74,false,false,false,254.74,254.74,0.01,"553","23","110","298","159","142",1.64,"101073",41.64,  4.27 m/s,188°
695371.32369164,5912762.59749858,2022/12/12 10:57:11,"107",53.32795334,5.933990479,19.8,false,false,false,254.41,254.41,0.01,"553","23","110","298","159","143",1.63,"101074",41.64,  4.27 m/s,188°
695367.358564955,5912761.5845732,2022/12/12 10:57:12,"108",53.32794571,5.933930397,19.8,false,false,false,254.13,254.13,0.01,"553","23","109","298","158","143",1.59,"101080",41.64,  4.27 m/s,188°
695366.296700278,5912761.11539992,2022/12/12 10:57:13,"109",53.32794189,5.933914185,19.74,false,false,false,256.03,256.03,0.01,"561","24","110","298","158","143",1.6,"101086",41.64,  4.27 m/s,188°
695365.661767128,5912761.08930112,2022/12/12 10:57:14,"110",53.32794189,5.933904648,19.71,false,false,false,255.93,255.93,0.01,"577","26","109","298","158","143",1.64,"101084",41.64,  4.27 m/s,188°
695362.585512443,5912760.11403073,2022/12/12 10:57:15,"111",53.32793427,5.933857918,19.66,false,false,false,254.68,254.68,0.01,"561","24","109","297","158","142",1.62,"101074",41.64,  4.93 m/s,177°
695358.77916553,5912759.10763923,2022/12/12 10:57:16,"112",53.32792664,5.933800221,19.56,false,false,false,255.31,255.31,0.01,"553","23","109","297","158","142",1.59,"101072",41.64,  4.93 m/s,177°
695354.750520547,5912758.09211389,2022/12/12 10:57:17,"113",53.32791901,5.933739185,19.48,false,false,false,255.21,255.21,0.01,"551","23","109","297","157","143",1.57,"101072",41.64,  4.93 m/s,177°
695350.517170743,5912756.64265314,2022/12/12 10:57:17,"114",53.32790756,5.933674812,19.4,false,false,false,255.23,255.23,0.01,"551","23","108","297","157","142",1.57,"101070",41.64,  4.93 m/s,177°
695346.202911942,5912755.61539613,2022/12/12 10:57:19,"115",53.32789993,5.933609486,19.32,false,false,false,255.37,255.37,0.01,"561","24","108","297","158","142",1.56,"101072",41.64,  4.93 m/s,177°
695341.842485299,5912754.1618344,2022/12/12 10:57:20,"116",53.32788849,5.933543205,19.24,false,false,false,255.36,255.36,0.01,"536","20","107","296","158","141",1.55,"101072",41.64,  4.79 m/s,165°
695337.418655096,5912752.70455709,2022/12/12 10:57:21,"117",53.32787704,5.933475971,19.16,false,false,false,255.25,255.25,0.01,"542","21","107","296","157","142",1.55,"101066",41.64,  4.79 m/s,165°
695332.628127503,5912751.65885273,2022/12/12 10:57:22,"118",53.32786942,5.933403492,19.08,false,false,false,255.2,255.2,0.01,"536","20","107","296","157","141",1.53,"101068",41.64,  4.79 m/s,165°
695327.855101962,5912750.18723354,2022/12/12 10:57:23,"119",53.32785797,5.933331013,19,false,false,false,255.49,255.49,0.01,"536","20","106","296","157","141",1.52,"101069",41.64,  4.79 m/s,165°
695322.955001154,5912748.71151103,2022/12/12 10:57:24,"120",53.32784653,5.933256626,18.9,false,false,false,255.2,255.2,0.01,"553","23","105","297","156","141",1.51,"101069",41.64,  4.79 m/s,165°
695318.023253135,5912747.23337928,2022/12/12 10:57:25,"121",53.32783508,5.933181763,18.78,false,false,false,255.15,255.15,0.01,"536","20","106","296","157","141",1.51,"101076",41.64,  5.07 m/s,163°
695313.281863919,5912745.76418927,2022/12/12 10:57:26,"122",53.32782364,5.93310976,18.68,false,false,false,255.24,255.24,0.01,"536","20","105","296","156","141",1.51,"101077",41.64,  5.07 m/s,163°
695308.318353654,5912744.28476273,2022/12/12 10:57:27,"123",53.32781219,5.93303442,18.57,false,false,false,255.14,255.14,0.01,"527","19","105","296","156","141",1.51,"101072",41.64,  5.07 m/s,163°
695303.513512104,5912742.81297542,2022/12/12 10:57:28,"124",53.32780075,5.932961464,18.46,false,false,false,255.17,255.17,0.01,"530","19","105","296","156","141",1.5,"101079",41.64,  5.07 m/s,163°
695298.835628338,5912741.34640989,2022/12/12 10:57:29,"125",53.32778931,5.932890415,18.37,false,false,false,255.03,255.03,0.01,"551","23","104","297","156","141",1.5,"101080",41.64,  5.07 m/s,163°
695293.935623365,5912739.86960837,2022/12/12 10:57:30,"126",53.32777786,5.932816029,18.27,false,false,false,255.06,255.06,0.01,"530","19","104","296","155","141",1.5,"101084",41.64,  5.07 m/s,163°
695289.130773717,5912738.3978358,2022/12/12 10:57:31,"127",53.32776642,5.932743073,18.17,false,false,false,255.06,255.06,0.01,"518","17","104","296","156","140",1.5,"101085",41.64,  5.07 m/s,163°
695284.340203067,5912737.35106586,2022/12/12 10:57:31,"128",53.32775879,5.932670593,18.08,false,false,false,254.4,254.4,0.01,"530","19","103","296","155","140",1.5,"101092",41.64,  5.07 m/s,163°
695281.16876118,5912736.37082515,2022/12/12 10:57:33,"129",53.32775116,5.932622433,18,false,false,false,254.39,254.39,0.01,"530","19","103","296","155","140",1.5,"101095",41.64,  5.07 m/s,163°
695280.724299184,5912736.35256373,2022/12/12 10:57:34,"130",53.32775116,5.932615757,17.98,false,false,false,305.98,305.98,0.01,"542","21","103","297","154","141",1.54,"101101",33.3,  5.07 m/s,163°
695280.957773436,5912737.63650302,2022/12/12 10:57:35,"131",53.3277626,5.932620049,18,false,false,false,342.7,342.7,0.01,"542","21","103","297","155","140",1.6,"101121",33.3,  5.07 m/s,163°
695280.627850893,5912741.02269057,2022/12/12 10:57:36,"132",53.32779312,5.932617188,18,false,false,false,343.37,343.37,0.01,"553","23","104","297","155","141",1.64,"101122",33.3,  5.07 m/s,163°
695279.916914232,5912744.39322359,2022/12/12 10:57:37,"133",53.32782364,5.932608604,17.99,false,false,false,343.25,343.25,0.01,"553","23","104","297","155","141",1.68,"101124",33.3,  5.07 m/s,163°
695279.27266356,5912746.91656084,2022/12/12 10:57:38,"134",53.32784653,5.932600498,17.96,false,false,false,343.37,343.37,0.01,"561","24","104","296","154","140",1.74,"101120",33.3,  5.07 m/s,163°
695279.287012163,5912747.34156127,2022/12/12 10:57:39,"135",53.32785034,5.932600975,17.95,false,false,false,39.61,39.61,0.01,"580","27","105","297","154","140",1.78,"101124",33.3,  5.07 m/s,163°
695280.779045516,5912747.40286376,2022/12/12 10:57:40,"136",53.32785034,5.932623386,18,false,false,false,75.65,75.65,0.01,"580","27","104","296","155","140",1.84,"101118",33.3,  5.07 m/s,163°
695283.350474536,5912747.50851599,2022/12/12 10:57:41,"137",53.32785034,5.93266201,18.08,false,false,false,75.48,75.48,0.01,"577","26","105","296","155","141",1.86,"101123",33.3,  5.07 m/s,163°
695286.744205437,5912748.49789208,2022/12/12 10:57:42,"138",53.32785797,5.932713509,18.15,false,false,false,75.65,75.65,0.01,"561","24","104","296","154","140",1.84,"101125",33.3,  5.07 m/s,163°
695290.550572564,5912749.50422537,2022/12/12 10:57:43,"139",53.3278656,5.932771206,18.23,false,false,false,75.46,75.46,0.01,"577","26","103","297","154","140",1.83,"101121",33.3,  5.07 m/s,163°
695294.974463064,5912750.96034662,2022/12/12 10:57:44,"140",53.32787704,5.93283844,18.32,false,false,false,75.22,75.22,0.01,"577","26","103","296","154","140",1.84,"101122",33.3,  5.07 m/s,163°
695299.747495842,5912752.4319326,2022/12/12 10:57:45,"141",53.32788849,5.932910919,18.42,false,false,false,75.54,75.54,0.01,"577","26","104","296","154","140",1.87,"101116",33.3,  5.07 m/s,167°
695304.601495409,5912753.48132564,2022/12/12 10:57:46,"142",53.32789612,5.932984352,18.53,false,false,false,75.85,75.85,0.01,"567","25","103","296","154","140",1.86,"101111",33.3,  5.07 m/s,167°
695309.596799087,5912754.96094142,2022/12/12 10:57:47,"143",53.32790756,5.933060169,18.63,false,false,false,75.58,75.58,0.01,"567","25","103","296","153","140",1.88,"101114",33.3,  5.07 m/s,167°
695314.496850829,5912756.43776229,2022/12/12 10:57:48,"144",53.32791901,5.933134556,18.73,false,false,false,75.82,75.82,0.01,"577","26","103","296","153","140",1.93,"101113",33.3,  5.07 m/s,167°
695319.365188853,5912757.91217119,2022/12/12 10:57:49,"145",53.32793045,5.933208466,18.83,false,false,false,75.66,75.66,0.01,"577","26","102","295","153","140",1.97,"101116",33.3,  5.07 m/s,167°
695324.138254192,5912759.38266993,2022/12/12 10:57:50,"146",53.32794189,5.933280945,18.95,false,false,false,75.57,75.57,0.01,"588","28","103","295","153","140",1.98,"101114",33.3,  2.67 m/s,179°
695328.847757865,5912760.85167538,2022/12/12 10:57:51,"147",53.32795334,5.93335247,19.05,false,false,false,75.69,75.69,0.01,"561","24","102","296","152","140",1.98,"101115",33.3,  2.67 m/s,179°
695333.797014067,5912761.90501387,2022/12/12 10:57:51,"148",53.32796097,5.933427334,19.16,false,false,false,75.81,75.81,0.01,"577","26","102","296","153","140",1.99,"101109",33.3,  2.67 m/s,179°
695338.601828383,5912763.37683246,2022/12/12 10:57:53,"149",53.32797241,5.93350029,19.26,false,false,false,75.82,75.82,0.01,"567","25","101","295","153","140",2,"101108",33.3,  2.67 m/s,179°
695343.438350906,5912764.85107324,2022/12/12 10:57:54,"150",53.32798386,5.933573723,19.36,false,false,false,75.77,75.77,0.01,"577","26","102","295","152","140",2.01,"101107",33.3,  2.67 m/s,179°
695348.179646595,5912766.32029124,2022/12/12 10:57:55,"151",53.3279953,5.933645725,19.47,false,false,false,75.91,75.91,0.01,"588","28","101","295","153","140",2.03,"101105",33.3,  2.67 m/s,179°
695353.143235798,5912767.79865089,2022/12/12 10:57:56,"152",53.32800674,5.933721066,19.56,false,false,false,75.85,75.85,0.01,"561","24","101","296","152","140",2.03,"101103",33.3,  2.67 m/s,179°
695357.916236971,5912769.27029607,2022/12/12 10:57:57,"153",53.32801819,5.933793545,19.68,false,false,false,76.43,76.43,0.01,"567","25","101","296","152","140",2.06,"101102",33.3,  2.67 m/s,179°
695361.46858961,5912770.26624722,2022/12/12 10:57:58,"154",53.32802582,5.933847427,19.72,false,false,false,76.94,76.94,0.01,"577","26","102","296","152","140",2.07,"101099",41.64,  2.67 m/s,179°
695362.293994436,5912770.30017471,2022/12/12 10:57:59,"155",53.32802582,5.933859825,19.67,false,false,false,75.86,75.86,0.01,"588","28","102","297","153","140",2.1,"101105",33.3,  2.67 m/s,179°
695363.182912424,5912770.33671301,2022/12/12 10:58:00,"156",53.32802582,5.933873177,19.65,false,false,false,75.37,75.37,0.01,"600","30","101","296","152","140",2.14,"101102",33.3,  2.67 m/s,179°
695366.513033943,5912771.32353339,2022/12/12 10:58:01,"157",53.32803345,5.933923721,19.66,false,false,false,76.43,76.43,0.01,"580","27","101","297","153","140",2.14,"101096",41.64,  2.67 m/s,179°
695370.365466367,5912772.75623763,2022/12/12 10:58:02,"158",53.32804489,5.933982372,19.6,false,false,false,75.71,75.71,0.01,"580","27","101","296","152","140",2.15,"101095",41.64,  2.67 m/s,179°
695374.679772054,5912773.78351978,2022/12/12 10:58:03,"159",53.32805252,5.934047699,19.57,false,false,false,75.93,75.93,0.01,"588","28","102","296","152","140",2.15,"101092",41.64,  2.67 m/s,179°
695379.325847867,5912775.24885577,2022/12/12 10:58:04,"160",53.32806396,5.934118271,19.53,false,false,false,75.37,75.37,0.01,"588","28","102","296","152","141",2.16,"101105",33.3,  2.67 m/s,179°
695384.225861115,5912776.72574949,2022/12/12 10:58:05,"161",53.32807541,5.934192658,19.5,false,false,false,75.56,75.56,0.01,"594","29","101","296","152","140",2.14,"101104",33.3,  2.84 m/s,158°
695388.967134655,5912778.19500873,2022/12/12 10:58:06,"162",53.32808685,5.93426466,19.48,false,false,false,76.16,76.16,0.01,"580","27","101","296","152","140",2.13,"101097",41.64,  2.84 m/s,158°
695393.803629383,5912779.66930144,2022/12/12 10:58:07,"163",53.3280983,5.934338093,19.47,false,false,false,75.97,75.97,0.01,"580","27","101","297","152","140",2.12,"101102",33.3,  2.84 m/s,158°
695398.576654078,5912781.13987594,2022/12/12 10:58:08,"164",53.32810974,5.934410572,19.44,false,false,false,75.78,75.78,0.01,"580","27","101","297","151","140",2.12,"101091",41.64,  2.84 m/s,158°
695403.367095458,5912782.18675982,2022/12/12 10:58:08,"165",53.32811737,5.934483051,19.41,false,false,false,76.13,76.13,0.01,"577","25","101","296","151","141",2.09,"101087",41.64,  2.84 m/s,158°
695408.203628217,5912783.65995532,2022/12/12 10:58:10,"166",53.32812881,5.934556484,19.36,false,false,false,76.17,76.17,0.01,"567","25","101","297","151","140",2.06,"101093",41.64,  4.28 m/s,169°
695413.135382004,5912785.13818487,2022/12/12 10:58:11,"167",53.32814026,5.934631348,19.32,false,false,false,76.34,76.34,0.01,"567","25","101","296","151","140",2.03,"101092",41.64,  4.28 m/s,169°
695417.781436981,5912786.60355897,2022/12/12 10:58:11,"168",53.3281517,5.93470192,19.29,false,false,false,76.13,76.13,0.01,"580","27","100","296","151","141",2,"101094",41.64,  4.28 m/s,169°
695422.649605777,5912788.07918439,2022/12/12 10:58:13,"169",53.32816315,5.934775829,19.26,false,false,false,76.01,76.01,0.01,"580","27","100","297","150","140",1.98,"101096",41.64,  4.28 m/s,169°
695427.390924856,5912789.54848522,2022/12/12 10:58:14,"170",53.32817459,5.934847832,19.19,false,false,false,75.2,75.2,0.01,"561","24","101","296","151","140",1.96,"101093",41.64,  4.28 m/s,169°
695432.322601115,5912791.02673221,2022/12/12 10:58:14,"171",53.32818604,5.934922695,19.13,false,false,false,75.03,75.03,0.01,"567","25","101","297","150","140",1.95,"101111",33.3,  4.28 m/s,169°
695437.159117566,5912792.49995758,2022/12/12 10:58:16,"172",53.32819748,5.934996128,19.11,false,false,false,75.29,75.29,0.01,"567","25","100","296","150","139",1.95,"101110",33.3,  2.56 m/s,171°
695441.836915693,5912793.96666135,2022/12/12 10:58:17,"173",53.32820892,5.935067177,19.09,false,false,false,75.57,75.57,0.01,"567","25","100","296","150","140",1.96,"101104",33.3,  2.56 m/s,171°
695446.768583722,5912795.44492354,2022/12/12 10:58:18,"174",53.32822037,5.93514204,19.06,false,false,false,75.7,75.7,0.01,"580","27","100","295","150","140",1.96,"101108",33.3,  2.56 m/s,171°
695451.622515775,5912796.49446841,2022/12/12 10:58:19,"175",53.328228,5.935215473,19,false,false,false,75.65,75.65,0.01,"567","25","100","296","149","139",1.97,"101106",33.3,  2.56 m/s,171°
695456.427265388,5912797.9664077,2022/12/12 10:58:20,"176",53.32823944,5.935288429,18.97,false,false,false,76.11,76.11,0.01,"561","24","100","296","149","139",1.96,"101098",41.64,  2.56 m/s,171°
695461.136763934,5912799.43554875,2022/12/12 10:58:21,"177",53.32825089,5.935359955,18.94,false,false,false,76.12,76.12,0.01,"567","25","99","296","149","139",1.95,"101100",33.3,  2.56 m/s,171°
695466.068467166,5912800.91271916,2022/12/12 10:58:22,"178",53.32826233,5.935434818,18.89,false,false,false,75.93,75.93,0.01,"567","25","98","296","150","139",1.94,"101099",41.64,  2.56 m/s,171°
695470.827187957,5912801.95836852,2022/12/12 10:58:23,"179",53.32826996,5.935506821,18.85,false,false,false,76.36,76.36,0.01,"588","28","99","295","149","140",1.94,"101107",33.3,  2.56 m/s,171°
695473.83983861,5912802.93221,2022/12/12 10:58:24,"180",53.32827759,5.935552597,18.79,false,false,false,76.24,76.24,0.01,"567","25","99","296","148","139",1.96,"101114",33.3,  2.56 m/s,171°
695474.044640918,5912803.36504517,2022/12/12 10:58:25,"181",53.3282814,5.935555935,18.74,false,false,false,13.94,13.94,0.01,"567","25","99","296","148","139",1.99,"101107",33.3,  2.56 m/s,171°
695472.785929508,5912804.58874096,2022/12/12 10:58:26,"182",53.32829285,5.935537815,18.79,false,false,false,344.04,344.04,0.01,"577","26","99","296","149","139",2.04,"101113",33.3,  2.56 m/s,171°
695471.252714119,5912807.07438347,2022/12/12 10:58:27,"183",53.32831573,5.935516357,18.81,false,false,false,343.63,343.63,0.01,"580","27","99","295","149","140",2.06,"101111",33.3,  2.56 m/s,171°
695469.906852194,5912810.41878367,2022/12/12 10:58:28,"184",53.32834625,5.935498238,18.83,false,false,false,344,344,0.01,"600","30","99","296","149","139",2.12,"101112",33.3,  2.56 m/s,171°
695469.040277033,5912812.93295785,2022/12/12 10:58:29,"185",53.32836914,5.935486794,18.83,false,false,false,343.95,343.95,0.01,"588","28","100","295","149","140",2.17,"101111",33.3,  2.56 m/s,171°
695468.881495467,5912812.92642762,2022/12/12 10:58:30,"186",53.32836914,5.935484409,18.81,false,false,false,287.91,287.91,0.01,"588","28","100","296","149","139",2.21,"101099",41.64,  2.56 m/s,171°
695467.646605223,5912812.02570229,2022/12/12 10:58:31,"187",53.32836151,5.935465336,18.78,false,false,false,255.11,255.11,0.01,"580","27","99","296","149","139",2.24,"101089",41.64,  2.56 m/s,171°
695465.364088669,5912811.08189213,2022/12/12 10:58:32,"188",53.32835388,5.935430527,18.74,false,false,false,254.78,254.78,0.01,"580","27","99","296","148","139",2.19,"101093",41.64,  2.56 m/s,171°
695462.224416626,5912810.10283194,2022/12/12 10:58:33,"189",53.32834625,5.935382843,18.66,false,false,false,254.82,254.82,0.01,"588","28","100","296","149","139",2.16,"101093",41.64,  2.56 m/s,171°
695458.418126626,5912809.09635926,2022/12/12 10:58:34,"190",53.32833862,5.935325146,18.57,false,false,false,254.88,254.88,0.01,"567","25","99","296","148","139",2.11,"101088",41.64,  2.56 m/s,171°
695454.184803574,5912807.64791646,2022/12/12 10:58:35,"191",53.32832718,5.935260773,18.47,false,false,false,254.92,254.92,0.01,"553","23","99","297","148","139",2.08,"101092",41.64,  2.56 m/s,171°
695449.348352853,5912806.17356123,2022/12/12 10:58:36,"192",53.32831573,5.93518734,18.35,false,false,false,254.95,254.95,0.01,"553","23","99","297","149","139",2.06,"101095",41.64,  2.56 m/s,171°
695444.353138431,5912804.69379637,2022/12/12 10:58:37,"193",53.32830429,5.935111523,18.23,false,false,false,254.86,254.86,0.01,"553","23","99","297","148","139",2.02,"101093",41.64,  2.56 m/s,171°
695439.484880117,5912803.2192575,2022/12/12 10:58:38,"194",53.32829285,5.935037613,18.1,false,false,false,254.68,254.68,0.01,"561","24","98","296","148","138",1.95,"101099",41.64,  2.56 m/s,171°
695436.04210185,5912802.6521631,2022/12/12 10:58:39,"195",53.32828903,5.934985638,17.99,false,false,false,254.55,254.55,0.01,"553","23","99","296","148","139",1.93,"101104",33.3,  2.56 m/s,171°
695435.424596376,5912802.20235942,2022/12/12 10:58:40,"196",53.32828522,5.934976101,17.98,false,false,false,255.63,255.63,0.01,"553","23","99","295","148","139",1.99,"101100",33.3,  2.56 m/s,171°
695434.757912126,5912802.17494544,2022/12/12 10:58:41,"197",53.32828522,5.934966087,18.04,false,false,false,256.11,256.11,0.01,"553","23","98","295","147","139",2.01,"101107",33.3,  2.56 m/s,171°
695431.523026456,5912801.19199109,2022/12/12 10:58:42,"198",53.32827759,5.934916973,18.19,false,false,false,255.64,255.64,0.01,"551","23","98","296","148","139",2,"101095",41.64,  2.56 m/s,171°
695427.653211459,5912800.18293176,2022/12/12 10:58:43,"199",53.32826996,5.934858322,18.26,false,false,false,255.1,255.1,0.01,"553","23","98","296","148","139",1.95,"101093",41.64,  2.56 m/s,171°
695423.356472121,5912798.73079595,2022/12/12 10:58:44,"200",53.32825851,5.934792996,18.35,false,false,false,254.61,254.61,0.01,"553","23","98","296","148","138",1.9,"101095",41.64,  2.56 m/s,171°
695418.869146185,5912797.27194188,2022/12/12 10:58:45,"201",53.32824707,5.934724808,18.45,false,false,false,255.14,255.14,0.01,"542","21","98","296","147","138",1.88,"101091",41.64,  3.20 m/s,176°
695414.000873847,5912795.79742945,2022/12/12 10:58:46,"202",53.32823563,5.934650898,18.58,false,false,false,254.68,254.68,0.01,"542","21","98","296","147","138",1.85,"101090",41.64,  3.20 m/s,176°
695409.115178818,5912794.74661755,2022/12/12 10:58:47,"203",53.328228,5.934576988,18.68,false,false,false,254.94,254.94,0.01,"536","20","97","296","147","138",1.8,"101089",41.64,  3.20 m/s,176°
695404.2787036,5912793.27230878,2022/12/12 10:58:48,"204",53.32821655,5.934503555,18.78,false,false,false,255.3,255.3,0.01,"536","20","96","295","147","138",1.75,"101088",41.64,  3.20 m/s,176°
695399.283464295,5912791.79259192,2022/12/12 10:58:49,"205",53.32820511,5.934427738,18.92,false,false,false,254.72,254.72,0.01,"551","23","97","296","146","139",1.71,"101081",41.64,  3.20 m/s,176°
695394.446983587,5912790.31829329,2022/12/12 10:58:50,"206",53.32819366,5.934354305,19,false,false,false,254.83,254.83,0.01,"527","19","96","296","147","139",1.65,"101077",41.64,  5.11 m/s,189°
695389.6422109,5912788.84641723,2022/12/12 10:58:50,"207",53.32818222,5.934281349,19.1,false,false,false,255.42,255.42,0.01,"530","19","96","296","146","139",1.61,"101079",41.64,  5.11 m/s,189°
695384.805679041,5912787.37324061,2022/12/12 10:58:52,"208",53.32817078,5.934207916,19.21,false,false,false,255.07,255.07,0.01,"536","20","97","296","147","140",1.58,"101078",41.64,  5.11 m/s,189°
695380.000946655,5912785.90026237,2022/12/12 10:58:53,"209",53.32815933,5.93413496,19.34,false,false,false,254.89,254.89,0.01,"536","20","97","296","147","140",1.56,"101075",41.64,  5.11 m/s,189°
695375.146992491,5912784.85079122,2022/12/12 10:58:54,"210",53.3281517,5.934061527,19.43,false,false,false,255.11,255.11,0.01,"551","23","96","297","147","139",1.51,"101074",41.64,  5.11 m/s,189°
695370.310452917,5912783.37762955,2022/12/12 10:58:55,"211",53.32814026,5.933988094,19.54,false,false,false,255.19,255.19,0.01,"530","19","97","295","146","140",1.49,"101075",41.64,  5.11 m/s,189°
695365.442266404,5912781.90205819,2022/12/12 10:58:56,"212",53.32812881,5.933914185,19.64,false,false,false,255.49,255.49,0.01,"518","17","96","295","145","139",1.48,"101072",41.64,  5.11 m/s,189°
695360.859640339,5912780.4393436,2022/12/12 10:58:56,"213",53.32811737,5.933844566,19.74,false,false,false,254.5,254.5,0.01,"518","17","95","296","146","140",1.47,"101070",41.64,  5.11 m/s,189°
695357.98821151,5912779.89690593,2022/12/12 10:58:58,"214",53.32811356,5.933801174,19.75,false,false,false,254.54,254.54,0.01,"527","19","95","295","146","138",1.47,"101079",41.64,  5.11 m/s,189°
695357.688240487,5912779.45905081,2022/12/12 10:58:59,"215",53.32810974,5.933796406,19.69,false,false,false,255.96,255.96,0.01,"551","23","95","296","145","139",1.53,"101079",41.64,  5.11 m/s,189°
695356.277078274,5912778.97663622,2022/12/12 10:59:00,"216",53.32810593,5.933774948,19.64,false,false,false,255.76,255.76,0.01,"530","19","95","296","145","139",1.58,"101074",41.64,  4.10 m/s,175°
695352.661218417,5912777.97807829,2022/12/12 10:59:01,"217",53.3280983,5.933720112,19.59,false,false,false,255.35,255.35,0.01,"530","19","94","295","145","138",1.56,"101071",41.64,  4.10 m/s,175°
695348.823128028,5912776.9703892,2022/12/12 10:59:02,"218",53.32809067,5.933661938,19.5,false,false,false,255.36,255.36,0.01,"518","17","95","296","144","138",1.55,"101070",41.64,  4.10 m/s,175°
695344.699293897,5912775.95095908,2022/12/12 10:59:03,"219",53.32808304,5.933599472,19.44,false,false,false,255.33,255.33,0.01,"518","17","95","296","145","138",1.53,"101073",41.64,  4.10 m/s,175°
695340.37075495,5912774.49759415,2022/12/12 10:59:04,"220",53.32807159,5.933533669,19.37,false,false,false,255.32,255.32,0.01,"530","19","94","295","145","139",1.52,"101071",41.64,  4.10 m/s,175°
695336.056444524,5912773.47034327,2022/12/12 10:59:05,"221",53.32806396,5.933468342,19.29,false,false,false,255.3,255.3,0.01,"527","19","94","295","145","138",1.51,"101072",41.64,  3.32 m/s,162°
695331.442112897,5912772.00635501,2022/12/12 10:59:06,"222",53.32805252,5.933398247,19.22,false,false,false,255.09,255.09,0.01,"518","17","94","296","144","138",1.51,"101074",41.64,  3.32 m/s,162°
695326.605549228,5912770.53323841,2022/12/12 10:59:07,"223",53.32804108,5.933324814,19.14,false,false,false,254.87,254.87,0.01,"505","15","93","295","145","138",1.5,"101073",41.64,  3.32 m/s,162°
695321.705515372,5912769.05640462,2022/12/12 10:59:07,"224",53.32802963,5.933250427,19.07,false,false,false,254.39,254.39,0.01,"508","16","93","296","145","138",1.47,"101078",41.64,  3.32 m/s,162°
695316.932459429,5912767.5859081,2022/12/12 10:59:09,"225",53.32801819,5.933177948,18.96,false,false,false,254.88,254.88,0.01,"530","19","94","297","145","138",1.43,"101078",41.64,  3.32 m/s,162°
695312.000730066,5912766.10778216,2022/12/12 10:59:10,"226",53.32800674,5.933103085,18.87,false,false,false,254.99,254.99,0.01,"527","19","93","297","144","139",1.41,"101087",41.64,  4.55 m/s,171°
695307.195912097,5912764.63599057,2022/12/12 10:59:11,"227",53.3279953,5.933030129,18.79,false,false,false,255.13,255.13,0.01,"518","17","94","297","145","138",1.38,"101084",41.64,  4.55 m/s,171°
695302.391024851,5912763.16420117,2022/12/12 10:59:12,"228",53.32798386,5.932957172,18.69,false,false,false,255.01,255.01,0.01,"527","19","93","297","145","139",1.36,"101085",41.64,  4.55 m/s,171°
695297.52280049,5912761.68870031,2022/12/12 10:59:13,"229",53.32797241,5.932883263,18.61,false,false,false,254.67,254.67,0.01,"518","17","93","297","144","138",1.35,"101088",41.64,  4.55 m/s,171°
695292.827524969,5912760.6458359,2022/12/12 10:59:14,"230",53.32796478,5.932812214,18.52,false,false,false,254.99,254.99,0.01,"530","19","93","296","145","139",1.33,"101093",41.64,  4.55 m/s,171°
695287.92742671,5912759.17014946,2022/12/12 10:59:15,"231",53.32795334,5.932737827,18.4,false,false,false,255.31,255.31,0.01,"527","19","94","297","144","138",1.3,"101094",41.64,  4.55 m/s,171°
695283.090884694,5912757.69596567,2022/12/12 10:59:16,"232",53.32794189,5.932664394,18.33,false,false,false,255.04,255.04,0.01,"527","19","93","297","145","138",1.29,"101094",41.64,  4.55 m/s,171°
695278.41307758,5912756.22942275,2022/12/12 10:59:17,"233",53.32793045,5.932593346,18.24,false,false,false,254.49,254.49,0.01,"518","17","93","296","144","138",1.27,"101096",41.64,  4.55 m/s,171°
695275.114621006,5912755.24396674,2022/12/12 10:59:18,"234",53.32792282,5.932543278,18.16,false,false,false,254.3,254.3,0.01,"530","19","94","297","143","138",1.27,"101108",33.3,  4.55 m/s,171°
695274.60664745,5912755.22309636,2022/12/12 10:59:19,"235",53.32792282,5.932535648,18.12,false,false,false,302.73,302.73,0.01,"530","19","94","296","144","138",1.33,"101105",33.3,  4.55 m/s,171°
695274.790911742,5912756.93053835,2022/12/12 10:59:20,"236",53.32793808,5.932539463,18.15,false,false,false,343.04,343.04,0.01,"553","23","94","297","144","138",1.4,"101124",33.3,  4.55 m/s,171°
695274.47844695,5912759.89191855,2022/12/12 10:59:21,"237",53.32796478,5.932536602,18.2,false,false,false,343.54,343.54,0.01,"551","23","94","297","144","138",1.46,"101123",33.3,  4.55 m/s,171°
695273.718372648,5912763.68595814,2022/12/12 10:59:21,"238",53.32799912,5.932527542,18.24,false,false,false,343.14,343.14,0.01,"553","23","95","297","144","138",1.51,"101125",33.3,  4.55 m/s,171°
695273.074172526,5912766.20818409,2022/12/12 10:59:23,"239",53.328022,5.932519436,18.25,false,false,false,343.67,343.67,0.01,"567","25","95","296","144","138",1.58,"101119",33.3,  4.55 m/s,171°
695273.08847575,5912766.63429656,2022/12/12 10:59:24,"240",53.32802582,5.932519913,18.25,false,false,false,41.22,41.22,0.01,"567","25","96","297","144","139",1.61,"101126",33.3,  4.55 m/s,171°
695274.693226292,5912766.27470373,2022/12/12 10:59:24,"241",53.328022,5.932543755,18.29,false,false,false,75.87,75.87,0.01,"588","28","95","297","144","138",1.68,"101121",33.3,  4.55 m/s,171°
695277.342394482,5912766.80907218,2022/12/12 10:59:26,"242",53.32802582,5.932583809,18.35,false,false,false,75.69,75.69,0.01,"567","25","95","297","144","138",1.69,"101119",33.3,  4.55 m/s,171°
695280.767802217,5912767.79974632,2022/12/12 10:59:27,"243",53.32803345,5.932635784,18.41,false,false,false,75.69,75.69,0.01,"561","24","95","296","144","138",1.69,"101118",33.3,  4.55 m/s,171°
695284.923410279,5912768.82042534,2022/12/12 10:59:27,"244",53.32804108,5.932698727,18.48,false,false,false,75.7,75.7,0.01,"567","25","96","297","144","138",1.7,"101120",33.3,  4.55 m/s,171°
695289.601203049,5912770.28697501,2022/12/12 10:59:29,"245",53.32805252,5.932769775,18.57,false,false,false,75.77,75.77,0.01,"577","26","96","297","143","138",1.73,"101119",33.3,  4.55 m/s,171°
695294.613968434,5912771.34288244,2022/12/12 10:59:30,"246",53.32806015,5.932845593,18.66,false,false,false,75.72,75.72,0.01,"588","28","96","296","144","138",1.74,"101116",33.3,  4.37 m/s,168°
695299.513985592,5912772.81857339,2022/12/12 10:59:30,"247",53.32807159,5.932919979,18.72,false,false,false,75.67,75.67,0.01,"577","26","95","295","143","137",1.77,"101113",33.3,  4.37 m/s,168°
695304.414020872,5912774.29538425,2022/12/12 10:59:32,"248",53.32808304,5.932994366,18.81,false,false,false,75.65,75.65,0.01,"567","25","95","296","143","138",1.81,"101114",33.3,  4.37 m/s,168°
695309.155316405,5912775.7645633,2022/12/12 10:59:33,"249",53.32809448,5.933066368,18.91,false,false,false,75.88,75.88,0.01,"567","25","95","296","143","138",1.84,"101110",33.3,  4.37 m/s,168°
695313.896630149,5912777.23486195,2022/12/12 10:59:34,"250",53.32810593,5.933138371,18.99,false,false,false,75.68,75.68,0.01,"577","26","95","295","143","138",1.86,"101114",33.3,  4.37 m/s,168°
695318.860149407,5912778.71318313,2022/12/12 10:59:35,"251",53.32811737,5.933213711,19.07,false,false,false,75.54,75.54,0.01,"588","28","95","295","143","137",1.88,"101117",33.3,  3.17 m/s,163°
695323.601436877,5912780.18237679,2022/12/12 10:59:36,"252",53.32812881,5.933285713,19.16,false,false,false,75.79,75.79,0.01,"580","27","94","295","142","137",1.9,"101109",33.3,  3.17 m/s,163°
695328.45540388,5912781.23179496,2022/12/12 10:59:37,"253",53.32813644,5.933359146,19.26,false,false,false,75.99,75.99,0.01,"577","26","94","296","143","138",1.93,"101107",33.3,  3.17 m/s,163°
695333.260153707,5912782.70472065,2022/12/12 10:59:38,"254",53.32814789,5.933432102,19.34,false,false,false,76,76,0.01,"577","26","94","296","143","138",1.97,"101104",33.3,  3.17 m/s,163°
695338.033256625,5912784.17523677,2022/12/12 10:59:39,"255",53.32815933,5.933504582,19.41,false,false,false,75.74,75.74,0.01,"580","27","94","296","143","137",1.98,"101106",33.3,  3.17 m/s,163°
695342.869690954,5912785.64947474,2022/12/12 10:59:40,"256",53.32817078,5.933578014,19.49,false,false,false,75.85,75.85,0.01,"588","28","94","295","142","138",1.99,"101101",33.3,  3.17 m/s,163°
695347.674544952,5912787.12130588,2022/12/12 10:59:41,"257",53.32818222,5.933650971,19.58,false,false,false,75.58,75.58,0.01,"580","27","94","296","142","137",1.98,"101104",33.3,  3.17 m/s,163°
695352.464988086,5912788.16813838,2022/12/12 10:59:42,"258",53.32818985,5.93372345,19.65,false,false,false,75.64,75.64,0.01,"577","26","94","295","142","138",1.99,"101106",33.3,  3.17 m/s,163°
695357.174501193,5912789.63606071,2022/12/12 10:59:43,"259",53.32820129,5.933794975,19.73,false,false,false,75.9,75.9,0.01,"561","24","93","296","142","138",2,"101102",33.3,  3.17 m/s,163°
695360.917377017,5912790.6398436,2022/12/12 10:59:44,"260",53.32820892,5.933851719,19.77,false,false,false,76.71,76.71,0.01,"567","25","93","295","142","138",2.01,"101102",33.3,  3.17 m/s,163°
695361.757073322,5912791.099884,2022/12/12 10:59:45,"261",53.32821274,5.933864594,19.73,false,false,false,75.63,75.63,0.01,"580","27","93","295","141","137",2.04,"101109",33.3,  3.17 m/s,163°
695362.487205203,5912791.12989563,2022/12/12 10:59:46,"262",53.32821274,5.933875561,19.68,false,false,false,74.89,74.89,0.01,"580","27","92","295","142","137",2.09,"101108",33.3,  3.17 m/s,163°
695365.658596263,5912792.11019183,2022/12/12 10:59:47,"263",53.32822037,5.933923721,19.63,false,false,false,76.17,76.17,0.01,"577","26","92","295","141","137",2.08,"101106",33.3,  3.17 m/s,163°
695369.306199441,5912793.11006535,2022/12/12 10:59:48,"264",53.328228,5.933979034,19.53,false,false,false,75.97,75.97,0.01,"577","26","92","295","141","138",2.09,"101104",33.3,  3.17 m/s,163°
695373.412597688,5912794.5532128,2022/12/12 10:59:49,"265",53.32823944,5.9340415,19.47,false,false,false,76.14,76.14,0.01,"577","26","92","295","141","138",2.09,"101104",33.3,  3.17 m/s,163°
695377.949111026,5912795.58963352,2022/12/12 10:59:50,"266",53.32824707,5.934110165,19.37,false,false,false,76.53,76.53,0.01,"577","26","93","296","141","139",2.09,"101100",33.3,  2.24 m/s,174°
695382.626853932,5912797.05627598,2022/12/12 10:59:51,"267",53.32825851,5.934181213,19.26,false,false,false,75.92,75.92,0.01,"588","28","92","297","142","138",2.08,"101106",33.3,  2.24 m/s,174°
695387.68555868,5912798.53969843,2022/12/12 10:59:52,"268",53.32826996,5.934257984,19.17,false,false,false,75.87,75.87,0.01,"567","25","93","297","141","139",2.06,"101105",33.3,  2.24 m/s,174°
695392.458565381,5912800.0102672,2022/12/12 10:59:53,"269",53.3282814,5.934330463,19.08,false,false,false,75.19,75.19,0.01,"567","25","92","295","141","138",2.07,"101109",33.3,  2.24 m/s,174°
695397.231590253,5912801.48195563,2022/12/12 10:59:53,"270",53.32829285,5.934402943,19,false,false,false,75.28,75.28,0.01,"567","25","93","296","141","138",2.07,"101114",33.3,  2.24 m/s,174°
695401.877632681,5912802.94731447,2022/12/12 10:59:55,"271",53.32830429,5.934473515,18.91,false,false,false,76.09,76.09,0.01,"567","25","92","296","141","137",2.05,"101104",33.3,  3.20 m/s,193°
695406.826766394,5912804.00072763,2022/12/12 10:59:56,"272",53.32831192,5.934548378,18.81,false,false,false,76.18,76.18,0.01,"580","27","93","296","140","138",2.03,"101105",33.3,  3.20 m/s,193°
695411.726788199,5912805.47653854,2022/12/12 10:59:57,"273",53.32832336,5.934622765,18.69,false,false,false,76,76,0.01,"561","24","92","296","140","138",2.02,"101112",33.3,  3.20 m/s,193°
695416.594938602,5912806.95215819,2022/12/12 10:59:58,"274",53.32833481,5.934696674,18.57,false,false,false,75.75,75.75,0.01,"553","23","92","296","140","138",2.01,"101111",33.3,  3.20 m/s,193°
695421.463198564,5912808.42667356,2022/12/12 10:59:59,"275",53.32834625,5.934770584,18.47,false,false,false,75.78,75.78,0.01,"561","24","92","295","140","138",2,"101116",33.3,  3.20 m/s,193°
695426.299653735,5912809.9010003,2022/12/12 10:59:59,"276",53.3283577,5.934844017,18.36,false,false,false,75.53,75.53,0.01,"567","25","92","296","140","138",2,"101119",33.3,  3.20 m/s,193°
695431.167908228,5912811.37552575,2022/12/12 11:00:01,"277",53.32836914,5.934917927,18.25,false,false,false,75.32,75.32,0.01,"588","28","92","295","140","138",2.01,"101127",33.3,  3.20 m/s,193°
695435.845688705,5912812.84222404,2022/12/12 11:00:02,"278",53.32838058,5.934988976,18.17,false,false,false,76.28,76.28,0.01,"567","25","91","295","140","137",2.02,"101116",33.3,  3.20 m/s,193°
695438.858337977,5912813.81604337,2022/12/12 11:00:03,"279",53.32838821,5.935034752,18.11,false,false,false,77.09,77.09,0.01,"577","26","92","296","140","138",2,"101117",33.3,  3.20 m/s,193°
695439.334482791,5912813.83562286,2022/12/12 11:00:04,"280",53.32838821,5.935041904,18.08,false,false,false,75.58,75.58,0.01,"561","24","92","296","140","138",2.03,"101128",33.3,  3.20 m/s,193°
695440.223392962,5912813.87217576,2022/12/12 11:00:05,"281",53.32838821,5.935055256,18.16,false,false,false,75.19,75.19,0.01,"577","26","92","296","140","138",2.07,"101123",33.3,  3.20 m/s,193°
695443.299553438,5912814.84860964,2022/12/12 11:00:06,"282",53.32839584,5.935101986,18.34,false,false,false,76.18,76.18,0.01,"588","28","92","296","140","138",2.07,"101114",33.3,  3.20 m/s,193°
695446.756655095,5912815.84071084,2022/12/12 11:00:07,"283",53.32840347,5.935154438,18.42,false,false,false,75.61,75.61,0.01,"577","26","92","295","139","138",2.06,"101115",33.3,  3.20 m/s,193°
695450.323311109,5912817.26284574,2022/12/12 11:00:08,"284",53.32841492,5.935208798,18.55,false,false,false,75.82,75.82,0.01,"577","26","92","296","139","137",2.06,"101114",33.3,  3.20 m/s,193°
695454.002570607,5912818.26408826,2022/12/12 11:00:08,"285",53.32842255,5.935264587,18.68,false,false,false,75.66,75.66,0.01,"567","25","92","295","140","138",2.04,"101113",33.3,  3.20 m/s,193°
695457.523180524,5912819.25880929,2022/12/12 11:00:10,"286",53.32843018,5.935317993,18.79,false,false,false,75.7,75.7,0.01,"577","26","91","295","139","138",2.05,"101111",33.3,  3.20 m/s,193°
695461.170747595,5912820.2587542,2022/12/12 11:00:11,"287",53.32843781,5.935373306,18.95,false,false,false,75.79,75.79,0.01,"580","27","92","296","139","137",2.05,"101107",33.3,  3.20 m/s,193°
695465.104098765,5912821.26934134,2022/12/12 11:00:12,"288",53.32844543,5.935432911,19.1,false,false,false,76.77,76.77,0.01,"577","26","92","296","139","137",2.04,"101111",33.3,  3.20 m/s,193°
695467.259651849,5912822.20793008,2022/12/12 11:00:13,"289",53.32845306,5.935465813,19.08,false,false,false,75.99,75.99,0.01,"577","26","91","295","139","137",2.07,"101113",33.3,  3.20 m/s,193°
695467.100937169,5912822.20140264,2022/12/12 11:00:14,"290",53.32845306,5.935463429,19.04,false,false,false,357.21,357.21,0.01,"577","26","91","295","139","137",2.12,"101107",33.3,  3.20 m/s,193°
695465.966050655,5912824.28013037,2022/12/12 11:00:15,"291",53.32847214,5.935447693,19.14,false,false,false,343.62,343.62,0.01,"580","27","92","295","139","138",2.15,"101109",33.3,  3.20 m/s,193°
695464.686781653,5912826.77733239,2022/12/12 11:00:16,"292",53.32849503,5.93543005,19.21,false,false,false,343.5,343.5,0.01,"600","27","91","296","139","137",2.19,"101108",33.3,  3.20 m/s,193°
695463.450395195,5912830.55064826,2022/12/12 11:00:17,"293",53.32852936,5.935413837,19.27,false,false,false,343.71,343.71,0.01,"594","29","92","296","139","138",2.24,"101107",33.3,  3.20 m/s,193°
695462.840948351,5912832.22545998,2022/12/12 11:00:18,"294",53.32854462,5.935405731,19.29,false,false,false,343.12,343.12,0.01,"594","29","93","295","138","138",2.3,"101103",33.3,  3.20 m/s,193°
695462.68223401,5912832.21893268,2022/12/12 11:00:19,"295",53.32854462,5.935403347,19.25,false,false,false,269.83,269.83,0.01,"594","29","92","295","139","137",2.34,"101086",41.64,  3.20 m/s,193°
695461.098096569,5912831.30384562,2022/12/12 11:00:20,"296",53.32853699,5.935379028,19.2,false,false,false,255.45,255.45,0.01,"580","27","93","295","139","137",2.36,"101086",41.64,  3.20 m/s,193°
695458.547386226,5912829.92348259,2022/12/12 11:00:21,"297",53.32852554,5.935339928,19.11,false,false,false,254.92,254.92,0.01,"561","24","92","295","139","138",2.33,"101087",41.64,  3.20 m/s,193°
695455.312457263,5912828.94050875,2022/12/12 11:00:22,"298",53.32851791,5.935290813,19.01,false,false,false,254.98,254.98,0.01,"567","25","91","296","139","137",2.28,"101092",41.64,  3.20 m/s,193°
695451.474425393,5912827.93273534,2022/12/12 11:00:23,"299",53.32851028,5.935232639,18.87,false,false,false,254.53,254.53,0.01,"567","25","92","296","139","137",2.24,"101092",41.64,  3.20 m/s,193°
695447.145915859,5912826.48038339,2022/12/12 11:00:24,"300",53.32849884,5.935166836,18.73,false,false,false,255.04,255.04,0.01,"577","26","92","296","138","138",2.22,"101093",41.64,  3.20 m/s,193°
695442.436395729,5912825.01236771,2022/12/12 11:00:25,"301",53.3284874,5.93509531,18.59,false,false,false,255.02,255.02,0.01,"553","23","92","295","138","137",2.19,"101095",41.64,  3.20 m/s,193°
695437.695229018,5912823.54194159,2022/12/12 11:00:26,"302",53.32847595,5.935023308,18.44,false,false,false,253.71,253.71,0.01,"553","23","92","295","138","137",2.1,"101092",41.64,  3.20 m/s,193°
695435.458690931,5912823.02556222,2022/12/12 11:00:27,"303",53.32847214,5.934989452,18.33,false,false,false,255.11,255.11,0.01,"551","23","92","296","138","137",2.09,"101106",33.3,  3.20 m/s,193°
695435.331732543,5912823.02034166,2022/12/12 11:00:27,"304",53.32847214,5.934987545,18.33,false,false,false,256.02,256.02,0.01,"553","23","92","296","139","137",2.15,"101103",33.3,  3.20 m/s,193°
695433.666718985,5912822.52635045,2022/12/12 11:00:29,"305",53.32846832,5.934962273,18.43,false,false,false,255.79,255.79,0.01,"567","25","91","294","138","137",2.18,"101097",41.64,  3.20 m/s,193°
695430.209620204,5912821.53425871,2022/12/12 11:00:30,"306",53.32846069,5.934909821,18.53,false,false,false,255.54,255.54,0.01,"542","21","91","295","138","137",2.14,"101092",41.64,  1.91 m/s,179°
695426.181040667,5912820.51867125,2022/12/12 11:00:31,"307",53.32845306,5.934848785,18.59,false,false,false,254.92,254.92,0.01,"536","20","91","295","138","137",2.11,"101098",41.64,  1.91 m/s,179°
695421.884274205,5912819.0676484,2022/12/12 11:00:32,"308",53.32844162,5.934783459,18.67,false,false,false,255.07,255.07,0.01,"536","20","90","295","137","137",2.06,"101095",41.64,  1.91 m/s,179°
695417.316034324,5912818.02987932,2022/12/12 11:00:33,"309",53.32843399,5.934714317,18.79,false,false,false,254.54,254.54,0.01,"536","20","90","294","138","137",2.01,"101094",41.64,  1.91 m/s,179°
695412.701767129,5912816.5658106,2022/12/12 11:00:34,"310",53.32842255,5.934644222,18.87,false,false,false,254.84,254.84,0.01,"553","23","90","296","138","137",1.97,"101092",41.64,  1.91 m/s,179°
695407.801869607,5912815.08888909,2022/12/12 11:00:35,"311",53.3284111,5.934569836,18.94,false,false,false,254.94,254.94,0.01,"530","19","90","295","137","137",1.93,"101084",41.64,  2.68 m/s,164°
695402.997125927,5912813.61699883,2022/12/12 11:00:35,"312",53.32839966,5.93449688,19.04,false,false,false,254.77,254.77,0.01,"536","20","89","294","137","137",1.88,"101087",41.64,  2.68 m/s,164°
695398.192425263,5912812.14400144,2022/12/12 11:00:37,"313",53.32838821,5.934423924,19.13,false,false,false,254.75,254.75,0.01,"536","20","90","296","137","137",1.86,"101082",41.64,  2.68 m/s,164°
695393.35591986,5912810.6708155,2022/12/12 11:00:38,"314",53.32837677,5.934350491,19.2,false,false,false,254.95,254.95,0.01,"536","20","90","295","137","137",1.81,"101087",41.64,  2.68 m/s,164°
695388.487655411,5912809.19632903,2022/12/12 11:00:39,"315",53.32836533,5.934276581,19.24,false,false,false,255.41,255.41,0.01,"553","23","90","296","137","137",1.76,"101084",41.64,  2.68 m/s,164°
695383.538457801,5912808.14293218,2022/12/12 11:00:40,"316",53.3283577,5.934201717,19.33,false,false,false,255.26,255.26,0.01,"542","21","90","295","137","137",1.72,"101087",41.64,  4.24 m/s,197°
695378.765503036,5912806.67126016,2022/12/12 11:00:41,"317",53.32834625,5.934129238,19.42,false,false,false,255.27,255.27,0.01,"530","19","89","295","137","136",1.69,"101078",41.64,  4.24 m/s,197°
695373.865541045,5912805.19548616,2022/12/12 11:00:42,"318",53.32833481,5.934054852,19.54,false,false,false,254.92,254.92,0.01,"530","19","89","295","136","136",1.65,"101080",41.64,  4.24 m/s,197°
695369.156027016,5912803.72643201,2022/12/12 11:00:43,"319",53.32832336,5.933983326,19.63,false,false,false,254.92,254.92,0.01,"536","20","90","295","137","137",1.63,"101079",41.64,  4.24 m/s,197°
695364.478220994,5912802.2598,2022/12/12 11:00:44,"320",53.32831192,5.933912277,19.72,false,false,false,254.78,254.78,0.01,"542","21","90","296","137","137",1.61,"101073",41.64,  4.24 m/s,197°
695359.705209785,5912800.78925945,2022/12/12 11:00:45,"321",53.32830048,5.933839798,19.8,false,false,false,254.81,254.81,0.01,"542","21","89","296","136","137",1.58,"101075",41.64,  4.24 m/s,197°
695355.803626609,5912799.77895362,2022/12/12 11:00:46,"322",53.32829285,5.93378067,19.85,false,false,false,253.98,253.98,0.01,"530","19","89","297","137","137",1.55,"101083",41.64,  4.24 m/s,197°
695354.787755201,5912799.73719819,2022/12/12 11:00:47,"323",53.32829285,5.933765411,19.79,false,false,false,255.72,255.72,0.01,"530","19","89","296","137","137",1.55,"101088",41.64,  4.24 m/s,197°
695354.202111005,5912799.2876012,2022/12/12 11:00:48,"324",53.32828903,5.933756352,19.73,false,false,false,255.75,255.75,0.01,"536","20","90","296","137","137",1.6,"101092",41.64,  4.24 m/s,197°
695351.189371818,5912798.31383339,2022/12/12 11:00:49,"325",53.3282814,5.933710575,19.7,false,false,false,255.17,255.17,0.01,"551","23","90","296","137","137",1.59,"101087",41.64,  4.24 m/s,197°
695347.605282621,5912797.31658422,2022/12/12 11:00:50,"326",53.32827377,5.933656216,19.62,false,false,false,255.17,255.17,0.01,"542","21","89","296","136","137",1.55,"101081",41.64,  4.58 m/s,177°
695343.576735554,5912796.30107036,2022/12/12 11:00:51,"327",53.32826614,5.933595181,19.56,false,false,false,255.45,255.45,0.01,"530","19","89","296","137","137",1.52,"101078",41.64,  4.58 m/s,177°
695339.248103162,5912794.84881533,2022/12/12 11:00:52,"328",53.3282547,5.933529377,19.48,false,false,false,255.06,255.06,0.01,"530","19","89","296","136","138",1.5,"101076",41.64,  4.58 m/s,177°
695334.679893207,5912793.81112933,2022/12/12 11:00:53,"329",53.32824707,5.933460236,19.42,false,false,false,255.17,255.17,0.01,"536","20","88","296","136","138",1.48,"101074",41.64,  4.58 m/s,177°
695329.938555851,5912792.34192148,2022/12/12 11:00:54,"330",53.32823563,5.933388233,19.35,false,false,false,255.07,255.07,0.01,"536","20","88","295","136","137",1.45,"101077",41.64,  4.58 m/s,177°
695325.038612489,5912790.86508642,2022/12/12 11:00:55,"331",53.32822418,5.933313847,19.27,false,false,false,255.34,255.34,0.01,"530","19","89","295","136","137",1.42,"101078",41.64,  4.00 m/s,168°
695320.233823435,5912789.39328096,2022/12/12 11:00:56,"332",53.32821274,5.933240891,19.2,false,false,false,255.13,255.13,0.01,"518","17","88","295","135","137",1.4,"101067",41.64,  4.00 m/s,168°
695315.22108138,5912788.33734594,2022/12/12 11:00:57,"333",53.32820511,5.933165073,19.12,false,false,false,255.22,255.22,0.01,"518","17","88","295","135","137",1.39,"101075",41.64,  4.00 m/s,168°
695310.384643113,5912786.86313621,2022/12/12 11:00:58,"334",53.32819366,5.933091641,19.02,false,false,false,255.18,255.18,0.01,"518","17","87","295","136","137",1.37,"101076",41.64,  4.00 m/s,168°
695305.643292693,5912785.39395292,2022/12/12 11:00:59,"335",53.32818222,5.933019638,18.92,false,false,false,255.38,255.38,0.01,"518","17","87","294","136","137",1.35,"101078",41.64,  4.00 m/s,168°
695300.711533869,5912783.91695039,2022/12/12 11:01:00,"336",53.32817078,5.932944775,18.84,false,false,false,255.34,255.34,0.01,"530","19","87","295","135","136",1.36,"101085",41.64,  4.49 m/s,175°
695295.906777351,5912782.44405778,2022/12/12 11:01:01,"337",53.32815933,5.932871819,18.78,false,false,false,255.2,255.2,0.01,"505","15","87","294","135","136",1.36,"101077",41.64,  4.49 m/s,175°
695291.070215936,5912780.9709773,2022/12/12 11:01:02,"338",53.32814789,5.932798386,18.7,false,false,false,254.7,254.7,0.01,"508","16","87","295","135","136",1.36,"101086",41.64,  4.49 m/s,175°
695286.265454001,5912779.49809458,2022/12/12 11:01:03,"339",53.32813644,5.93272543,18.6,false,false,false,254.47,254.47,0.01,"505","15","87","296","135","136",1.34,"101092",41.64,  4.49 m/s,175°
695281.555846649,5912778.03024046,2022/12/12 11:01:03,"340",53.328125,5.932653904,18.52,false,false,false,254.67,254.67,0.01,"508","16","86","295","135","137",1.32,"101095",41.64,  4.49 m/s,175°
695276.655764063,5912776.55456528,2022/12/12 11:01:05,"341",53.32811356,5.932579517,18.43,false,false,false,255,255,0.01,"527","19","87","296","135","137",1.29,"101092",41.64,  4.49 m/s,175°
695271.850994017,5912775.08169733,2022/12/12 11:01:06,"342",53.32810211,5.932506561,18.34,false,false,false,254.59,254.59,0.01,"508","16","86","296","135","137",1.27,"101094",41.64,  4.49 m/s,175°
695268.711332531,5912774.10276909,2022/12/12 11:01:06,"343",53.32809448,5.932458878,18.27,false,false,false,254.08,254.08,0.01,"518","17","86","296","134","136",1.28,"101103",33.3,  4.49 m/s,175°
695268.266874091,5912774.08450875,2022/12/12 11:01:08,"344",53.32809448,5.932452202,18.23,false,false,false,307.2,307.2,0.01,"518","17","87","296","135","136",1.33,"101105",33.3,  4.49 m/s,175°
