X,Y,TimeStamp (UTC),"""TriggerID""","""Latitude""","""Longitude""","""Altitude (Meter AGL)""",Gimbal Roll,"""Gimbal Pitch""","""Gimbal Yaw""","""Drone Yaw""","""Combined Yaw""",HCHO (ppm),CO2 (ppm),TVOC (ppb),NO2 (ppm),C2H5OH (ppm),VOC (ppm),CO (ppm),Temp (Celcius),Pressure (pa),Altitude (meter),wind_speed,wind_direction
695404.692610895,5912749.94587048,2022/12/22 10:38:48,"1",53.32782745,5.934483051,0.13,false,false,false,80.91,80.91,0.01,"478","11","70","309","139","143",12.92,"100414",91.83,  2.64 m/s,230°
695404.502137124,5912749.93803958,2022/12/22 10:38:49,"2",53.32782745,5.93448019,0.77,false,false,false,80.75,80.75,0.01,"481","12","70","308","139","143",12.88,"100414",91.83,  2.64 m/s,230°
695404.438690252,5912749.9354311,2022/12/22 10:38:50,"3",53.32782745,5.934479237,1.11,false,false,false,80.56,80.56,0.01,"488","13","69","309","139","143",12.85,"100414",91.83,  2.64 m/s,230°
695404.438690252,5912749.9354311,2022/12/22 10:38:51,"4",53.32782745,5.934479237,2.6,false,false,false,80.26,80.26,0.01,"475","11","69","308","138","142",12.83,"100390",100.22,  2.64 m/s,230°
695404.597407297,5912749.9419564,2022/12/22 10:38:52,"5",53.32782745,5.934481621,5.78,false,false,false,80.67,80.67,0.01,"459","8","69","308","139","142",12.77,"100356",100.22,  2.64 m/s,230°
695404.756124343,5912749.9484817,2022/12/22 10:38:53,"6",53.32782745,5.934484005,8.91,false,false,false,80.97,80.97,0.01,"456","8","67","308","138","140",12.67,"100325",100.22,  2.64 m/s,230°
695404.833929479,5912750.37720604,2022/12/22 10:38:54,"7",53.32783127,5.934485436,11.95,false,false,false,81.07,81.07,0.01,"456","8","67","308","137","140",12.63,"100290",108.61,  2.64 m/s,230°
695404.865619624,5912750.37850891,2022/12/22 10:38:55,"8",53.32783127,5.934485912,14.98,false,false,false,80.96,80.96,0.01,"461","9","66","308","137","139",12.57,"100249",108.61,  2.64 m/s,230°
695404.865619624,5912750.37850891,2022/12/22 10:38:55,"9",53.32783127,5.934485912,17.88,false,false,false,81.34,81.34,0.01,"447","7","66","307","137","140",12.49,"100215",108.61,  2.64 m/s,230°
695404.865619624,5912750.37850891,2022/12/22 10:38:57,"10",53.32783127,5.934485912,18.83,false,false,false,77.46,77.46,0.01,"452","7","64","307","137","140",12.49,"100194",117.01,  2.64 m/s,230°
695404.770416036,5912750.37459482,2022/12/22 10:38:58,"11",53.32783127,5.934484482,18.66,false,false,false,59.9,59.9,0.01,"442","6","63","305","135","141",12.43,"100178",117.01,  8.01 m/s,225°
695405.278323852,5912750.39547637,2022/12/22 10:38:58,"12",53.32783127,5.934492111,18.55,false,false,false,59.6,59.6,0.01,"418","2","63","308","136","140",12.28,"100170",117.01,  8.01 m/s,225°
695407.716469572,5912752.19559068,2022/12/22 10:38:58,"13",53.32784653,5.934529781,18.44,false,false,false,60.16,60.16,0.01,"418","2","62","308","136","141",12.16,"100192",117.01,  8.01 m/s,225°
695411.075291402,5912754.03355913,2022/12/22 10:39:01,"14",53.32786179,5.93458128,18.36,false,false,false,60.61,60.61,0.01,"417","2","61","307","136","140",12.16,"100202",108.61,  8.01 m/s,225°
695415.224611125,5912756.75285479,2022/12/22 10:39:02,"15",53.32788467,5.934645176,18.32,false,false,false,60.68,60.68,0.01,"418","2","61","308","135","140",12.17,"100201",108.61,  8.01 m/s,225°
695419.818340593,5912759.49154069,2022/12/22 10:39:03,"16",53.32790756,5.934715748,18.3,false,false,false,60.63,60.63,0.01,"438","5","61","307","135","140",12.19,"100205",108.61,  8.01 m/s,225°
695424.316794969,5912762.22631394,2022/12/22 10:39:04,"17",53.32793045,5.934784889,18.29,false,false,false,60.66,60.66,0.01,"427","4","60","307","135","140",12.18,"100209",108.61,  8.01 m/s,225°
695428.70575161,5912764.53106374,2022/12/22 10:39:05,"18",53.32794952,5.934852123,18.29,false,false,false,60.55,60.55,0.01,"427","4","60","307","134","140",12.17,"100207",108.61,  8.01 m/s,225°
695433.013789847,5912767.25801631,2022/12/22 10:39:06,"19",53.32797241,5.934918404,18.3,false,false,false,60.57,60.57,0.01,"427","4","60","307","134","139",12.17,"100203",108.61,  8.01 m/s,225°
695437.290000074,5912769.98366433,2022/12/22 10:39:07,"20",53.3279953,5.934984207,18.31,false,false,false,60.55,60.55,0.01,"425","3","59","307","134","139",12.19,"100205",108.61,  8.01 m/s,225°
695441.566272073,5912772.70931905,2022/12/22 10:39:08,"21",53.32801819,5.935050011,18.31,false,false,false,60.46,60.46,0.01,"438","5","58","308","134","140",12.18,"100204",108.61,  8.01 m/s,225°
695445.82818497,5912775.00886166,2022/12/22 10:39:09,"22",53.32803726,5.935115337,18.3,false,false,false,60.46,60.46,0.01,"427","4","59","308","133","139",12.16,"100204",108.61,  8.01 m/s,225°
695450.040934685,5912777.73191246,2022/12/22 10:39:10,"23",53.32806015,5.935180187,18.29,false,false,false,60.56,60.56,0.01,"425","3","59","307","134","138",12.15,"100209",108.61,  8.01 m/s,225°
695454.285436194,5912780.45627305,2022/12/22 10:39:11,"24",53.32808304,5.935245514,18.29,false,false,false,60.6,60.6,0.01,"427","4","58","308","133","139",12.14,"100207",108.61,  8.01 m/s,225°
695458.67436243,5912782.76105126,2022/12/22 10:39:12,"25",53.32810211,5.935312748,18.29,false,false,false,60.56,60.56,0.01,"425","3","58","308","133","139",12.13,"100208",108.61,  8.01 m/s,225°
695462.823585238,5912785.48150178,2022/12/22 10:39:13,"26",53.328125,5.935376644,18.3,false,false,false,60.42,60.42,0.01,"438","5","58","308","133","139",12.1,"100207",108.61,  7.20 m/s,225°
695467.099829296,5912788.20718016,2022/12/22 10:39:14,"27",53.32814789,5.935442448,18.3,false,false,false,60.37,60.37,0.01,"438","5","57","308","133","139",12.07,"100206",108.61,  7.20 m/s,225°
695471.361716719,5912790.50674628,2022/12/22 10:39:15,"28",53.32816696,5.935507774,18.3,false,false,false,60.5,60.5,0.01,"425","3","57","308","132","140",12.06,"100208",108.61,  7.20 m/s,225°
695475.352210146,5912793.22068052,2022/12/22 10:39:16,"29",53.32818985,5.935569286,18.29,false,false,false,60.7,60.7,0.01,"425","3","57","308","132","138",12.04,"100205",108.61,  7.20 m/s,225°
695477.063317754,5912794.14099372,2022/12/22 10:39:17,"30",53.32819748,5.935595512,18.25,false,false,false,56.21,56.21,0.01,"422","3","56","308","132","139",12.01,"100201",108.61,  7.20 m/s,225°
695476.777642945,5912794.12924432,2022/12/22 10:39:18,"31",53.32819748,5.935591221,18.28,false,false,false,327.94,327.94,0.01,"417","2","57","308","132","139",11.96,"100173",117.01,  7.26 m/s,231°
695476.382414047,5912793.68746315,2022/12/22 10:39:19,"32",53.32819366,5.935585022,18.3,false,false,false,256,256,0.01,"418","2","57","309","132","139",11.93,"100176",117.01,  7.26 m/s,231°
695475.860180129,5912793.24157245,2022/12/22 10:39:20,"33",53.32818985,5.935576916,18.29,false,false,false,255.23,255.23,0.01,"400","0","57","309","132","139",11.64,"100168",117.01,  7.26 m/s,231°
695474.29031618,5912792.75259477,2022/12/22 10:39:21,"34",53.32818604,5.935553074,18.29,false,false,false,255.33,255.33,0.01,"400","0","56","309","132","138",11.43,"100162",117.01,  7.26 m/s,231°
695471.482395499,5912792.21158547,2022/12/22 10:39:22,"35",53.32818222,5.935510635,18.3,false,false,false,255.54,255.54,0.01,"400","0","56","308","131","138",11.29,"100161",117.01,  7.26 m/s,231°
695467.771361685,5912791.20902379,2022/12/22 10:39:23,"36",53.32817459,5.935454369,18.27,false,false,false,255.57,255.57,0.01,"405","0","56","306","131","137",11.09,"100149",117.01,  7.26 m/s,231°
695463.474511565,5912789.75796098,2022/12/22 10:39:24,"37",53.32816315,5.935389042,18.23,false,false,false,255.32,255.32,0.01,"414","2","56","308","131","138",10.89,"100151",117.01,  7.26 m/s,231°
695458.60628792,5912788.2822907,2022/12/22 10:39:25,"38",53.3281517,5.935315132,18.22,false,false,false,255.02,255.02,0.01,"400","0","55","309","130","138",10.71,"100147",117.01,  7.26 m/s,231°
695453.515853554,5912786.79860143,2022/12/22 10:39:26,"39",53.32814026,5.935237885,18.2,false,false,false,255.05,255.05,0.01,"400","0","54","308","131","137",10.54,"100154",117.01,  7.26 m/s,231°
695448.647624364,5912785.32294149,2022/12/22 10:39:27,"40",53.32812881,5.935163975,18.16,false,false,false,255.07,255.07,0.01,"400","0","54","308","130","137",10.37,"100151",117.01,  7.26 m/s,231°
695443.811103206,5912783.84970454,2022/12/22 10:39:28,"41",53.32811737,5.935090542,18.13,false,false,false,255.2,255.2,0.01,"400","0","53","308","130","137",10.24,"100151",117.01,  7.26 m/s,231°
695439.006335842,5912782.37777842,2022/12/22 10:39:29,"42",53.32810593,5.935017586,18.11,false,false,false,255.2,255.2,0.01,"405","0","53","308","130","137",10.1,"100155",117.01,  7.26 m/s,231°
695434.201611502,5912780.90474517,2022/12/22 10:39:30,"43",53.32809448,5.93494463,18.11,false,false,false,255.32,255.32,0.01,"402","0","52","308","129","136",9.98,"100145",117.01,  7.26 m/s,231°
695429.333325669,5912779.43021734,2022/12/22 10:39:31,"44",53.32808304,5.93487072,18.1,false,false,false,254.87,254.87,0.01,"402","0","53","310","129","135",9.88,"100155",117.01,  7.26 m/s,231°
695424.447615874,5912778.37939001,2022/12/22 10:39:32,"45",53.32807541,5.93479681,18.07,false,false,false,254.86,254.86,0.01,"400","0","53","310","130","137",9.77,"100161",117.01,  7.26 m/s,231°
695419.642883823,5912776.90637166,2022/12/22 10:39:33,"46",53.32806396,5.934723854,18.03,false,false,false,255.47,255.47,0.02,"400","0","52","309","129","136",9.65,"100149",117.01,  6.37 m/s,229°
695414.869859899,5912775.43577597,2022/12/22 10:39:34,"47",53.32805252,5.934651375,18.01,false,false,false,255.67,255.67,0.02,"405","0","52","309","129","137",9.57,"100159",117.01,  6.37 m/s,229°
695410.096833292,5912773.96518515,2022/12/22 10:39:35,"48",53.32804108,5.934578896,18.01,false,false,false,255.16,255.16,0.02,"407","1","52","310","129","137",9.47,"100160",117.01,  6.37 m/s,229°
695405.165066852,5912772.48695905,2022/12/22 10:39:36,"49",53.32802963,5.934504032,17.99,false,false,false,254.85,254.85,0.02,"401","0","52","310","128","137",9.4,"100162",117.01,  6.37 m/s,229°
695400.360278247,5912771.01507253,2022/12/22 10:39:37,"50",53.32801819,5.934431076,17.98,false,false,false,254.94,254.94,0.02,"401","0","51","309","128","136",9.32,"100155",117.01,  6.37 m/s,229°
695395.601581516,5912769.9694975,2022/12/22 10:39:38,"51",53.32801056,5.934359074,17.95,false,false,false,255.32,255.32,0.02,"401","0","51","309","128","136",9.23,"100154",117.01,  7.04 m/s,229°
695390.923747778,5912768.5028401,2022/12/22 10:39:39,"52",53.32799912,5.934288025,17.92,false,false,false,255.41,255.41,0.02,"400","0","51","311","128","136",9.15,"100151",117.01,  7.04 m/s,229°
695386.214200519,5912767.03376982,2022/12/22 10:39:40,"53",53.32798767,5.934216499,17.88,false,false,false,255.85,255.85,0.02,"408","1","52","310","128","136",9.08,"100148",117.01,  7.04 m/s,229°
695381.377645005,5912765.56059725,2022/12/22 10:39:41,"54",53.32797623,5.934143066,17.88,false,false,false,255.58,255.58,0.02,"400","0","51","310","127","136",9.01,"100150",117.01,  7.04 m/s,229°
695376.523736469,5912764.51112792,2022/12/22 10:39:42,"55",53.3279686,5.934069634,17.85,false,false,false,255.49,255.49,0.01,"400","0","51","311","127","137",8.94,"100152",117.01,  7.04 m/s,229°
695371.655465034,5912763.03554788,2022/12/22 10:39:43,"56",53.32795715,5.933995724,17.85,false,false,false,255.03,255.03,0.01,"402","0","51","309","127","136",8.89,"100160",117.01,  7.20 m/s,233°
695366.836363496,5912761.13758274,2022/12/22 10:39:44,"57",53.32794189,5.933922291,17.84,false,false,false,255.01,255.01,0.01,"402","0","50","310","127","136",8.84,"100161",117.01,  7.20 m/s,233°
695362.095000471,5912759.6683434,2022/12/22 10:39:45,"58",53.32793045,5.933850288,17.81,false,false,false,254.95,254.95,0.01,"408","1","50","308","127","136",8.8,"100165",117.01,  7.20 m/s,233°
695357.145812842,5912758.61497811,2022/12/22 10:39:46,"59",53.32792282,5.933775425,17.78,false,false,false,255.11,255.11,0.01,"405","0","50","312","127","137",8.75,"100163",117.01,  7.20 m/s,233°
695352.340998101,5912757.14314077,2022/12/22 10:39:47,"60",53.32791138,5.933702469,17.73,false,false,false,255.31,255.31,0.01,"402","0","49","312","126","136",8.71,"100164",117.01,  7.20 m/s,233°
695347.47271301,5912755.66758584,2022/12/22 10:39:48,"61",53.32789993,5.933628559,17.73,false,false,false,255.01,255.01,0.01,"402","0","49","310","126","137",8.67,"100161",117.01,  6.68 m/s,232°
695342.699649532,5912754.19706361,2022/12/22 10:39:49,"62",53.32788849,5.93355608,17.68,false,false,false,255.53,255.53,0.01,"400","0","49","312","127","136",8.62,"100164",117.01,  6.68 m/s,232°
695337.926629074,5912752.72543418,2022/12/22 10:39:50,"63",53.32787704,5.933483601,17.67,false,false,false,255.18,255.18,0.01,"405","0","49","311","126","136",8.59,"100166",117.01,  6.68 m/s,232°
695333.072588178,5912751.67711905,2022/12/22 10:39:51,"64",53.32786942,5.933410168,17.67,false,false,false,255.2,255.2,0.01,"408","1","49","312","125","136",8.55,"100164",117.01,  6.68 m/s,232°
695328.236049343,5912750.20288921,2022/12/22 10:39:52,"65",53.32785797,5.933336735,17.63,false,false,false,255.45,255.45,0,"400","0","49","312","126","137",8.52,"100164",117.01,  6.68 m/s,232°
695323.462975524,5912748.73238656,2022/12/22 10:39:53,"66",53.32784653,5.933264256,17.62,false,false,false,255.14,255.14,0,"403","0","48","312","125","136",8.48,"100166",117.01,  6.68 m/s,232°
695318.626431263,5912747.25816664,2022/12/22 10:39:54,"67",53.32783508,5.933190823,17.61,false,false,false,255.15,255.15,0,"408","1","49","313","125","136",8.45,"100165",117.01,  6.68 m/s,232°
695313.821595319,5912745.78636876,2022/12/22 10:39:55,"68",53.32782364,5.933117867,17.6,false,false,false,255.09,255.09,0,"408","1","49","313","125","136",8.42,"100167",117.01,  6.68 m/s,232°
695308.953288875,5912744.31085382,2022/12/22 10:39:56,"69",53.32781219,5.933043957,17.59,false,false,false,255.12,255.12,0,"417","2","49","312","125","136",8.39,"100170",117.01,  6.68 m/s,232°
695304.180204264,5912742.8403708,2022/12/22 10:39:57,"70",53.32780075,5.932971478,17.56,false,false,false,255.05,255.05,0,"408","1","48","312","125","136",8.37,"100168",117.01,  6.68 m/s,232°
695299.407050392,5912741.36988989,2022/12/22 10:39:58,"71",53.32778931,5.932898998,17.54,false,false,false,255.29,255.29,0,"408","1","49","313","126","136",8.34,"100167",117.01,  6.03 m/s,230°
695294.584794193,5912740.32180735,2022/12/22 10:39:59,"72",53.32778168,5.932826042,17.52,false,false,false,255.46,255.46,0,"408","1","49","313","125","136",8.32,"100168",117.01,  6.03 m/s,230°
695289.748234084,5912738.84761721,2022/12/22 10:40:00,"73",53.32777023,5.932752609,17.51,false,false,false,254.8,254.8,0,"408","1","48","313","125","136",8.31,"100171",117.01,  6.03 m/s,230°
695285.546561635,5912737.40063205,2022/12/22 10:40:01,"74",53.32775879,5.932688713,17.52,false,false,false,254.6,254.6,0,"418","2","48","313","124","136",8.29,"100173",117.01,  6.03 m/s,230°
695282.784652951,5912737.28715274,2022/12/22 10:40:02,"75",53.32775879,5.932647228,17.47,false,false,false,278.28,278.28,0,"410","1","49","312","125","136",8.26,"100172",117.01,  6.03 m/s,230°
695280.521337333,5912739.74396766,2022/12/22 10:40:03,"76",53.32778168,5.932614803,17.46,false,false,false,327.76,327.76,0,"414","2","49","313","125","137",8.26,"100182",117.01,  6.26 m/s,229°
695279.700960627,5912742.68447936,2022/12/22 10:40:04,"77",53.32780838,5.932604313,17.41,false,false,false,346.23,346.23,0,"422","3","49","313","124","137",8.34,"100193",117.01,  6.26 m/s,229°
695280.404375373,5912745.68759833,2022/12/22 10:40:05,"78",53.32783508,5.932616711,17.41,false,false,false,27.14,27.14,0,"434","4","50","313","125","137",8.43,"100197",117.01,  6.26 m/s,229°
695283.396533796,5912747.9359333,2022/12/22 10:40:06,"79",53.32785416,5.932662964,17.44,false,false,false,71.92,71.92,0,"439","5","50","313","124","137",8.52,"100217",108.61,  6.26 m/s,229°
695286.599724096,5912748.91748051,2022/12/22 10:40:07,"80",53.32786179,5.932711601,17.45,false,false,false,75.17,75.17,0,"445","6","49","313","125","138",8.57,"100217",108.61,  6.26 m/s,229°
695290.596631145,5912749.93164277,2022/12/22 10:40:08,"81",53.32786942,5.93277216,17.48,false,false,false,75.78,75.78,0,"454","8","49","313","124","138",8.62,"100217",108.61,  6.26 m/s,229°
695295.133179992,5912750.96686826,2022/12/22 10:40:09,"82",53.32787704,5.932840824,17.5,false,false,false,75.7,75.7,0,"464","9","49","313","124","138",8.68,"100216",108.61,  6.26 m/s,229°
695299.987181798,5912752.01625653,2022/12/22 10:40:10,"83",53.32788467,5.932914257,17.54,false,false,false,75.88,75.88,0,"459","8","49","313","124","137",8.74,"100215",108.61,  6.26 m/s,229°
695305.045955853,5912753.49958934,2022/12/22 10:40:11,"84",53.32789612,5.932991028,17.56,false,false,false,75.74,75.74,0,"464","9","50","314","124","138",8.82,"100221",108.61,  6.26 m/s,229°
695309.914299274,5912754.97398842,2022/12/22 10:40:12,"85",53.32790756,5.933064938,17.58,false,false,false,75.37,75.37,0,"464","9","50","313","124","138",8.88,"100216",108.61,  6.26 m/s,229°
695314.782527682,5912756.44950188,2022/12/22 10:40:13,"86",53.32791901,5.933138847,17.61,false,false,false,75.68,75.68,0,"476","11","50","313","124","138",8.92,"100218",108.61,  6.26 m/s,229°
695319.650865624,5912757.92391107,2022/12/22 10:40:14,"87",53.32793045,5.933212757,17.64,false,false,false,76.07,76.07,0,"485","12","50","313","124","138",8.95,"100215",108.61,  6.26 m/s,229°
695324.45568753,5912759.39571517,2022/12/22 10:40:15,"88",53.32794189,5.933285713,17.66,false,false,false,76.02,76.02,0,"477","11","50","313","124","138",8.99,"100212",108.61,  6.26 m/s,229°
695329.341432669,5912760.44643882,2022/12/22 10:40:16,"89",53.32794952,5.933359623,17.67,false,false,false,76.21,76.21,0,"476","11","50","313","124","138",9.02,"100213",108.61,  6.26 m/s,229°
695334.114447251,5912761.91805977,2022/12/22 10:40:16,"90",53.32796097,5.933432102,17.69,false,false,false,76.2,76.2,0,"477","11","50","314","124","138",9.06,"100213",108.61,  6.26 m/s,229°
695338.887571428,5912763.38857624,2022/12/22 10:40:18,"91",53.32797241,5.933504582,17.72,false,false,false,76.08,76.08,0,"481","12","50","313","124","138",9.12,"100211",108.61,  6.00 m/s,224°
695343.597067407,5912764.8575965,2022/12/22 10:40:18,"92",53.32798386,5.933576107,17.73,false,false,false,76.19,76.19,0,"487","13","50","313","124","138",9.17,"100210",108.61,  6.00 m/s,224°
695348.370119657,5912766.3281199,2022/12/22 10:40:20,"93",53.3279953,5.933648586,17.76,false,false,false,76.02,76.02,0,"485","12","49","313","124","137",9.21,"100208",108.61,  6.00 m/s,224°
695353.397155424,5912767.80908755,2022/12/22 10:40:21,"94",53.32800674,5.93372488,17.79,false,false,false,76.07,76.07,0,"481","12","50","313","124","138",9.22,"100208",108.61,  6.00 m/s,224°
695358.043196747,5912769.27551453,2022/12/22 10:40:22,"95",53.32801819,5.933795452,17.81,false,false,false,75.74,75.74,0,"485","12","49","313","124","138",9.29,"100214",108.61,  6.00 m/s,224°
695362.784550904,5912770.74475004,2022/12/22 10:40:23,"96",53.32802963,5.933867455,17.84,false,false,false,76.1,76.1,0,"485","12","49","313","124","138",9.35,"100213",108.61,  5.82 m/s,214°
695367.575008512,5912771.79159744,2022/12/22 10:40:24,"97",53.32803726,5.933939934,17.86,false,false,false,75.81,75.81,0,"492","14","49","313","123","138",9.39,"100212",108.61,  5.82 m/s,214°
695372.474961713,5912773.26847614,2022/12/22 10:40:25,"98",53.32804871,5.93401432,17.88,false,false,false,76.14,76.14,0,"496","14","49","312","123","137",9.43,"100212",108.61,  5.82 m/s,214°
695377.406780998,5912774.74555607,2022/12/22 10:40:26,"99",53.32806015,5.934089184,17.89,false,false,false,76.03,76.03,0,"487","13","49","312","123","137",9.48,"100211",108.61,  5.82 m/s,214°
695382.275084417,5912776.22003026,2022/12/22 10:40:27,"100",53.32807159,5.934163094,17.91,false,false,false,75.99,75.99,0,"481","12","49","312","123","138",9.5,"100210",108.61,  5.82 m/s,214°
695387.111582845,5912777.69431607,2022/12/22 10:40:28,"101",53.32808304,5.934236527,17.92,false,false,false,75.96,75.96,0,"485","12","48","312","123","136",9.51,"100206",108.61,  7.09 m/s,224°
695391.948057692,5912779.16749208,2022/12/22 10:40:29,"102",53.32809448,5.934309959,17.94,false,false,false,75.59,75.59,0,"481","12","48","311","123","137",9.54,"100210",108.61,  7.09 m/s,224°
695396.752860732,5912780.64048504,2022/12/22 10:40:30,"103",53.32810593,5.934382916,17.99,false,false,false,75.8,75.8,0,"496","14","48","311","122","137",9.58,"100209",108.61,  7.09 m/s,224°
695401.684599673,5912782.11758777,2022/12/22 10:40:31,"104",53.32811737,5.934457779,18,false,false,false,76.32,76.32,0,"481","12","48","312","122","137",9.59,"100210",108.61,  7.09 m/s,224°
695406.457619915,5912783.58817029,2022/12/22 10:40:32,"105",53.32812881,5.934530258,18.02,false,false,false,76.18,76.18,0,"481","12","48","311","122","137",9.59,"100207",108.61,  7.09 m/s,224°
695411.089341666,5912784.62853666,2022/12/22 10:40:33,"106",53.32813644,5.934600353,18.05,false,false,false,76.12,76.12,0,"485","12","48","312","122","137",9.61,"100203",108.61,  8.59 m/s,223°
695416.084540111,5912786.10937789,2022/12/22 10:40:33,"107",53.32814789,5.93467617,18.06,false,false,false,75.96,75.96,0,"485","12","48","312","122","137",9.62,"100206",108.61,  8.59 m/s,223°
695420.85761929,5912787.5799778,2022/12/22 10:40:33,"108",53.32815933,5.93474865,18.08,false,false,false,76,76,0,"492","14","48","312","122","136",9.63,"100208",108.61,  8.59 m/s,223°
695425.630583485,5912789.05169189,2022/12/22 10:40:36,"109",53.32817078,5.934821129,18.09,false,false,false,76.27,76.27,0.01,"485","12","48","311","121","137",9.66,"100207",108.61,  8.59 m/s,223°
695430.357499622,5912790.09599178,2022/12/22 10:40:37,"110",53.32817841,5.934892654,18.12,false,false,false,75.93,75.93,0.01,"481","12","48","311","122","137",9.68,"100207",108.61,  8.59 m/s,223°
695435.194017526,5912791.56921511,2022/12/22 10:40:38,"111",53.32818985,5.934966087,18.14,false,false,false,76.32,76.32,0.01,"485","12","48","311","121","136",9.7,"100212",108.61,  7.89 m/s,229°
695440.06228915,5912793.04374928,2022/12/22 10:40:39,"112",53.32820129,5.935039997,18.16,false,false,false,76.05,76.05,0.01,"481","12","48","312","122","136",9.69,"100208",108.61,  7.89 m/s,229°
695444.708283854,5912794.51026212,2022/12/22 10:40:40,"113",53.32821274,5.935110569,18.18,false,false,false,76,76,0.01,"487","13","48","312","121","136",9.7,"100206",108.61,  7.89 m/s,229°
695449.576550063,5912795.98480617,2022/12/22 10:40:41,"114",53.32822418,5.935184479,18.19,false,false,false,76.07,76.07,0.01,"485","12","48","311","121","137",9.73,"100207",108.61,  7.89 m/s,229°
695454.349498559,5912797.45654949,2022/12/22 10:40:42,"115",53.32823563,5.935256958,18.21,false,false,false,75.93,75.93,0.01,"481","12","48","312","121","137",9.74,"100209",108.61,  7.89 m/s,229°
695459.171670938,5912798.5047962,2022/12/22 10:40:43,"116",53.32824326,5.935329914,18.24,false,false,false,75.91,75.91,0.01,"481","12","48","312","121","137",9.74,"100211",108.61,  6.22 m/s,234°
695464.071685816,5912799.98066127,2022/12/22 10:40:44,"117",53.3282547,5.935404301,18.25,false,false,false,76.08,76.08,0.01,"481","12","48","312","120","137",9.73,"100207",108.61,  6.22 m/s,234°
695468.49548524,5912801.43694627,2022/12/22 10:40:45,"118",53.32826614,5.935471535,18.24,false,false,false,76.6,76.6,0.01,"485","12","48","312","121","137",9.75,"100209",108.61,  6.22 m/s,234°
695471.127193158,5912802.395119,2022/12/22 10:40:46,"119",53.32827377,5.935511589,18.24,false,false,false,61.26,61.26,0.01,"496","14","48","311","121","137",9.77,"100198",117.01,  6.22 m/s,234°
695472.324047847,5912804.99415682,2022/12/22 10:40:47,"120",53.32829666,5.935531139,18.29,false,false,false,12.58,12.58,0.01,"477","11","48","312","121","137",9.77,"100180",117.01,  6.22 m/s,234°
695471.359127699,5912808.354224,2022/12/22 10:40:48,"121",53.32832718,5.935518742,18.34,false,false,false,343.52,343.52,0.01,"476","11","49","311","120","137",9.79,"100175",117.01,  6.22 m/s,234°
695469.222697856,5912810.81617227,2022/12/22 10:40:49,"122",53.32835007,5.935488224,18.37,false,false,false,312.14,312.14,0.01,"477","11","49","312","121","137",9.81,"100158",117.01,  6.22 m/s,234°
695465.886275631,5912811.52889377,2022/12/22 10:40:50,"123",53.3283577,5.935438633,18.38,false,false,false,268.2,268.2,0.01,"462","9","49","311","120","136",9.7,"100155",117.01,  6.22 m/s,234°
695462.651401567,5912810.54591794,2022/12/22 10:40:51,"124",53.32835007,5.935389519,18.37,false,false,false,255.14,255.14,0.01,"472","10","48","312","120","136",9.58,"100161",117.01,  6.22 m/s,234°
695458.972070761,5912809.54466609,2022/12/22 10:40:52,"125",53.32834244,5.935333729,18.36,false,false,false,255.16,255.16,0.01,"454","8","49","312","120","136",9.48,"100156",117.01,  6.22 m/s,234°
695454.548322506,5912808.08727776,2022/12/22 10:40:53,"126",53.32833099,5.935266495,18.35,false,false,false,255,255,0.01,"445","6","48","312","120","135",9.37,"100154",117.01,  6.22 m/s,234°
695449.616557544,5912806.61011645,2022/12/22 10:40:54,"127",53.32831955,5.935191631,18.31,false,false,false,254.97,254.97,0.01,"435","5","48","312","120","136",9.27,"100150",117.01,  6.22 m/s,234°
695444.716612743,5912805.13426896,2022/12/22 10:40:55,"128",53.32830811,5.935117245,18.31,false,false,false,254.9,254.9,0.01,"434","5","48","311","120","136",9.17,"100153",117.01,  6.22 m/s,234°
695439.753131598,5912803.65470008,2022/12/22 10:40:56,"129",53.32829666,5.935041904,18.25,false,false,false,255.08,255.08,0.01,"443","6","47","311","119","135",9.08,"100157",117.01,  6.22 m/s,234°
695434.884937645,5912802.18016871,2022/12/22 10:40:57,"130",53.32828522,5.934967995,18.25,false,false,false,255.24,255.24,0.01,"434","5","47","313","119","135",9.01,"100155",117.01,  6.22 m/s,234°
695430.016720104,5912800.70452759,2022/12/22 10:40:58,"131",53.32827377,5.934894085,18.24,false,false,false,255.1,255.1,0.01,"428","4","47","312","119","133",8.91,"100159",117.01,  6.22 m/s,234°
695425.180210494,5912799.23130934,2022/12/22 10:40:59,"132",53.32826233,5.934820652,18.22,false,false,false,254.9,254.9,0.01,"422","3","47","312","119","135",8.85,"100158",117.01,  6.22 m/s,234°
695420.421546408,5912798.18570868,2022/12/22 10:41:00,"133",53.3282547,5.93474865,18.2,false,false,false,255.26,255.26,0.01,"422","3","47","312","119","134",8.77,"100158",117.01,  6.22 m/s,234°
695415.55327541,5912796.71119463,2022/12/22 10:41:01,"134",53.32824326,5.93467474,18.17,false,false,false,255.32,255.32,0.01,"428","4","46","312","119","135",8.7,"100157",117.01,  6.22 m/s,234°
695410.748560241,5912795.23818488,2022/12/22 10:41:02,"135",53.32823181,5.934601784,18.16,false,false,false,255.11,255.11,0.01,"424","3","46","312","119","136",8.64,"100161",117.01,  6.22 m/s,234°
695405.943796646,5912793.76629212,2022/12/22 10:41:03,"136",53.32822037,5.934528828,18.14,false,false,false,254.77,254.77,0.01,"418","2","47","312","118","134",8.6,"100165",117.01,  5.75 m/s,233°
695401.139076068,5912792.29329222,2022/12/22 10:41:04,"137",53.32820892,5.934455872,18.12,false,false,false,254.95,254.95,0.01,"422","3","46","315","119","136",8.56,"100165",117.01,  5.75 m/s,233°
695396.270794168,5912790.81879819,2022/12/22 10:41:05,"138",53.32819748,5.934381962,18.11,false,false,false,255.26,255.26,0.01,"418","2","47","313","118","135",8.51,"100157",117.01,  5.75 m/s,233°
695391.466022447,5912789.34692026,2022/12/22 10:41:06,"139",53.32818604,5.934309006,18.08,false,false,false,255.16,255.16,0.01,"422","3","46","312","118","135",8.45,"100155",117.01,  5.75 m/s,233°
695386.675586575,5912788.30004825,2022/12/22 10:41:07,"140",53.32817841,5.934236527,18.07,false,false,false,255.35,255.35,0.01,"428","4","46","312","118","134",8.41,"100159",117.01,  5.75 m/s,233°
695381.839099135,5912786.82576262,2022/12/22 10:41:08,"141",53.32816696,5.934163094,18.04,false,false,false,255.33,255.33,0.01,"418","2","46","313","119","135",8.37,"100167",117.01,  6.25 m/s,229°
695377.002563259,5912785.35259405,2022/12/22 10:41:09,"142",53.32815552,5.934089661,18.02,false,false,false,255.1,255.1,0.01,"417","2","46","313","118","135",8.33,"100160",117.01,  6.25 m/s,229°
695372.229516784,5912783.88092645,2022/12/22 10:41:10,"143",53.32814407,5.934017181,18,false,false,false,255.27,255.27,0.01,"418","2","46","313","118","135",8.3,"100160",117.01,  6.25 m/s,229°
695367.39304206,5912782.40777052,2022/12/22 10:41:11,"144",53.32813263,5.933943749,17.97,false,false,false,255.23,255.23,0.01,"417","2","46","312","117","134",8.27,"100159",117.01,  6.25 m/s,229°
695362.588187974,5912780.93591945,2022/12/22 10:41:12,"145",53.32812119,5.933870792,17.95,false,false,false,255.24,255.24,0.01,"424","3","45","313","118","135",8.24,"100157",117.01,  6.25 m/s,229°
695357.783443471,5912779.46296396,2022/12/22 10:41:13,"146",53.32810974,5.933797836,17.94,false,false,false,255.25,255.25,0.01,"414","2","46","313","117","134",8.22,"100157",117.01,  6.64 m/s,231°
695352.992992223,5912778.41612629,2022/12/22 10:41:14,"147",53.32810211,5.933725357,17.92,false,false,false,255.27,255.27,0.01,"414","2","45","313","117","135",8.2,"100165",117.01,  6.64 m/s,231°
695348.18819705,5912776.94429269,2022/12/22 10:41:15,"148",53.32809067,5.933652401,17.91,false,false,false,255.34,255.34,0.01,"410","1","46","313","117","134",8.17,"100165",117.01,  6.64 m/s,231°
695343.351688337,5912775.47004675,2022/12/22 10:41:16,"149",53.32807922,5.933578968,17.9,false,false,false,255.15,255.15,0.01,"408","1","45","313","117","135",8.13,"100155",117.01,  6.64 m/s,231°
695338.546887749,5912773.99822304,2022/12/22 10:41:17,"150",53.32806778,5.933506012,17.89,false,false,false,254.98,254.98,0.01,"414","2","45","313","117","135",8.11,"100159",117.01,  6.64 m/s,231°
695333.710327897,5912772.52509911,2022/12/22 10:41:18,"151",53.32805634,5.933432579,17.86,false,false,false,255.01,255.01,0.01,"414","2","45","313","117","135",8.09,"100162",117.01,  6.07 m/s,233°
695328.905567599,5912771.05217321,2022/12/22 10:41:19,"152",53.32804489,5.933359623,17.86,false,false,false,254.85,254.85,0.01,"410","2","44","313","116","135",8.07,"100163",117.01,  6.07 m/s,233°
695324.069002313,5912769.57905922,2022/12/22 10:41:20,"153",53.32803345,5.93328619,17.85,false,false,false,255.13,255.13,0.01,"422","3","44","313","117","134",8.06,"100163",117.01,  6.07 m/s,233°
695319.264236598,5912768.10614321,2022/12/22 10:41:21,"154",53.328022,5.933213234,17.82,false,false,false,254.98,254.98,0.01,"410","1","44","313","116","134",8.04,"100164",117.01,  6.07 m/s,233°
695314.442011113,5912767.05803979,2022/12/22 10:41:22,"155",53.32801437,5.933140278,17.81,false,false,false,255.32,255.32,0.01,"410","1","45","313","116","135",8.02,"100166",117.01,  6.07 m/s,233°
695309.573681517,5912765.58363574,2022/12/22 10:41:23,"156",53.32800293,5.933066368,17.81,false,false,false,255.17,255.17,0.01,"410","1","44","313","116","135",8,"100168",117.01,  6.09 m/s,234°
695304.768862412,5912764.11184662,2022/12/22 10:41:24,"157",53.32799149,5.932993412,17.79,false,false,false,254.92,254.92,0.01,"410","1","44","314","117","134",7.99,"100163",117.01,  6.09 m/s,234°
695300.027599546,5912762.64156019,2022/12/22 10:41:25,"158",53.32798004,5.93292141,17.76,false,false,false,255.22,255.22,0.01,"422","3","45","314","116","134",7.98,"100159",117.01,  6.09 m/s,234°
695295.222775054,5912761.16978087,2022/12/22 10:41:26,"159",53.3279686,5.932848454,17.76,false,false,false,255.13,255.13,0,"414","2","44","314","116","135",7.96,"100161",117.01,  6.09 m/s,234°
695290.417926976,5912759.69689166,2022/12/22 10:41:27,"160",53.32795715,5.932775497,17.72,false,false,false,255.29,255.29,0,"408","1","44","313","115","134",7.95,"100170",117.01,  6.09 m/s,234°
695285.563998255,5912758.64751576,2022/12/22 10:41:28,"161",53.32794952,5.932702065,17.71,false,false,false,255.21,255.21,0,"406","0","44","313","115","135",7.93,"100167",117.01,  3.73 m/s,220°
695280.949639449,5912757.18357719,2022/12/22 10:41:29,"162",53.32793808,5.93263197,17.71,false,false,false,254.45,254.45,0,"410","1","44","314","116","134",7.91,"100164",117.01,  3.73 m/s,220°
695277.905104121,5912756.20855201,2022/12/22 10:41:30,"163",53.32793045,5.932585716,17.7,false,false,false,261.55,261.55,0,"417","2","44","315","116","135",7.9,"100182",117.01,  3.73 m/s,220°
695275.186207327,5912757.3711902,2022/12/22 10:41:31,"164",53.32794189,5.932545662,17.69,false,false,false,307.19,307.19,0,"418","2","44","315","116","136",7.9,"100176",117.01,  3.73 m/s,220°
695273.776896171,5912760.7130307,2022/12/22 10:41:32,"165",53.32797241,5.932526588,17.7,false,false,false,342.3,342.3,0,"422","3","45","314","115","135",7.94,"100190",117.01,  3.73 m/s,220°
695273.686616035,5912763.68465341,2022/12/22 10:41:33,"166",53.32799912,5.932527065,17.72,false,false,false,6.24,6.24,0,"434","5","45","315","116","135",8.03,"100190",117.01,  3.73 m/s,220°
695275.83606427,5912766.32165813,2022/12/22 10:41:34,"167",53.328022,5.932560921,17.75,false,false,false,55.99,55.99,0,"435","5","46","315","116","135",8.13,"100217",108.61,  3.73 m/s,220°
695279.021789154,5912767.72800825,2022/12/22 10:41:35,"168",53.32803345,5.932609558,17.76,false,false,false,74.98,74.98,0,"450","7","45","315","116","136",8.18,"100216",108.61,  3.73 m/s,220°
695282.655123079,5912768.30170193,2022/12/22 10:41:36,"169",53.32803726,5.932664394,17.77,false,false,false,76.36,76.36,0,"455","8","46","315","116","136",8.22,"100216",108.61,  3.73 m/s,220°
695286.905933549,5912769.32629435,2022/12/22 10:41:37,"170",53.32804489,5.932728767,17.8,false,false,false,76.04,76.04,0,"454","8","46","315","116","136",8.28,"100214",108.61,  3.73 m/s,220°
695291.537754684,5912770.36654611,2022/12/22 10:41:38,"171",53.32805252,5.932798863,17.84,false,false,false,75.76,75.76,0,"459","8","46","315","116","136",8.34,"100211",108.61,  3.73 m/s,220°
695296.469530188,5912771.84353873,2022/12/22 10:41:39,"172",53.32806396,5.932873726,17.86,false,false,false,75.88,75.88,0,"462","9","46","315","116","136",8.4,"100212",108.61,  3.73 m/s,220°
695301.433013772,5912773.32295351,2022/12/22 10:41:40,"173",53.32807541,5.932949066,17.88,false,false,false,75.98,75.98,0,"464","9","46","315","116","137",8.45,"100210",108.61,  3.73 m/s,220°
695306.301337205,5912774.79734936,2022/12/22 10:41:41,"174",53.32808685,5.933022976,17.91,false,false,false,76.11,76.11,0,"481","12","46","315","116","137",8.52,"100214",108.61,  3.73 m/s,220°
695311.1696122,5912776.27286233,2022/12/22 10:41:42,"175",53.3280983,5.933096886,17.93,false,false,false,76.1,76.1,0,"476","11","46","315","115","136",8.58,"100210",108.61,  3.73 m/s,220°
695315.974417103,5912777.74465825,2022/12/22 10:41:43,"176",53.32810974,5.933169842,17.95,false,false,false,75.66,75.66,0,"476","11","46","315","115","137",8.62,"100209",108.61,  5.60 m/s,222°
695320.683904056,5912779.21365601,2022/12/22 10:41:44,"177",53.32812119,5.933241367,17.97,false,false,false,76.07,76.07,0,"477","11","46","315","115","137",8.67,"100209",108.61,  5.60 m/s,222°
695325.50616171,5912780.26065402,2022/12/22 10:41:45,"178",53.32812881,5.933314323,18,false,false,false,75.89,75.89,0,"481","12","46","314","115","136",8.73,"100209",108.61,  5.60 m/s,222°
695330.406182769,5912781.73749203,2022/12/22 10:41:46,"179",53.32814026,5.93338871,18.02,false,false,false,75.96,75.96,0,"498","14","46","314","115","137",8.78,"100209",108.61,  5.60 m/s,222°
695335.36969318,5912783.21583067,2022/12/22 10:41:47,"180",53.3281517,5.93346405,18.04,false,false,false,76.09,76.09,0,"481","12","46","315","116","137",8.8,"100207",108.61,  5.60 m/s,222°
695340.110992867,5912784.68615581,2022/12/22 10:41:48,"181",53.32816315,5.933536053,18.06,false,false,false,76.41,76.41,0,"481","12","46","314","116","137",8.83,"100208",108.61,  6.62 m/s,224°
695344.88402549,5912786.15667617,2022/12/22 10:41:49,"182",53.32817459,5.933608532,18.07,false,false,false,76.2,76.2,0,"485","12","46","314","116","137",8.86,"100210",108.61,  6.62 m/s,224°
695349.593563369,5912787.62570569,2022/12/22 10:41:50,"183",53.32818604,5.933680058,18.09,false,false,false,75.97,75.97,0,"481","12","46","314","116","137",8.89,"100210",108.61,  6.62 m/s,224°
695354.557062796,5912789.10406463,2022/12/22 10:41:51,"184",53.32819748,5.933755398,18.12,false,false,false,75.94,75.94,0,"496","14","46","314","116","137",8.96,"100208",108.61,  6.62 m/s,224°
695359.220543606,5912790.14568564,2022/12/22 10:41:52,"185",53.32820511,5.93382597,18.14,false,false,false,76.19,76.19,0,"487","13","46","315","115","137",9.02,"100205",108.61,  6.62 m/s,224°
695363.993565926,5912791.61622545,2022/12/22 10:41:53,"186",53.32821655,5.933898449,18.15,false,false,false,76.01,76.01,0,"492","14","47","315","115","137",9.05,"100207",108.61,  5.15 m/s,217°
695368.83005271,5912793.09049292,2022/12/22 10:41:54,"187",53.328228,5.933971882,18.17,false,false,false,76.03,76.03,0,"487","13","47","314","115","137",9.09,"100205",108.61,  5.15 m/s,217°
695373.603069642,5912794.5610425,2022/12/22 10:41:55,"188",53.32823944,5.934044361,18.18,false,false,false,75.78,75.78,0,"492","14","47","314","115","137",9.11,"100204",108.61,  5.15 m/s,217°
695378.534820236,5912796.0392362,2022/12/22 10:41:56,"189",53.32825089,5.934119225,18.2,false,false,false,75.54,75.54,0,"502","15","46","314","115","137",9.15,"100206",108.61,  5.15 m/s,217°
695383.53006,5912797.51893124,2022/12/22 10:41:57,"190",53.32826233,5.934195042,18.22,false,false,false,75.64,75.64,0,"498","14","46","314","115","136",9.18,"100203",108.61,  5.15 m/s,217°
695388.288730496,5912798.56449478,2022/12/22 10:41:58,"191",53.32826996,5.934267044,18.25,false,false,false,76.38,76.38,0,"496","14","46","314","114","137",9.19,"100204",108.61,  6.24 m/s,227°
695393.061737024,5912800.03506417,2022/12/22 10:41:59,"192",53.3282814,5.934339523,18.27,false,false,false,75.62,75.62,0,"496","14","46","314","115","137",9.24,"100205",108.61,  6.24 m/s,227°
695397.929964284,5912801.51066718,2022/12/22 10:42:00,"193",53.32829285,5.934413433,18.29,false,false,false,75.91,75.91,0,"492","14","46","314","115","136",9.25,"100206",108.61,  6.24 m/s,227°
695402.861747263,5912802.98777439,2022/12/22 10:42:01,"194",53.32830429,5.934488297,18.31,false,false,false,76.12,76.12,0,"498","14","46","314","115","136",9.25,"100205",108.61,  6.24 m/s,227°
695407.634745665,5912804.45835861,2022/12/22 10:42:02,"195",53.32831573,5.934560776,18.33,false,false,false,76.17,76.17,0.01,"502","15","47","314","115","136",9.27,"100203",108.61,  6.24 m/s,227°
695412.31249318,5912805.92614549,2022/12/22 10:42:03,"196",53.32832718,5.934631825,18.34,false,false,false,76.27,76.27,0.01,"492","14","46","314","115","137",9.3,"100203",108.61,  5.84 m/s,222°
695417.212445034,5912807.40195939,2022/12/22 10:42:04,"197",53.32833862,5.934706211,18.35,false,false,false,76.09,76.09,0.01,"492","14","46","313","115","136",9.35,"100202",108.61,  5.84 m/s,222°
695421.953699889,5912808.87236729,2022/12/22 10:42:05,"198",53.32835007,5.934778214,18.38,false,false,false,76.09,76.09,0.01,"487","13","46","312","114","136",9.39,"100204",108.61,  5.84 m/s,222°
695426.885402597,5912810.34949703,2022/12/22 10:42:06,"199",53.32836151,5.934853077,18.39,false,false,false,75.66,75.66,0.01,"496","14","46","313","114","136",9.41,"100202",108.61,  5.84 m/s,222°
695431.77107854,5912811.40032766,2022/12/22 10:42:07,"200",53.32836914,5.934926987,18.41,false,false,false,75.81,75.81,0.01,"502","15","46","314","114","137",9.43,"100202",108.61,  5.84 m/s,222°
695436.639330121,5912812.87485879,2022/12/22 10:42:08,"201",53.32838058,5.935000897,18.44,false,false,false,76.23,76.23,0.01,"496","14","46","313","115","136",9.47,"100205",108.61,  5.92 m/s,221°
695441.475710359,5912814.34919844,2022/12/22 10:42:09,"202",53.32839203,5.935074329,18.47,false,false,false,76.42,76.42,0.01,"496","14","46","313","114","137",9.49,"100204",108.61,  5.92 m/s,221°
695446.280510465,5912815.82113059,2022/12/22 10:42:10,"203",53.32840347,5.935147286,18.5,false,false,false,75.35,75.35,0.01,"496","14","46","313","114","137",9.52,"100201",108.61,  5.92 m/s,221°
695451.18039783,5912817.29809204,2022/12/22 10:42:11,"204",53.32841492,5.935221672,18.52,false,false,false,75.93,75.93,0.01,"498","14","46","313","114","137",9.51,"100200",108.61,  5.92 m/s,221°
695455.921679958,5912818.76742222,2022/12/22 10:42:12,"205",53.32842636,5.935293675,18.53,false,false,false,76.21,76.21,0.01,"506","16","46","313","114","137",9.53,"100205",108.61,  5.92 m/s,221°
695460.616805,5912819.81044707,2022/12/22 10:42:13,"206",53.32843399,5.935364723,18.56,false,false,false,76.33,76.33,0.01,"498","14","46","313","114","137",9.58,"100203",108.61,  6.78 m/s,234°
695464.02478548,5912821.22495314,2022/12/22 10:42:14,"207",53.32844543,5.935416699,18.56,false,false,false,74.36,74.36,0.01,"496","14","46","313","114","136",9.58,"100200",108.61,  6.78 m/s,234°
695466.018417669,5912823.00682009,2022/12/22 10:42:15,"208",53.32846069,5.935447693,18.6,false,false,false,35.38,35.38,0.01,"492","14","46","312","114","137",9.58,"100182",117.01,  6.78 m/s,234°
695465.896258448,5912825.97713603,2022/12/22 10:42:16,"209",53.3284874,5.935447693,18.68,false,false,false,348.89,348.89,0.01,"481","12","46","313","113","136",9.57,"100175",117.01,  6.78 m/s,234°
695464.440850305,5912828.89150609,2022/12/22 10:42:17,"210",53.3285141,5.935427666,18.75,false,false,false,334.53,334.53,0.01,"496","14","47","312","114","136",9.59,"100164",117.01,  6.78 m/s,234°
695461.450487253,5912830.46840001,2022/12/22 10:42:18,"211",53.32852936,5.935383797,18.79,false,false,false,288.57,288.57,0.01,"485","12","46","312","114","136",9.55,"100154",117.01,  6.78 m/s,234°
695458.021949964,5912830.32739988,2022/12/22 10:42:19,"212",53.32852936,5.935332298,18.8,false,false,false,255.96,255.96,0.01,"464","9","46","313","113","136",9.42,"100157",117.01,  6.78 m/s,234°
695454.755331572,5912829.34312317,2022/12/22 10:42:20,"213",53.32852173,5.935282707,18.78,false,false,false,254.91,254.91,0.01,"464","9","46","313","113","136",9.34,"100162",117.01,  6.78 m/s,234°
695450.680786436,5912827.90009805,2022/12/22 10:42:21,"214",53.32851028,5.935220718,18.76,false,false,false,254.95,254.95,0.01,"455","8","46","312","113","135",9.25,"100157",117.01,  6.78 m/s,234°
695446.098293495,5912826.43730239,2022/12/22 10:42:22,"215",53.32849884,5.9351511,18.73,false,false,false,255.02,255.02,0.01,"459","8","45","313","113","135",9.16,"100152",117.01,  6.78 m/s,234°
695441.166612616,5912824.96015219,2022/12/22 10:42:23,"216",53.3284874,5.935076237,18.71,false,false,false,255.1,255.1,0.01,"455","8","45","312","112","136",9.07,"100153",117.01,  6.78 m/s,234°
695436.457135203,5912823.49103045,2022/12/22 10:42:24,"217",53.32847595,5.935004711,18.68,false,false,false,255.08,255.08,0.01,"439","5","45","312","113","135",9,"100153",117.01,  6.78 m/s,234°
695431.461936342,5912822.01127878,2022/12/22 10:42:25,"218",53.32846451,5.934928894,18.67,false,false,false,254.91,254.91,0.01,"435","5","45","313","113","136",8.92,"100148",117.01,  6.78 m/s,234°
695426.6254951,5912820.53694647,2022/12/22 10:42:26,"219",53.32845306,5.934855461,18.64,false,false,false,255.4,255.4,0.01,"434","5","45","313","112","135",8.84,"100148",117.01,  6.78 m/s,234°
695421.708138241,5912819.48481793,2022/12/22 10:42:27,"220",53.32844543,5.934781075,18.61,false,false,false,255.08,255.08,0.01,"435","5","45","312","112","134",8.75,"100145",117.01,  6.78 m/s,234°
695416.871646252,5912818.01160772,2022/12/22 10:42:28,"221",53.32843399,5.934707642,18.6,false,false,false,254.9,254.9,0.01,"443","6","45","313","112","135",8.67,"100149",117.01,  6.18 m/s,231°
695412.035151542,5912816.5384025,2022/12/22 10:42:29,"222",53.32842255,5.934634209,18.54,false,false,false,255.41,255.41,0.01,"424","3","44","313","113","135",8.62,"100159",117.01,  6.18 m/s,231°
695407.262145837,5912815.06669874,2022/12/22 10:42:30,"223",53.3284111,5.934561729,18.51,false,false,false,255.38,255.38,0.01,"428","4","44","312","111","134",8.57,"100155",117.01,  6.18 m/s,231°
695402.330443382,5912813.58958937,2022/12/22 10:42:31,"224",53.32839966,5.934486866,18.51,false,false,false,255,255,0.01,"424","3","44","312","112","134",8.52,"100158",117.01,  6.18 m/s,231°
695397.493986219,5912812.11528709,2022/12/22 10:42:32,"225",53.32838821,5.934413433,18.48,false,false,false,254.85,254.85,0.01,"422","3","44","313","112","135",8.46,"100155",117.01,  6.18 m/s,231°
695392.657480616,5912810.64210186,2022/12/22 10:42:33,"226",53.32837677,5.93434,18.47,false,false,false,255.2,255.2,0.01,"435","5","44","314","112","135",8.42,"100157",117.01,  5.95 m/s,229°
695387.884484944,5912809.17153262,2022/12/22 10:42:34,"227",53.32836533,5.934267521,18.44,false,false,false,255.37,255.37,0.01,"418","2","44","314","112","134",8.36,"100158",117.01,  5.95 m/s,229°
695383.174978398,5912807.7024644,2022/12/22 10:42:35,"228",53.32835388,5.934195995,18.41,false,false,false,255.2,255.2,0.01,"434","5","43","313","111","134",8.31,"100157",117.01,  5.95 m/s,229°
695378.384560091,5912806.65560034,2022/12/22 10:42:36,"229",53.32834625,5.934123516,18.37,false,false,false,255.3,255.3,0.01,"422","3","44","313","111","134",8.27,"100157",117.01,  5.95 m/s,229°
695373.611556817,5912805.18504563,2022/12/22 10:42:37,"230",53.32833481,5.934051037,18.34,false,false,false,255.27,255.27,0.01,"410","1","43","313","111","134",8.24,"100162",117.01,  5.95 m/s,229°
695368.775083852,5912803.71077296,2022/12/22 10:42:38,"231",53.32832336,5.933977604,18.31,false,false,false,255.42,255.42,0.01,"414","2","43","313","111","133",8.2,"100156",117.01,  6.72 m/s,232°
695363.970318822,5912802.23892269,2022/12/22 10:42:39,"232",53.32831192,5.933904648,18.31,false,false,false,255.2,255.2,0.01,"414","2","43","314","111","133",8.16,"100157",117.01,  6.72 m/s,232°
695359.197307468,5912800.76838265,2022/12/22 10:42:40,"233",53.32830048,5.933832169,18.3,false,false,false,254.97,254.97,0.01,"418","2","43","313","111","134",8.13,"100160",117.01,  6.72 m/s,232°
695354.265557203,5912799.29020902,2022/12/22 10:42:41,"234",53.32828903,5.933757305,18.26,false,false,false,255.04,255.04,0.01,"418","2","43","314","110","133",8.1,"100160",117.01,  6.72 m/s,232°
695349.429027642,5912797.81706837,2022/12/22 10:42:42,"235",53.32827759,5.933683872,18.22,false,false,false,255.49,255.49,0.01,"410","1","43","314","111","134",8.07,"100157",117.01,  6.72 m/s,232°
695344.702106752,5912796.77284914,2022/12/22 10:42:43,"236",53.32826996,5.933612347,18.18,false,false,false,255.52,255.52,0.01,"410","1","43","313","110","134",8.04,"100153",117.01,  6.86 m/s,225°
695339.929064178,5912795.30121391,2022/12/22 10:42:44,"237",53.32825851,5.933539867,18.15,false,false,false,255.63,255.63,0.01,"408","1","43","312","111","134",8.02,"100158",117.01,  6.86 m/s,225°
695335.124283368,5912793.82939319,2022/12/22 10:42:45,"238",53.32824707,5.933466911,18.15,false,false,false,255.4,255.4,0.01,"408","1","43","312","111","133",8,"100160",117.01,  6.86 m/s,225°
695330.287743426,5912792.35627228,2022/12/22 10:42:46,"239",53.32823563,5.933393478,18.14,false,false,false,255.13,255.13,0.01,"410","1","42","313","111","132",7.98,"100160",117.01,  6.86 m/s,225°
695325.514759343,5912790.88465446,2022/12/22 10:42:47,"240",53.32822418,5.933320999,18.11,false,false,false,255.21,255.21,0.01,"400","0","42","312","110","133",7.96,"100151",117.01,  6.86 m/s,225°
695320.756071263,5912789.83915422,2022/12/22 10:42:48,"241",53.32821655,5.933248997,18.08,false,false,false,255.25,255.25,0.01,"403","0","43","311","109","132",7.93,"100161",117.01,  7.15 m/s,228°
695315.951280097,5912788.36735314,2022/12/22 10:42:49,"242",53.32820511,5.933176041,18.06,false,false,false,255.16,255.16,0.01,"402","0","42","311","110","133",7.91,"100157",117.01,  7.15 m/s,228°
695311.178221816,5912786.89574717,2022/12/22 10:42:50,"243",53.32819366,5.933103561,18.04,false,false,false,254.97,254.97,0.01,"409","1","42","314","110","133",7.89,"100167",117.01,  7.15 m/s,228°
695306.278222412,5912785.42004378,2022/12/22 10:42:51,"244",53.32818222,5.933029175,18.02,false,false,false,254.83,254.83,0.01,"420","3","42","315","109","134",7.88,"100167",117.01,  7.15 m/s,228°
695301.473423121,5912783.94825753,2022/12/22 10:42:52,"245",53.32817078,5.932956219,17.98,false,false,false,255.25,255.25,0.01,"411","1","42","314","110","133",7.86,"100163",117.01,  7.15 m/s,228°
695296.700423313,5912782.47666904,2022/12/22 10:42:53,"246",53.32815933,5.93288374,17.94,false,false,false,255.28,255.28,0.01,"409","1","42","313","109","133",7.85,"100166",117.01,  6.15 m/s,234°
695291.927308548,5912781.00619473,2022/12/22 10:42:54,"247",53.32814789,5.93281126,17.94,false,false,false,254.93,254.93,0.01,"411","1","42","314","110","133",7.84,"100174",117.01,  6.15 m/s,234°
695287.186059877,5912779.53592078,2022/12/22 10:42:55,"248",53.32813644,5.932739258,17.9,false,false,false,255.17,255.17,0.01,"411","1","42","313","110","133",7.83,"100169",117.01,  6.15 m/s,234°
695282.363841236,5912778.48784977,2022/12/22 10:42:56,"249",53.32812881,5.932666302,17.85,false,false,false,255.68,255.68,0.01,"414","2","41","313","109","133",7.82,"100163",117.01,  6.15 m/s,234°
695277.6542319,5912777.01999958,2022/12/22 10:42:57,"250",53.32811737,5.932594776,17.85,false,false,false,255.12,255.12,0.01,"409","1","41","314","109","133",7.81,"100165",117.01,  6.15 m/s,234°
695273.611307385,5912775.5795453,2022/12/22 10:42:58,"251",53.32810593,5.932533264,17.85,false,false,false,254.57,254.57,0.01,"406","0","42","312","109","132",7.79,"100170",117.01,  4.41 m/s,227°
695270.849421051,5912775.46607242,2022/12/22 10:42:59,"252",53.32810593,5.932491779,17.79,false,false,false,280.73,280.73,0.01,"402","0","41","313","110","132",7.77,"100167",117.01,  4.41 m/s,227°
695268.554483724,5912777.92047855,2022/12/22 10:43:00,"253",53.32812881,5.932458878,17.78,false,false,false,330.16,330.16,0.01,"411","1","42","314","110","134",7.79,"100188",117.01,  4.41 m/s,227°
695267.51177744,5912780.85297132,2022/12/22 10:43:01,"254",53.32815552,5.932445049,17.71,false,false,false,347.22,347.22,0,"427","4","42","314","109","134",7.88,"100194",117.01,  4.41 m/s,227°
695268.310461015,5912783.86000267,2022/12/22 10:43:02,"255",53.32818222,5.932458878,17.7,false,false,false,30.32,30.32,0,"432","4","43","314","109","134",7.96,"100207",108.61,  4.41 m/s,227°
695271.17561866,5912786.10199961,2022/12/22 10:43:03,"256",53.32820129,5.932503223,17.73,false,false,false,72.28,72.28,0,"436","5","43","315","110","134",8.03,"100214",108.61,  4.41 m/s,227°
695274.364502532,5912786.65854146,2022/12/22 10:43:04,"257",53.32820511,5.932551384,17.76,false,false,false,75.59,75.59,0,"442","6","43","315","109","134",8.08,"100215",108.61,  4.41 m/s,227°
695278.329622616,5912787.67138936,2022/12/22 10:43:05,"258",53.32821274,5.932611466,17.79,false,false,false,75.79,75.79,0,"451","7","43","314","109","134",8.13,"100218",108.61,  4.41 m/s,227°
695282.739131734,5912788.70249956,2022/12/22 10:43:06,"259",53.32822037,5.932678223,17.82,false,false,false,76.25,76.25,0,"460","9","43","314","109","135",8.19,"100217",108.61,  4.41 m/s,227°
695287.48041778,5912790.1716572,2022/12/22 10:43:07,"260",53.32823181,5.932750225,17.85,false,false,false,76.37,76.37,0,"470","10","43","314","109","135",8.25,"100215",108.61,  4.41 m/s,227°
695292.158209185,5912791.63932471,2022/12/22 10:43:08,"261",53.32824326,5.932821274,17.89,false,false,false,75.93,75.93,0,"461","9","43","314","109","135",8.29,"100213",108.61,  4.41 m/s,227°
695297.13912825,5912792.69392776,2022/12/22 10:43:09,"262",53.32825089,5.932896614,17.93,false,false,false,75.69,75.69,0,"464","9","43","315","109","135",8.32,"100214",108.61,  4.41 m/s,227°
695302.070945161,5912794.17092952,2022/12/22 10:43:10,"263",53.32826233,5.932971478,17.96,false,false,false,75.74,75.74,0,"473","11","43","314","109","135",8.39,"100215",108.61,  4.41 m/s,227°
695307.034449127,5912795.6492387,2022/12/22 10:43:11,"264",53.32827377,5.933046818,18,false,false,false,76.12,76.12,0,"482","12","43","315","109","136",8.43,"100209",108.61,  4.41 m/s,227°
695311.8391892,5912797.12214295,2022/12/22 10:43:12,"265",53.32828522,5.933119774,18.04,false,false,false,75.83,75.83,0,"492","14","43","315","109","135",8.49,"100210",108.61,  4.41 m/s,227°
695316.675728655,5912798.59524509,2022/12/22 10:43:13,"266",53.32829666,5.933193207,18.08,false,false,false,75.71,75.71,0,"482","12","43","314","109","135",8.53,"100209",108.61,  5.84 m/s,227°
695321.480463312,5912800.06815922,2022/12/22 10:43:14,"267",53.32830811,5.933266163,18.11,false,false,false,75.58,75.58,0,"483","12","44","315","109","135",8.59,"100210",108.61,  5.84 m/s,227°
695326.221728231,5912801.53735603,2022/12/22 10:43:15,"268",53.32831955,5.933338165,18.14,false,false,false,75.75,75.75,0,"483","12","43","314","109","135",8.66,"100212",108.61,  5.84 m/s,227°
695331.153528636,5912803.01438838,2022/12/22 10:43:16,"269",53.32833099,5.933413029,18.18,false,false,false,76.13,76.13,0,"487","13","43","314","109","136",8.7,"100206",108.61,  5.84 m/s,227°
695335.926498813,5912804.48601219,2022/12/22 10:43:17,"270",53.32834244,5.933485508,18.21,false,false,false,75.85,75.85,0,"502","15","43","314","109","136",8.76,"100211",108.61,  5.84 m/s,227°
695340.812194965,5912805.53674878,2022/12/22 10:43:18,"271",53.32835007,5.933559418,18.23,false,false,false,76.16,76.16,0,"492","14","44","314","109","136",8.8,"100205",108.61,  5.92 m/s,224°
695345.616962218,5912807.00857558,2022/12/22 10:43:19,"272",53.32836151,5.933632374,18.26,false,false,false,76.1,76.1,0,"492","14","43","314","109","136",8.86,"100209",108.61,  5.92 m/s,224°
695350.516883461,5912808.48543238,2022/12/22 10:43:20,"273",53.32837296,5.93370676,18.29,false,false,false,75.72,75.72,0,"495","14","44","314","109","136",8.91,"100205",108.61,  5.92 m/s,224°
695355.385157912,5912809.95987969,2022/12/22 10:43:21,"274",53.3283844,5.93378067,18.33,false,false,false,75.96,75.96,0,"495","14","44","314","109","136",8.95,"100203",108.61,  5.92 m/s,224°
695360.189917012,5912811.43172142,2022/12/22 10:43:21,"275",53.32839584,5.933853626,18.36,false,false,false,75.79,75.79,0,"502","15","44","314","109","136",8.98,"100202",108.61,  5.92 m/s,224°
695365.026383995,5912812.90598549,2022/12/22 10:43:21,"276",53.32840729,5.933927059,18.4,false,false,false,75.88,75.88,0,"495","14","44","314","109","136",9,"100201",108.61,  5.92 m/s,224°
695369.862893968,5912814.37914248,2022/12/22 10:43:24,"277",53.32841873,5.934000492,18.44,false,false,false,75.96,75.96,0.01,"492","14","44","314","108","135",9.02,"100199",117.01,  7.02 m/s,227°
695374.667599228,5912815.8521111,2022/12/22 10:43:25,"278",53.32843018,5.934073448,18.48,false,false,false,76.17,76.17,0.01,"492","14","44","314","108","136",9.05,"100203",108.61,  7.02 m/s,227°
695379.458008667,5912816.89897162,2022/12/22 10:43:26,"279",53.32843781,5.934145927,18.52,false,false,false,76.11,76.11,0.01,"492","14","44","313","108","136",9.07,"100200",108.61,  7.02 m/s,227°
695384.231064991,5912818.36953526,2022/12/22 10:43:27,"280",53.32844925,5.934218407,18.53,false,false,false,76.35,76.35,0.01,"495","14","44","313","108","136",9.11,"100200",108.61,  7.02 m/s,227°
695388.940539547,5912819.83749,2022/12/22 10:43:28,"281",53.32846069,5.934289932,18.55,false,false,false,76.41,76.41,0.01,"495","14","43","313","108","135",9.15,"100204",108.61,  7.28 m/s,230°
695393.745234473,5912821.31047817,2022/12/22 10:43:29,"282",53.32847214,5.934362888,18.59,false,false,false,76.12,76.12,0.01,"487","13","43","312","108","135",9.17,"100203",108.61,  7.28 m/s,230°
695398.549972415,5912822.7823592,2022/12/22 10:43:30,"283",53.32848358,5.934435844,18.63,false,false,false,75.82,75.82,0.01,"487","13","44","313","108","135",9.2,"100203",108.61,  7.28 m/s,230°
695403.449930615,5912824.25927405,2022/12/22 10:43:31,"284",53.32849503,5.934510231,18.66,false,false,false,76.26,76.26,0.01,"487","13","43","312","108","135",9.23,"100201",108.61,  7.28 m/s,230°
695408.240326955,5912825.3061639,2022/12/22 10:43:32,"285",53.32850266,5.93458271,18.69,false,false,false,75.83,75.83,0.01,"487","13","43","313","108","135",9.26,"100199",117.01,  7.28 m/s,230°
695413.045057206,5912826.77805977,2022/12/22 10:43:33,"286",53.3285141,5.934655666,18.73,false,false,false,76.09,76.09,0.01,"498","14","43","312","108","135",9.3,"100202",108.61,  7.05 m/s,233°
695417.786338924,5912828.24735189,2022/12/22 10:43:34,"287",53.32852554,5.934727669,18.76,false,false,false,76.5,76.5,0.01,"487","13","44","313","107","135",9.32,"100198",117.01,  7.05 m/s,233°
695422.495749482,5912829.71645239,2022/12/22 10:43:35,"288",53.32853699,5.934799194,18.78,false,false,false,75.9,75.9,0.01,"487","13","43","311","108","135",9.3,"100201",108.61,  7.05 m/s,233°
695427.332227855,5912831.18966865,2022/12/22 10:43:36,"289",53.32854843,5.934872627,18.81,false,false,false,75.98,75.98,0.01,"487","13","43","312","108","135",9.3,"100201",108.61,  7.05 m/s,233°
695431.995655233,5912832.23136237,2022/12/22 10:43:37,"290",53.32855606,5.934943199,18.85,false,false,false,76.08,76.08,0.01,"487","13","43","312","108","135",9.33,"100198",117.01,  7.05 m/s,233°
695436.895640998,5912833.70720008,2022/12/22 10:43:38,"291",53.3285675,5.935017586,18.89,false,false,false,75.86,75.86,0.01,"498","14","43","312","107","135",9.34,"100198",117.01,  6.84 m/s,229°
695441.700309795,5912835.18023737,2022/12/22 10:43:39,"292",53.32857895,5.935090542,18.93,false,false,false,75.89,75.89,0.01,"483","12","43","312","108","135",9.34,"100198",117.01,  6.84 m/s,229°
695446.505021618,5912836.65216753,2022/12/22 10:43:39,"293",53.32859039,5.935163498,18.96,false,false,false,76.03,76.03,0.01,"483","12","43","312","108","135",9.34,"100202",108.61,  6.84 m/s,229°
695451.309685007,5912838.12521467,2022/12/22 10:43:39,"294",53.32860184,5.935236454,19,false,false,false,75.82,75.82,0.01,"483","12","43","311","107","135",9.36,"100197",117.01,  6.84 m/s,229°
695455.765207111,5912839.58279454,2022/12/22 10:43:39,"295",53.32861328,5.935304165,19.02,false,false,false,76.05,76.05,0.01,"487","13","43","312","108","134",9.37,"100199",117.01,  6.84 m/s,229°
695458.460407545,5912840.54357265,2022/12/22 10:43:43,"296",53.32862091,5.935345173,19.04,false,false,false,64.83,64.83,0.01,"495","14","43","311","107","134",9.41,"100189",117.01,  6.64 m/s,230°
695459.815971143,5912843.14913467,2022/12/22 10:43:43,"297",53.3286438,5.935367107,19.15,false,false,false,15.52,15.52,0.01,"487","13","43","311","107","134",9.42,"100173",117.01,  6.64 m/s,230°
695459.154206915,5912846.09614509,2022/12/22 10:43:43,"298",53.3286705,5.935359001,19.3,false,false,false,344.08,344.08,0.01,"478","11","43","312","107","134",9.43,"100163",117.01,  6.64 m/s,230°
695457.335292719,5912848.57115541,2022/12/22 10:43:43,"299",53.32869339,5.935333252,19.4,false,false,false,317.96,317.96,0.01,"482","12","44","311","107","135",9.46,"100158",117.01,  6.64 m/s,230°
695454.076675964,5912849.71149518,2022/12/22 10:43:43,"300",53.32870483,5.935285091,19.43,false,false,false,271.2,271.2,0.01,"470","10","44","312","107","134",9.4,"100146",117.01,  6.64 m/s,230°
695450.873582766,5912848.72983274,2022/12/22 10:43:43,"301",53.3286972,5.935236454,19.37,false,false,false,255.59,255.59,0.01,"470","10","44","312","106","134",9.27,"100156",117.01,  6.64 m/s,230°
695447.321192359,5912847.7349223,2022/12/22 10:43:43,"302",53.32868958,5.935182571,19.34,false,false,false,255.3,255.3,0.01,"460","7","43","312","106","135",9.19,"100145",117.01,  6.64 m/s,230°
695443.119703901,5912846.28668243,2022/12/22 10:43:43,"303",53.32867813,5.935118675,19.33,false,false,false,255.3,255.3,0.01,"448","7","43","312","107","134",9.09,"100142",117.01,  6.64 m/s,230°
695438.456292316,5912845.24497742,2022/12/22 10:43:43,"304",53.3286705,5.935048103,19.27,false,false,false,255.57,255.57,0.01,"448","7","43","313","107","133",9.01,"100137",117.01,  6.64 m/s,230°
695433.429361323,5912843.76391727,2022/12/22 10:43:43,"305",53.32865906,5.934971809,19.23,false,false,false,255.06,255.06,0.01,"432","4","43","313","106","134",8.91,"100146",117.01,  6.64 m/s,230°
