X,Y,TimeStamp (UTC),"""TriggerID""","""Latitude""","""Longitude""","""Altitude (Meter AGL)""",Gimbal Roll,"""Gimbal Pitch""","""Gimbal Yaw""","""Drone Yaw""","""Combined Yaw""",HCHO (ppm),CO2 (ppm),TVOC (ppb),NO2 (ppm),C2H5OH (ppm),VOC (ppm),CO (ppm),Temp (Celcius),Pressure (pa),Altitude (meter),wind_speed,wind_direction
695391.92804552,5912758.77040803,2022/12/12 12:27:54,"351",53.32791138,5.934297085,0,false,false,false,326.7,326.7,0.01,"406","0","143","285","180","147",12.57,"101337",16.64,  2.39 m/s,193°
695391.92804552,5912758.77040803,2022/12/12 12:27:55,"352",53.32791138,5.934297085,0,false,false,false,326.67,326.67,0.01,"410","1","143","285","180","147",12.57,"101333",16.64,  2.39 m/s,193°
695391.92804552,5912758.77040803,2022/12/12 12:27:56,"353",53.32791138,5.934297085,0,false,false,false,326.6,326.6,0.01,"410","1","144","284","180","147",12.57,"101333",16.64,  2.39 m/s,193°
695391.959802183,5912758.77171355,2022/12/12 12:27:57,"354",53.32791138,5.934297562,0,false,false,false,326.54,326.54,0.01,"410","1","143","284","179","146",12.49,"101331",16.64,  2.39 m/s,193°
695392.009022785,5912758.34821153,2022/12/12 12:27:58,"355",53.32790756,5.934298039,0.72,false,false,false,325.78,325.78,0.01,"400","0","141","282","179","145",12.35,"101326",16.64,  2.39 m/s,193°
695391.913752787,5912758.34429496,2022/12/12 12:27:58,"356",53.32790756,5.934296608,4.66,false,false,false,325.93,325.93,0.01,"400","0","141","283","179","146",12.32,"101275",24.96,  2.39 m/s,193°
695391.864532193,5912758.76779698,2022/12/12 12:28:00,"357",53.32791138,5.934296131,8.33,false,false,false,326.47,326.47,0.01,"400","0","140","282","178","145",12.33,"101232",24.96,  2.39 m/s,193°
695391.864532193,5912758.76779698,2022/12/12 12:28:01,"358",53.32791138,5.934296131,8.79,false,false,false,325.99,325.99,0.01,"400","0","138","282","177","144",12.19,"101219",24.96,  2.39 m/s,193°
695391.896288856,5912758.7691025,2022/12/12 12:28:02,"359",53.32791138,5.934296608,8.73,false,false,false,326.23,326.23,0.01,"403","0","136","281","177","145",12.1,"101219",24.96,  2.39 m/s,193°
695391.945509453,5912758.34560048,2022/12/12 12:28:03,"360",53.32790756,5.934297085,8.7,false,false,false,326.15,326.15,0.01,"403","0","135","282","177","144",11.99,"101219",24.96,  2.39 m/s,193°
695391.913752787,5912758.34429496,2022/12/12 12:28:03,"361",53.32790756,5.934296608,8.7,false,false,false,326.37,326.37,0.01,"400","0","134","282","176","143",11.89,"101218",24.96,  2.39 m/s,193°
695391.913752787,5912758.34429496,2022/12/12 12:28:05,"362",53.32790756,5.934296608,8.73,false,false,false,326.23,326.23,0.01,"400","0","133","282","176","143",11.79,"101218",24.96,  3.59 m/s,199°
695391.88199612,5912758.34298944,2022/12/12 12:28:06,"363",53.32790756,5.934296131,8.96,false,false,false,326.15,326.15,0.01,"405","0","130","281","175","143",11.65,"101214",24.96,  3.59 m/s,199°
695391.850239454,5912758.34168391,2022/12/12 12:28:07,"364",53.32790756,5.934295654,11.07,false,false,false,325.93,325.93,0.01,"405","0","129","282","175","142",11.46,"101189",33.3,  3.59 m/s,199°
695391.832775529,5912758.76649145,2022/12/12 12:28:07,"365",53.32791138,5.934295654,14.31,false,false,false,326.41,326.41,0.01,"403","0","127","282","174","142",11.34,"101149",33.3,  3.59 m/s,199°
695391.832775529,5912758.76649145,2022/12/12 12:28:09,"366",53.32791138,5.934295654,17.41,false,false,false,326.38,326.38,0.01,"400","0","125","278","174","142",11.17,"101115",33.3,  2.04 m/s,145°
695391.864532193,5912758.76779698,2022/12/12 12:28:10,"367",53.32791138,5.934296131,20.34,false,false,false,326.24,326.24,0.01,"400","0","123","279","172","142",10.97,"101071",41.64,  2.04 m/s,145°
695391.864532193,5912758.76779698,2022/12/12 12:28:11,"368",53.32791138,5.934296131,23.38,false,false,false,326.2,326.2,0.01,"400","0","121","280","172","142",10.82,"101031",41.64,  2.04 m/s,145°
695391.896288856,5912758.7691025,2022/12/12 12:28:11,"369",53.32791138,5.934296608,26.52,false,false,false,326.32,326.32,0.01,"407","1","120","281","171","141",10.68,"100994",49.99,  2.04 m/s,145°
695391.92804552,5912758.77040803,2022/12/12 12:28:13,"370",53.32791138,5.934297085,29.12,false,false,false,326.35,326.35,0.01,"409","1","120","284","172","141",10.55,"100959",49.99,  2.04 m/s,145°
695391.92804552,5912758.77040803,2022/12/12 12:28:14,"371",53.32791138,5.934297085,29.4,false,false,false,357.37,357.37,0.01,"400","0","118","283","171","141",10.52,"100953",49.99,  2.04 m/s,145°
695391.832775529,5912758.76649145,2022/12/12 12:28:15,"372",53.32791138,5.934295654,29.15,false,false,false,68.11,68.11,0.01,"407","1","118","282","171","140",10.42,"100968",49.99,  2.04 m/s,145°
695391.92804552,5912758.77040803,2022/12/12 12:28:15,"373",53.32791138,5.934297085,29.06,false,false,false,68.82,68.82,0.01,"409","1","118","282","171","141",10.37,"100969",49.99,  2.04 m/s,145°
695393.212184353,5912759.24761099,2022/12/12 12:28:17,"374",53.32791519,5.934316635,29.07,false,false,false,68.71,68.71,0.01,"409","1","116","281","170","140",10.32,"100973",49.99,  2.04 m/s,145°
695395.716968848,5912760.20052168,2022/12/12 12:28:18,"375",53.32792282,5.934354782,29.07,false,false,false,68.81,68.81,0.01,"418","2","116","281","169","140",10.3,"100972",49.99,  2.04 m/s,145°
695399.188411031,5912761.6187002,2022/12/12 12:28:19,"376",53.32793427,5.934407711,29.06,false,false,false,68.86,68.86,0.01,"403","0","116","281","170","139",10.05,"100971",49.99,  3.12 m/s,176°
695403.023424244,5912763.4751264,2022/12/12 12:28:20,"377",53.32794952,5.934466362,29.04,false,false,false,68.96,68.96,0.01,"405","0","115","281","169","139",9.89,"100969",49.99,  3.12 m/s,176°
695407.239335183,5912765.34832986,2022/12/12 12:28:21,"378",53.32796478,5.934530735,29.01,false,false,false,68.97,68.97,0.01,"400","0","115","281","169","140",9.75,"100966",49.99,  3.12 m/s,176°
695412.199669513,5912767.67766949,2022/12/12 12:28:22,"379",53.32798386,5.934606552,29,false,false,false,69.14,69.14,0.01,"405","0","115","282","169","140",9.63,"100959",49.99,  3.12 m/s,176°
695416.891789257,5912769.57046114,2022/12/12 12:28:23,"380",53.32799912,5.934678078,29.01,false,false,false,68.88,68.88,0.01,"410","1","114","282","168","140",9.49,"100960",49.99,  3.12 m/s,176°
695421.615641227,5912771.46344844,2022/12/12 12:28:24,"381",53.32801437,5.93475008,29,false,false,false,69.13,69.13,0.01,"401","0","115","283","168","139",9.36,"100961",49.99,  2.37 m/s,165°
695426.212484234,5912773.35233229,2022/12/12 12:28:25,"382",53.32802963,5.934820175,28.96,false,false,false,69.22,69.22,0.01,"400","0","115","283","168","140",9.18,"100955",49.99,  2.37 m/s,165°
695430.872836925,5912775.24383224,2022/12/12 12:28:26,"383",53.32804489,5.934891224,28.95,false,false,false,69.02,69.02,0.01,"403","0","114","284","167","140",9.03,"100956",49.99,  2.37 m/s,165°
695435.420494297,5912777.55511482,2022/12/12 12:28:27,"384",53.32806396,5.934960842,28.97,false,false,false,69.04,69.04,0.01,"405","0","114","283","167","140",8.85,"100951",49.99,  2.37 m/s,165°
695440.049083101,5912779.44531813,2022/12/12 12:28:28,"385",53.32807922,5.935031414,28.92,false,false,false,68.51,68.51,0.01,"400","0","114","283","167","140",8.65,"100973",49.99,  2.37 m/s,165°
695444.614155405,5912781.33291428,2022/12/12 12:28:29,"386",53.32809448,5.935101032,28.92,false,false,false,68.78,68.78,0.02,"405","0","114","283","166","139",8.58,"100973",49.99,  0.54 m/s,260°
695449.130065184,5912783.64401918,2022/12/12 12:28:30,"387",53.32811356,5.935170174,28.93,false,false,false,68.73,68.73,0.02,"408","1","112","283","166","139",8.49,"100973",49.99,  0.54 m/s,260°
695453.568216592,5912785.52529114,2022/12/12 12:28:31,"388",53.32812881,5.935237885,28.94,false,false,false,68.69,68.69,0.02,"409","1","112","282","166","140",8.48,"100975",49.99,  0.54 m/s,260°
695458.323750624,5912787.42073362,2022/12/12 12:28:31,"389",53.32814407,5.935310364,28.95,false,false,false,68.78,68.78,0.02,"408","1","113","282","166","139",8.47,"100971",49.99,  0.54 m/s,260°
695462.839581946,5912789.7318491,2022/12/12 12:28:33,"390",53.32816315,5.935379505,28.96,false,false,false,68.73,68.73,0.02,"408","1","112","283","165","139",8.43,"100971",49.99,  0.54 m/s,260°
695467.436392817,5912791.62077361,2022/12/12 12:28:34,"391",53.32817841,5.9354496,28.95,false,false,false,68.82,68.82,0.02,"408","1","111","282","165","139",8.39,"100971",49.99,  0.54 m/s,260°
695472.096758876,5912793.51120271,2022/12/12 12:28:35,"392",53.32819366,5.935520649,28.93,false,false,false,68.88,68.88,0.02,"405","0","112","282","164","139",8.27,"100974",49.99,  0.54 m/s,260°
695476.757075718,5912795.40274854,2022/12/12 12:28:36,"393",53.32820892,5.935591698,28.94,false,false,false,68.98,68.98,0.02,"413","1","111","282","164","139",8.18,"100971",49.99,  0.54 m/s,260°
695480.355429993,5912796.82620914,2022/12/12 12:28:37,"394",53.32822037,5.935646534,28.9,false,false,false,69.71,69.71,0.02,"400","0","111","282","164","139",8.11,"100971",49.99,  0.54 m/s,260°
695481.385632658,5912797.29299289,2022/12/12 12:28:38,"395",53.32822418,5.93566227,28.85,false,false,false,35.97,35.97,0.02,"405","0","111","282","164","139",8.11,"100976",49.99,  0.54 m/s,260°
695481.004688773,5912797.27732485,2022/12/12 12:28:39,"396",53.32822418,5.935656548,28.94,false,false,false,306.63,306.63,0.02,"400","0","110","282","163","138",8.09,"100956",49.99,  0.54 m/s,260°
695480.70461749,5912796.840571,2022/12/12 12:28:40,"397",53.32822037,5.935651779,28.99,false,false,false,256.43,256.43,0.02,"402","0","110","282","163","139",8.08,"100947",49.99,  0.54 m/s,260°
695480.101445187,5912796.81576292,2022/12/12 12:28:41,"398",53.32822037,5.935642719,29.01,false,false,false,256.99,256.99,0.02,"410","1","110","283","162","139",7.97,"100948",49.99,  0.54 m/s,260°
695478.341156557,5912796.31783784,2022/12/12 12:28:41,"399",53.32821655,5.935616016,29.03,false,false,false,256.66,256.66,0.01,"401","0","109","282","163","138",7.78,"100947",49.99,  0.54 m/s,260°
695475.614243633,5912795.35574564,2022/12/12 12:28:43,"400",53.32820892,5.935574532,29,false,false,false,256.48,256.48,0.01,"400","0","109","282","162","139",7.63,"100945",49.99,  0.54 m/s,260°
695472.157131347,5912794.36362369,2022/12/12 12:28:44,"401",53.32820129,5.93552208,28.99,false,false,false,256.6,256.6,0.01,"400","0","109","282","162","139",7.41,"100944",49.99,  2.09 m/s,178°
695468.033332166,5912793.34408567,2022/12/12 12:28:45,"402",53.32819366,5.935459614,29,false,false,false,256.61,256.61,0.01,"400","0","108","283","161","138",7.18,"100942",49.99,  2.09 m/s,178°
695463.369825768,5912792.30346941,2022/12/12 12:28:46,"403",53.32818604,5.935389042,29.01,false,false,false,256.55,256.55,0.01,"405","0","107","282","161","138",6.95,"100940",49.99,  2.09 m/s,178°
695458.406401975,5912790.82388399,2022/12/12 12:28:47,"404",53.32817459,5.935313702,29,false,false,false,256.37,256.37,0,"402","0","107","282","161","138",6.74,"100939",49.99,  2.09 m/s,178°
695453.284147311,5912789.3388862,2022/12/12 12:28:47,"405",53.32816315,5.935235977,28.99,false,false,false,256.43,256.43,0,"400","0","106","282","161","139",6.53,"100942",49.99,  2.09 m/s,178°
695448.366761697,5912788.28673073,2022/12/12 12:28:49,"406",53.32815552,5.935161591,29,false,false,false,256.51,256.51,0,"400","0","105","283","161","138",6.38,"100942",49.99,  2.58 m/s,178°
695443.562045785,5912786.8136878,2022/12/12 12:28:50,"407",53.32814407,5.935088635,29.02,false,false,false,256.44,256.44,0,"400","0","104","283","160","138",6.21,"100941",49.99,  2.58 m/s,178°
695438.612832942,5912785.76023392,2022/12/12 12:28:50,"408",53.32813644,5.935013771,29.01,false,false,false,256.56,256.56,0,"409","1","104","284","160","138",6.03,"100941",49.99,  2.58 m/s,178°
695433.744553296,5912784.28570142,2022/12/12 12:28:52,"409",53.328125,5.934939861,28.99,false,false,false,256.53,256.53,0,"409","1","104","283","160","138",5.89,"100946",49.99,  2.58 m/s,178°
695429.0493883,5912783.24270406,2022/12/12 12:28:53,"410",53.32811737,5.934868813,29,false,false,false,256.62,256.62,0,"400","0","103","284","160","138",5.73,"100941",49.99,  2.58 m/s,178°
695424.149347159,5912781.76687575,2022/12/12 12:28:53,"411",53.32810593,5.934794426,29.01,false,false,false,256.57,256.57,0,"402","0","103","284","159","138",5.59,"100943",49.99,  2.58 m/s,178°
695419.327152051,5912780.71866512,2022/12/12 12:28:55,"412",53.3280983,5.93472147,29.02,false,false,false,256.51,256.51,0,"402","0","102","283","159","138",5.49,"100941",49.99,  3.12 m/s,191°
695414.617624195,5912779.24956623,2022/12/12 12:28:56,"413",53.32808685,5.934649944,29.05,false,false,false,256.19,256.19,0,"405","0","102","285","158","137",5.41,"100938",49.99,  3.12 m/s,191°
695409.717641883,5912777.77375572,2022/12/12 12:28:56,"414",53.32807541,5.934575558,29.04,false,false,false,256.67,256.67,0,"418","2","103","285","158","138",5.34,"100940",49.99,  3.12 m/s,191°
695404.800170775,5912776.72164306,2022/12/12 12:28:58,"415",53.32806778,5.934501171,29.02,false,false,false,256.46,256.46,0,"405","0","102","284","158","138",5.22,"100943",49.99,  3.12 m/s,191°
695400.090656146,5912775.25367354,2022/12/12 12:28:59,"416",53.32805634,5.934429646,29.05,false,false,false,256.62,256.62,0,"405","0","102","284","158","138",5.11,"100946",49.99,  2.75 m/s,188°
695395.109667772,5912774.19895985,2022/12/12 12:28:59,"417",53.32804871,5.934354305,29.09,false,false,false,256.44,256.44,0,"402","0","100","285","157","138",5.04,"100942",49.99,  2.75 m/s,188°
695390.30492421,5912772.72597145,2022/12/12 12:29:01,"418",53.32803726,5.934281349,29.12,false,false,false,256.65,256.65,0,"402","0","100","285","157","138",4.94,"100939",49.99,  2.75 m/s,188°
695385.673187392,5912771.68562569,2022/12/12 12:29:02,"419",53.32802963,5.934211254,29.13,false,false,false,256.56,256.56,0,"413","1","100","284","157","138",4.82,"100938",49.99,  2.75 m/s,188°
695380.646163677,5912770.2046236,2022/12/12 12:29:02,"420",53.32801819,5.93413496,29.13,false,false,false,256.58,256.58,0,"402","0","99","285","156","138",4.72,"100936",49.99,  2.75 m/s,188°
695375.792193283,5912769.15515216,2022/12/12 12:29:04,"421",53.32801056,5.934061527,29.15,false,false,false,256.59,256.59,0,"400","0","100","285","157","138",4.62,"100938",49.99,  2.72 m/s,188°
695371.146110476,5912767.68981979,2022/12/12 12:29:05,"422",53.32799912,5.933990955,29.16,false,false,false,256.62,256.62,0,"402","0","99","285","157","138",4.51,"100936",49.99,  2.72 m/s,188°
695366.133419536,5912766.63383413,2022/12/12 12:29:05,"423",53.32799149,5.933915138,29.16,false,false,false,256.7,256.7,0,"400","0","99","286","156","137",4.45,"100934",49.99,  2.72 m/s,188°
695361.265214376,5912765.15826749,2022/12/12 12:29:07,"424",53.32798004,5.933841229,29.16,false,false,false,256.61,256.61,0.01,"407","1","98","285","156","138",4.36,"100939",49.99,  2.72 m/s,188°
695356.506439023,5912764.11272918,2022/12/12 12:29:08,"425",53.32797241,5.933769226,29.14,false,false,false,256.51,256.51,0.01,"406","0","98","285","155","138",4.28,"100940",49.99,  2.72 m/s,188°
695351.574669891,5912762.63567408,2022/12/12 12:29:08,"426",53.32796097,5.933694363,29.14,false,false,false,256.49,256.49,0,"403","0","97","285","156","137",4.2,"100944",49.99,  2.72 m/s,188°
695346.738147036,5912761.16142503,2022/12/12 12:29:10,"427",53.32794952,5.93362093,29.16,false,false,false,256.52,256.52,0,"400","0","97","286","155","136",4.12,"100938",49.99,  2.76 m/s,186°
695341.91591863,5912760.11329378,2022/12/12 12:29:11,"428",53.32794189,5.933547974,29.18,false,false,false,256.5,256.5,0,"403","0","97","286","155","137",4.06,"100939",49.99,  2.76 m/s,186°
695337.047588419,5912758.63886159,2022/12/12 12:29:11,"429",53.32793045,5.933474064,29.19,false,false,false,256.55,256.55,0,"409","1","97","286","155","137",3.99,"100937",49.99,  2.76 m/s,186°
695332.193599242,5912757.58943515,2022/12/12 12:29:13,"430",53.32792282,5.933400631,29.19,false,false,false,256.64,256.64,0,"407","1","96","286","155","137",3.92,"100938",49.99,  2.76 m/s,186°
695327.452290689,5912756.12023341,2022/12/12 12:29:14,"431",53.32791138,5.933328629,29.21,false,false,false,256.66,256.66,0,"400","0","96","285","154","137",3.86,"100934",49.99,  2.87 m/s,186°
695322.471270696,5912755.06559663,2022/12/12 12:29:14,"432",53.32790375,5.933253288,29.22,false,false,false,256.57,256.57,0,"400","0","94","285","154","137",3.81,"100935",49.99,  2.87 m/s,186°
695317.634732818,5912753.59137757,2022/12/12 12:29:16,"433",53.3278923,5.933179855,29.23,false,false,false,256.54,256.54,0,"400","0","94","286","154","137",3.75,"100935",49.99,  2.87 m/s,186°
695312.907762156,5912752.54719114,2022/12/12 12:29:17,"434",53.32788467,5.93310833,29.23,false,false,false,256.7,256.7,0,"406","0","94","286","154","137",3.7,"100935",49.99,  2.87 m/s,186°
695307.975903505,5912751.07017911,2022/12/12 12:29:17,"435",53.32787323,5.933033466,29.23,false,false,false,256.53,256.53,0,"411","1","94","286","153","136",3.65,"100936",49.99,  2.87 m/s,186°
695303.171068924,5912749.59839198,2022/12/12 12:29:19,"436",53.32786179,5.93296051,29.26,false,false,false,256.63,256.63,0,"402","0","93","286","152","136",3.61,"100931",49.99,  2.90 m/s,185°
695298.412335249,5912748.5529152,2022/12/12 12:29:20,"437",53.32785416,5.932888508,29.27,false,false,false,256.64,256.64,0,"402","0","93","286","153","137",3.56,"100935",49.99,  2.90 m/s,185°
695293.512271232,5912747.0761112,2022/12/12 12:29:21,"438",53.32784271,5.932814121,29.28,false,false,false,256.69,256.69,0,"400","0","93","287","153","137",3.52,"100934",49.99,  2.90 m/s,185°
695288.626573128,5912746.0254276,2022/12/12 12:29:22,"439",53.32783508,5.932740212,29.27,false,false,false,256.61,256.61,0,"406","0","92","287","152","137",3.48,"100938",49.99,  2.90 m/s,185°
695283.980445716,5912744.56018154,2022/12/12 12:29:23,"440",53.32782364,5.93266964,29.27,false,false,false,256.65,256.65,0,"414","2","92","287","152","137",3.43,"100937",49.99,  2.90 m/s,185°
695278.904203013,5912743.50167924,2022/12/12 12:29:24,"441",53.32781601,5.932592869,29.29,false,false,false,256.52,256.52,0,"402","0","92","287","152","136",3.4,"100938",49.99,  4.10 m/s,192°
695274.067596714,5912742.02861714,2022/12/12 12:29:25,"442",53.32780457,5.932519436,29.3,false,false,false,256.43,256.43,0,"402","0","92","287","152","137",3.37,"100938",49.99,  4.10 m/s,192°
695269.40405451,5912740.98708117,2022/12/12 12:29:26,"443",53.32779694,5.932448864,29.31,false,false,false,256.62,256.62,0,"402","0","91","288","152","137",3.31,"100935",49.99,  4.10 m/s,192°
695264.377014891,5912739.50509151,2022/12/12 12:29:27,"444",53.32778549,5.93237257,29.32,false,false,false,256.44,256.44,0,"406","0","91","288","152","137",3.28,"100937",49.99,  4.10 m/s,192°
695259.540400869,5912738.03204438,2022/12/12 12:29:28,"445",53.32777405,5.932299137,29.31,false,false,false,256.74,256.74,0,"416","2","91","288","152","136",3.25,"100939",49.99,  4.10 m/s,192°
695254.908609192,5912736.99182743,2022/12/12 12:29:29,"446",53.32776642,5.932229042,29.3,false,false,false,256.58,256.58,0,"406","0","91","288","151","136",3.21,"100938",49.99,  4.10 m/s,192°
695249.849804911,5912735.50854873,2022/12/12 12:29:30,"447",53.32775497,5.932152271,29.32,false,false,false,256.66,256.66,0,"406","0","90","288","150","137",3.18,"100936",49.99,  4.10 m/s,192°
695244.964042258,5912734.45902255,2022/12/12 12:29:31,"448",53.32774735,5.932078362,29.34,false,false,false,256.58,256.58,0,"406","0","91","288","151","136",3.15,"100936",49.99,  4.10 m/s,192°
695240.286181392,5912732.99140315,2022/12/12 12:29:32,"449",53.3277359,5.932007313,29.35,false,false,false,256.59,256.59,0,"406","0","90","288","151","136",3.12,"100940",49.99,  4.10 m/s,192°
695235.354284215,5912731.51446743,2022/12/12 12:29:33,"450",53.32772446,5.931932449,29.35,false,false,false,256.47,256.47,0,"416","2","90","288","150","136",3.08,"100933",49.99,  4.10 m/s,192°
695230.468560821,5912730.46384424,2022/12/12 12:29:34,"451",53.32771683,5.93185854,29.34,false,false,false,256.52,256.52,0,"409","1","90","288","150","136",3.06,"100939",49.99,  4.10 m/s,192°
695225.805000258,5912729.42235151,2022/12/12 12:29:35,"452",53.3277092,5.931787968,29.34,false,false,false,256.54,256.54,0,"409","1","90","288","150","136",3.03,"100938",49.99,  4.10 m/s,192°
695220.777937475,5912727.94040855,2022/12/12 12:29:36,"453",53.32769775,5.931711674,29.35,false,false,false,256.4,256.4,0,"406","0","89","288","149","136",2.99,"100938",49.99,  4.10 m/s,192°
695215.877787017,5912726.46479766,2022/12/12 12:29:37,"454",53.32768631,5.931637287,29.36,false,false,false,256.53,256.53,0,"406","0","89","288","150","137",2.96,"100938",49.99,  4.10 m/s,192°
695211.277733899,5912725.42592803,2022/12/12 12:29:38,"455",53.32767868,5.931567669,29.38,false,false,false,256.51,256.51,0,"416","2","89","288","149","136",2.94,"100937",49.99,  4.10 m/s,192°
695206.250617569,5912723.94511269,2022/12/12 12:29:39,"456",53.32766724,5.931491375,29.39,false,false,false,256.5,256.5,0,"411","1","89","288","149","136",2.92,"100940",49.99,  3.88 m/s,191°
695201.396572045,5912722.89582124,2022/12/12 12:29:40,"457",53.32765961,5.931417942,29.38,false,false,false,256.55,256.55,0,"409","1","89","289","149","137",2.89,"100939",49.99,  3.88 m/s,191°
695196.623484726,5912721.42433537,2022/12/12 12:29:41,"458",53.32764816,5.931345463,29.4,false,false,false,256.56,256.56,0,"409","1","89","288","149","136",2.87,"100936",49.99,  3.88 m/s,191°
695191.864639181,5912720.37896367,2022/12/12 12:29:42,"459",53.32764053,5.93127346,29.41,false,false,false,256.07,256.07,0,"409","1","89","289","149","136",2.85,"100942",49.99,  3.88 m/s,191°
695187.564633221,5912719.77796415,2022/12/12 12:29:43,"460",53.32763672,5.931208611,29.35,false,false,false,277.56,277.56,0,"416","2","88","289","149","136",2.83,"100945",49.99,  3.88 m/s,191°
695183.714050958,5912722.1696387,2022/12/12 12:29:44,"461",53.32765961,5.931152344,29.2,false,false,false,312.29,312.29,0,"420","3","88","289","148","136",2.83,"100950",49.99,  3.72 m/s,190°
695181.458899192,5912726.75111252,2022/12/12 12:29:45,"462",53.32770157,5.931121349,29.04,false,false,false,344.71,344.71,0,"416","2","88","289","148","137",2.88,"100958",49.99,  3.72 m/s,190°
695180.664098787,5912731.39255691,2022/12/12 12:29:46,"463",53.32774353,5.931112289,29,false,false,false,352.03,352.03,0,"423","3","88","289","148","137",2.93,"100964",49.99,  3.72 m/s,190°
695181.696236278,5912735.68461521,2022/12/12 12:29:47,"464",53.32778168,5.931130409,28.93,false,false,false,24.96,24.96,0,"427","4","88","289","148","136",2.98,"100967",49.99,  3.72 m/s,190°
695184.826785643,5912739.21179912,2022/12/12 12:29:48,"465",53.32781219,5.931179524,28.85,false,false,false,56.46,56.46,0,"441","6","89","289","148","137",3.03,"100970",49.99,  3.72 m/s,190°
695189.233266267,5912741.09262893,2022/12/12 12:29:48,"466",53.32782745,5.931246758,28.89,false,false,false,76.56,76.56,0,"448","7","89","289","147","137",3.1,"100968",49.99,  3.72 m/s,190°
695193.787194356,5912741.7051733,2022/12/12 12:29:50,"467",53.32783127,5.931315422,28.98,false,false,false,76.96,76.96,0,"442","6","89","290","148","137",3.15,"100970",49.99,  3.58 m/s,185°
695198.64122149,5912742.7544574,2022/12/12 12:29:51,"468",53.3278389,5.931388855,28.98,false,false,false,77.27,77.27,0,"441","6","89","289","147","136",3.17,"100965",49.99,  3.58 m/s,185°
695203.780924242,5912743.8154794,2022/12/12 12:29:52,"469",53.32784653,5.931466579,28.97,false,false,false,77.23,77.23,0,"441","6","89","289","147","136",3.22,"100968",49.99,  3.58 m/s,185°
695208.744572715,5912745.29368677,2022/12/12 12:29:53,"470",53.32785797,5.93154192,28.97,false,false,false,77.26,77.26,0,"445","6","88","289","147","136",3.26,"100967",49.99,  3.58 m/s,185°
695213.37636334,5912746.33385872,2022/12/12 12:29:54,"471",53.3278656,5.931612015,28.97,false,false,false,77.14,77.14,0,"456","8","88","289","147","137",3.29,"100969",49.99,  4.31 m/s,188°
695218.435210331,5912747.81598658,2022/12/12 12:29:55,"472",53.32787704,5.931688786,28.98,false,false,false,77.17,77.17,0,"445","6","87","288","147","136",3.31,"100969",49.99,  4.31 m/s,188°
695223.320917419,5912748.86659777,2022/12/12 12:29:56,"473",53.32788467,5.931762695,29,false,false,false,77.21,77.21,0,"445","6","87","289","146","136",3.33,"100971",49.99,  4.31 m/s,188°
695228.094036448,5912750.33811402,2022/12/12 12:29:57,"474",53.32789612,5.931835175,28.99,false,false,false,77.27,77.27,0,"445","6","87","288","146","136",3.37,"100966",49.99,  4.31 m/s,188°
695232.789265845,5912751.38091122,2022/12/12 12:29:58,"475",53.32790375,5.931906223,29,false,false,false,77.31,77.31,0,"448","7","87","288","146","136",3.41,"100968",49.99,  4.31 m/s,188°
695237.848102608,5912752.86305999,2022/12/12 12:29:58,"476",53.32791519,5.931982994,29.01,false,false,false,77.19,77.19,0,"460","9","87","289","145","136",3.43,"100965",49.99,  4.31 m/s,188°
695242.733867984,5912753.91369408,2022/12/12 12:30:00,"477",53.32792282,5.932056904,29.01,false,false,false,77.2,77.2,0,"448","7","87","289","145","136",3.48,"100966",49.99,  4.37 m/s,189°
695247.443397152,5912755.38261822,2022/12/12 12:30:01,"478",53.32793427,5.932128429,28.99,false,false,false,77.26,77.26,0,"451","7","87","288","145","136",3.51,"100967",49.99,  4.37 m/s,189°
695252.311752629,5912756.85695798,2022/12/12 12:30:01,"479",53.32794571,5.932202339,28.99,false,false,false,77.14,77.14,0,"448","7","86","288","145","136",3.53,"100970",49.99,  4.37 m/s,189°
695257.229268234,5912757.90891172,2022/12/12 12:30:03,"480",53.32795334,5.932276726,29,false,false,false,77.1,77.1,0,"451","7","86","288","145","136",3.58,"100969",49.99,  4.37 m/s,189°
695262.065862027,5912759.38195697,2022/12/12 12:30:04,"481",53.32796478,5.932350159,29.03,false,false,false,77.13,77.13,0,"461","9","86","289","145","137",3.6,"100973",49.99,  4.55 m/s,184°
695266.919860198,5912760.43131153,2022/12/12 12:30:05,"482",53.32797241,5.932423592,29.03,false,false,false,77.27,77.27,0,"456","8","86","288","145","136",3.64,"100972",49.99,  4.55 m/s,184°
695271.724646676,5912761.90417411,2022/12/12 12:30:06,"483",53.32798386,5.932496548,29.05,false,false,false,77.4,77.4,0,"451","7","86","289","144","136",3.66,"100971",49.99,  4.55 m/s,184°
695276.546884109,5912762.95223388,2022/12/12 12:30:07,"484",53.32799149,5.932569504,29.06,false,false,false,77.29,77.29,0,"448","7","86","290","145","136",3.68,"100971",49.99,  4.55 m/s,184°
695281.446914557,5912764.42790588,2022/12/12 12:30:08,"485",53.32800293,5.93264389,29.05,false,false,false,77.1,77.1,0,"451","7","86","289","144","136",3.72,"100971",49.99,  4.55 m/s,184°
695286.300904477,5912765.47728043,2022/12/12 12:30:09,"486",53.32801056,5.932717323,29.04,false,false,false,77.12,77.12,0,"464","9","87","289","144","135",3.75,"100970",49.99,  4.13 m/s,184°
695291.169239857,5912766.95166049,2022/12/12 12:30:10,"487",53.328022,5.932791233,29.04,false,false,false,77.24,77.24,0,"461","9","87","289","144","135",3.76,"100968",49.99,  4.13 m/s,184°
695295.910567042,5912768.42194087,2022/12/12 12:30:11,"488",53.32803345,5.932863236,29.04,false,false,false,77.3,77.3,0,"460","9","86","288","144","137",3.77,"100971",49.99,  4.13 m/s,184°
695300.764483991,5912769.47132762,2022/12/12 12:30:12,"489",53.32804108,5.932936668,29.04,false,false,false,77.28,77.28,0,"470","10","86","289","144","136",3.79,"100969",49.99,  4.13 m/s,184°
695305.66456821,5912770.94702764,2022/12/12 12:30:13,"490",53.32805252,5.933011055,29.01,false,false,false,77.24,77.24,0,"460","9","86","288","143","136",3.81,"100969",49.99,  4.13 m/s,184°
695310.42327791,5912771.99251225,2022/12/12 12:30:14,"491",53.32806015,5.933083057,29.03,false,false,false,77.14,77.14,0,"456","8","85","288","143","136",3.83,"100967",49.99,  4.02 m/s,181°
695315.291600552,5912773.46691733,2022/12/12 12:30:14,"492",53.32807159,5.933156967,29.05,false,false,false,77.19,77.19,0,"456","8","85","288","143","136",3.83,"100967",49.99,  4.02 m/s,181°
695320.209088922,5912774.51893691,2022/12/12 12:30:16,"493",53.32807922,5.933231354,29.08,false,false,false,77.2,77.2,0,"460","9","85","289","143","136",3.83,"100969",49.99,  4.02 m/s,181°
695324.982091203,5912775.99054897,2022/12/12 12:30:17,"494",53.32809067,5.933303833,29.11,false,false,false,77.25,77.25,0,"470","10","85","289","143","136",3.84,"100966",49.99,  4.02 m/s,181°
695329.931265372,5912777.04388105,2022/12/12 12:30:18,"495",53.3280983,5.933378696,29.12,false,false,false,77.23,77.23,0,"456","8","85","289","142","136",3.85,"100966",49.99,  4.02 m/s,181°
695334.799577942,5912778.51830637,2022/12/12 12:30:19,"496",53.32810974,5.933452606,29.08,false,false,false,77.26,77.26,0,"451","7","84","289","143","136",3.84,"100964",49.99,  3.98 m/s,186°
695339.636085554,5912779.99254362,2022/12/12 12:30:20,"497",53.32812119,5.933526039,29.09,false,false,false,77.28,77.28,0,"456","8","85","289","143","136",3.85,"100966",49.99,  3.98 m/s,186°
695344.426582962,5912781.03825576,2022/12/12 12:30:21,"498",53.32812881,5.933598518,29.1,false,false,false,77.13,77.13,0,"460","9","84","289","143","136",3.85,"100966",49.99,  3.98 m/s,186°
695349.231395666,5912782.51120043,2022/12/12 12:30:22,"499",53.32814026,5.933671475,29.1,false,false,false,77.23,77.23,0,"470","10","85","288","142","136",3.86,"100968",49.99,  3.98 m/s,186°
695354.117046193,5912783.56194748,2022/12/12 12:30:23,"500",53.32814789,5.933745384,29.12,false,false,false,77.21,77.21,0,"456","8","84","289","141","135",3.9,"100970",49.99,  3.98 m/s,186°
695358.985346006,5912785.03639789,2022/12/12 12:30:24,"501",53.32815933,5.933819294,29.13,false,false,false,77.23,77.23,0,"456","8","85","288","142","135",3.95,"100967",49.99,  3.03 m/s,178°
695363.902815433,5912786.08846315,2022/12/12 12:30:25,"502",53.32816696,5.933893681,29.13,false,false,false,77.26,77.26,0,"456","8","85","288","141","136",3.97,"100968",49.99,  3.03 m/s,178°
695368.707551554,5912787.56142502,2022/12/12 12:30:26,"503",53.32817841,5.933966637,29.11,false,false,false,77.23,77.23,0,"456","8","84","289","141","136",3.99,"100969",49.99,  3.03 m/s,178°
695373.434478051,5912788.60566801,2022/12/12 12:30:27,"504",53.32818604,5.934038162,29.13,false,false,false,77.18,77.18,0,"470","10","85","291","142","136",3.99,"100967",49.99,  3.03 m/s,178°
695378.36628075,5912790.08274933,2022/12/12 12:30:27,"505",53.32819748,5.934113026,29.14,false,false,false,77.26,77.26,0,"461","9","86","290","141","136",3.98,"100965",49.99,  3.03 m/s,178°
695383.220228973,5912791.13222391,2022/12/12 12:30:29,"506",53.32820511,5.934186459,29.15,false,false,false,77.51,77.51,0,"460","9","86","291","141","136",3.97,"100963",49.99,  2.88 m/s,184°
695387.834528805,5912792.59626322,2022/12/12 12:30:30,"507",53.32821655,5.934256554,29.14,false,false,false,77.15,77.15,0,"456","8","86","291","141","136",3.94,"100966",49.99,  2.88 m/s,184°
695392.861480735,5912794.0783856,2022/12/12 12:30:31,"508",53.328228,5.934332848,29.14,false,false,false,77.15,77.15,0,"456","8","87","290","142","136",3.92,"100968",49.99,  2.88 m/s,184°
695397.747112402,5912795.12917797,2022/12/12 12:30:32,"509",53.32823563,5.934406757,29.16,false,false,false,76.95,76.95,0,"464","9","86","290","141","137",3.92,"100969",49.99,  2.88 m/s,184°
695402.361404682,5912796.59323157,2022/12/12 12:30:33,"510",53.32824707,5.934476852,29.15,false,false,false,77.26,77.26,0,"461","9","86","290","141","137",3.92,"100967",49.99,  2.88 m/s,184°
695407.388394459,5912798.07425745,2022/12/12 12:30:34,"511",53.32825851,5.934553146,29.15,false,false,false,77.45,77.45,0,"456","8","86","289","140","136",3.91,"100967",49.99,  2.88 m/s,184°
695412.274086271,5912799.12506765,2022/12/12 12:30:35,"512",53.32826614,5.934627056,29.13,false,false,false,77.39,77.39,0,"460","9","85","290","141","136",3.91,"100962",49.99,  2.88 m/s,184°
695417.128019836,5912800.17457723,2022/12/12 12:30:36,"513",53.32827377,5.934700489,29.15,false,false,false,77.58,77.58,0,"460","9","85","290","141","136",3.88,"100963",49.99,  2.88 m/s,184°
695421.869282128,5912801.64498487,2022/12/12 12:30:37,"514",53.32828522,5.934772492,29.18,false,false,false,77.61,77.61,0,"461","9","86","290","140","137",3.86,"100962",49.99,  2.88 m/s,184°
695426.723145011,5912802.69450161,2022/12/12 12:30:37,"515",53.32829285,5.934845924,29.17,false,false,false,77.12,77.12,0,"460","9","85","290","140","136",3.83,"100965",49.99,  2.88 m/s,184°
695431.591406987,5912804.16902732,2022/12/12 12:30:39,"516",53.32830429,5.934919834,29.14,false,false,false,77.19,77.19,0,"451","7","85","289","140","136",3.82,"100968",49.99,  2.88 m/s,184°
695436.427909868,5912805.64225226,2022/12/12 12:30:40,"517",53.32831573,5.934993267,29.15,false,false,false,77.18,77.18,0,"451","7","85","289","140","136",3.81,"100966",49.99,  2.88 m/s,184°
695441.250076562,5912806.69048091,2022/12/12 12:30:41,"518",53.32832336,5.935066223,29.16,false,false,false,77.12,77.12,0,"451","7","85","289","140","137",3.79,"100969",49.99,  2.88 m/s,184°
695446.086528719,5912808.16482786,2022/12/12 12:30:42,"519",53.32833481,5.935139656,29.17,false,false,false,77.16,77.16,0,"460","9","84","289","139","136",3.78,"100968",49.99,  2.88 m/s,184°
695450.764308799,5912809.63154086,2022/12/12 12:30:43,"520",53.32834625,5.935210705,29.16,false,false,false,77.24,77.24,0,"464","9","84","289","139","136",3.79,"100971",49.99,  2.88 m/s,184°
695455.776940529,5912810.68761722,2022/12/12 12:30:44,"521",53.32835388,5.935286522,29.17,false,false,false,77.15,77.15,0,"456","8","84","289","140","136",3.82,"100970",49.99,  3.44 m/s,186°
695460.613384959,5912812.16197914,2022/12/12 12:30:45,"522",53.32836533,5.935359955,29.18,false,false,false,77.14,77.14,0,"451","7","84","289","139","136",3.86,"100967",49.99,  3.44 m/s,186°
695465.308582498,5912813.20501124,2022/12/12 12:30:46,"523",53.32837296,5.935431004,29.18,false,false,false,77.54,77.54,0,"451","7","84","289","138","135",3.86,"100965",49.99,  3.44 m/s,186°
695469.510141395,5912814.65215809,2022/12/12 12:30:47,"524",53.3283844,5.9354949,29.19,false,false,false,67.93,67.93,0,"451","7","84","288","139","135",3.89,"100967",49.99,  3.44 m/s,186°
695472.640319827,5912818.18064708,2022/12/12 12:30:48,"525",53.32841492,5.935544014,29.32,false,false,false,33.69,33.69,0,"470","10","83","289","138","135",3.9,"100965",49.99,  3.44 m/s,186°
695473.449990302,5912822.46252367,2022/12/12 12:30:49,"526",53.32845306,5.935558796,29.43,false,false,false,1.63,1.63,0,"456","8","83","289","138","136",3.92,"100968",49.99,  3.06 m/s,186°
695472.450107725,5912826.6710907,2022/12/12 12:30:50,"527",53.32849121,5.935546398,29.52,false,false,false,347.03,347.03,0,"460","9","83","289","138","136",3.95,"100961",49.99,  3.06 m/s,186°
695470.339159204,5912830.83396216,2022/12/12 12:30:50,"528",53.32852936,5.935517311,29.63,false,false,false,328.3,328.3,0,"461","9","83","289","138","135",3.96,"100958",49.99,  3.06 m/s,186°
695467.028226231,5912833.24760636,2022/12/12 12:30:52,"529",53.32855225,5.935469151,29.72,false,false,false,298.41,298.41,0,"460","9","83","289","138","136",3.96,"100946",49.99,  3.06 m/s,186°
695463.183854162,5912833.93943833,2022/12/12 12:30:53,"530",53.32855988,5.93541193,29.73,false,false,false,271.28,271.28,0,"460","9","82","289","138","136",3.89,"100943",49.99,  3.06 m/s,186°
695459.12360101,5912832.92251928,2022/12/12 12:30:53,"531",53.32855225,5.935350418,29.71,false,false,false,257.21,257.21,0,"436","5","82","289","138","135",3.8,"100938",49.99,  3.06 m/s,186°
695454.985614326,5912831.47688113,2022/12/12 12:30:55,"532",53.3285408,5.935287476,29.68,false,false,false,256.54,256.54,0,"432","4","82","288","137","136",3.71,"100933",49.99,  3.00 m/s,193°
695450.766576756,5912830.45343953,2022/12/12 12:30:56,"533",53.32853317,5.935223579,29.64,false,false,false,256.56,256.56,0,"424","3","81","289","137","136",3.61,"100933",49.99,  3.00 m/s,193°
695445.834901295,5912828.97628435,2022/12/12 12:30:56,"534",53.32852173,5.935148716,29.63,false,false,false,256.51,256.51,0,"423","3","82","289","137","135",3.52,"100931",49.99,  3.00 m/s,193°
695440.839756364,5912827.49541057,2022/12/12 12:30:58,"535",53.32851028,5.935072899,29.67,false,false,false,256.42,256.42,0,"427","4","81","288","138","135",3.42,"100929",49.99,  3.00 m/s,193°
695436.112767463,5912826.45220865,2022/12/12 12:30:59,"536",53.32850266,5.935001373,29.67,false,false,false,256.58,256.58,0,"414","2","81","289","137","135",3.32,"100936",49.99,  2.75 m/s,187°
695430.958902883,5912824.96481898,2022/12/12 12:30:59,"537",53.32849121,5.934923172,29.63,false,false,false,256.58,256.58,0,"411","1","81","289","136","136",3.25,"100936",49.99,  2.75 m/s,187°
695426.073241017,5912823.91398885,2022/12/12 12:31:01,"538",53.32848358,5.934849262,29.6,false,false,false,256.59,256.59,0,"411","1","80","290","137","135",3.16,"100931",49.99,  2.75 m/s,187°
695421.409804397,5912822.87230116,2022/12/12 12:31:02,"539",53.32847595,5.93477869,29.61,false,false,false,256.59,256.59,0,"411","1","80","289","137","135",3.11,"100929",49.99,  2.75 m/s,187°
695416.351155289,5912821.38995677,2022/12/12 12:31:02,"540",53.32846451,5.93470192,29.62,false,false,false,256.54,256.54,0,"416","2","81","290","136","135",3.05,"100935",49.99,  2.75 m/s,187°
695411.482953451,5912819.91433428,2022/12/12 12:31:04,"541",53.32845306,5.93462801,29.61,false,false,false,256.39,256.39,0,"414","2","80","290","137","135",2.98,"100929",49.99,  2.53 m/s,196°
695406.883023086,5912818.87527233,2022/12/12 12:31:05,"542",53.32844543,5.934558392,29.59,false,false,false,256.45,256.45,0,"406","0","80","290","137","135",2.92,"100933",49.99,  2.53 m/s,196°
695401.824299507,5912817.39294086,2022/12/12 12:31:05,"543",53.32843399,5.934481621,29.57,false,false,false,255.94,255.94,0,"411","1","80","291","136","135",2.9,"100941",49.99,  2.53 m/s,196°
695396.956044198,5912815.9184455,2022/12/12 12:31:07,"544",53.32842255,5.934407711,29.54,false,false,false,256.55,256.55,0,"411","1","80","291","136","136",2.85,"100937",49.99,  2.53 m/s,196°
695392.229149043,5912814.87417836,2022/12/12 12:31:08,"545",53.32841492,5.934336186,29.52,false,false,false,256.38,256.38,0,"423","3","81","291","136","136",2.81,"100941",49.99,  2.53 m/s,196°
695387.233909271,5912813.39335889,2022/12/12 12:31:08,"546",53.32840347,5.934260368,29.52,false,false,false,256.48,256.48,0,"420","3","81","291","136","136",2.78,"100942",49.99,  2.53 m/s,196°
695382.37998483,5912812.34387965,2022/12/12 12:31:10,"547",53.32839584,5.934186935,29.52,false,false,false,256.43,256.43,0,"420","3","81","291","136","136",2.76,"100938",49.99,  2.53 m/s,187°
695377.575232093,5912810.87201532,2022/12/12 12:31:11,"548",53.3283844,5.934113979,29.49,false,false,false,256.42,256.42,0,"416","2","80","292","135","136",2.71,"100937",49.99,  2.53 m/s,187°
695372.784816172,5912809.82515686,2022/12/12 12:31:11,"549",53.32837677,5.9340415,29.5,false,false,false,256.73,256.73,0,"416","2","81","291","136","135",2.66,"100932",49.99,  2.53 m/s,187°
695367.980058476,5912808.35330236,2022/12/12 12:31:13,"550",53.32836533,5.933968544,29.51,false,false,false,256.84,256.84,0,"416","2","81","291","136","136",2.62,"100933",49.99,  2.53 m/s,187°
695363.316597243,5912807.31167229,2022/12/12 12:31:14,"551",53.3283577,5.933897972,29.49,false,false,false,256.66,256.66,0,"420","3","81","291","135","135",2.56,"100939",49.99,  2.45 m/s,187°
695358.289652503,5912805.82958101,2022/12/12 12:31:14,"552",53.32834625,5.933821678,29.47,false,false,false,256.62,256.62,0,"411","1","80","291","135","135",2.51,"100934",49.99,  2.45 m/s,187°
695353.372269586,5912804.77752383,2022/12/12 12:31:16,"553",53.32833862,5.933747292,29.45,false,false,false,256.64,256.64,0,"411","1","80","291","135","136",2.46,"100934",49.99,  2.45 m/s,187°
695348.757973486,5912803.31351791,2022/12/12 12:31:17,"554",53.32832718,5.933677197,29.45,false,false,false,256.66,256.66,0,"409","1","80","291","135","136",2.42,"100937",49.99,  2.45 m/s,187°
695343.681804618,5912802.25494466,2022/12/12 12:31:18,"555",53.32831955,5.933600426,29.45,false,false,false,256.54,256.54,0,"411","1","80","291","134","135",2.38,"100934",49.99,  2.45 m/s,187°
695338.845275577,5912800.78181477,2022/12/12 12:31:19,"556",53.32830811,5.933526993,29.41,false,false,false,256.74,256.74,0,"416","2","80","291","134","136",2.36,"100936",49.99,  3.10 m/s,186°
695334.150045852,5912799.73890845,2022/12/12 12:31:20,"557",53.32830048,5.933455944,29.4,false,false,false,256.51,256.51,0,"409","1","79","292","135","136",2.33,"100934",49.99,  3.10 m/s,186°
695329.123085793,5912798.2568484,2022/12/12 12:31:21,"558",53.32828903,5.93337965,29.35,false,false,false,256.73,256.73,0,"406","0","79","291","135","136",2.3,"100935",49.99,  3.10 m/s,186°
695324.28654902,5912796.78373352,2022/12/12 12:31:22,"559",53.32827759,5.933306217,29.32,false,false,false,256.67,256.67,0,"406","0","79","290","135","135",2.26,"100933",49.99,  3.10 m/s,186°
695319.718338624,5912795.74606192,2022/12/12 12:31:23,"560",53.32826996,5.933237076,29.32,false,false,false,256.71,256.71,0,"406","0","78","290","134","135",2.23,"100935",49.99,  3.10 m/s,186°
695314.659614305,5912794.26271231,2022/12/12 12:31:24,"561",53.32825851,5.933160305,29.35,false,false,false,256.59,256.59,0,"414","2","78","290","134","135",2.2,"100935",49.99,  3.00 m/s,190°
695309.805613025,5912793.21442004,2022/12/12 12:31:25,"562",53.32825089,5.933086872,29.34,false,false,false,256.55,256.55,0,"402","0","78","291","134","135",2.17,"100935",49.99,  3.00 m/s,190°
695304.937355533,5912791.73890805,2022/12/12 12:31:26,"563",53.32823944,5.933012962,29.29,false,false,false,256.62,256.62,0,"402","0","78","291","134","135",2.14,"100933",49.99,  3.00 m/s,190°
695300.132562482,5912790.26712302,2022/12/12 12:31:27,"564",53.328228,5.932940006,29.28,false,false,false,256.42,256.42,0,"400","0","78","290","134","135",2.11,"100937",49.99,  3.00 m/s,190°
695295.31035694,5912789.21903856,2022/12/12 12:31:28,"565",53.32822037,5.93286705,29.3,false,false,false,256.54,256.54,0,"402","0","78","291","133","134",2.08,"100936",49.99,  3.00 m/s,190°
695290.66432031,5912787.75267283,2022/12/12 12:31:29,"566",53.32820892,5.932796478,29.29,false,false,false,256.62,256.62,0,"414","2","77","290","134","135",2.06,"100935",49.99,  4.21 m/s,188°
695285.588192168,5912786.69416501,2022/12/12 12:31:30,"567",53.32820129,5.932719708,29.27,false,false,false,256.47,256.47,0,"402","0","77","291","133","135",2.04,"100935",49.99,  4.21 m/s,188°
695280.719876212,5912785.21979021,2022/12/12 12:31:31,"568",53.32818985,5.932645798,29.28,false,false,false,256.45,256.45,0,"402","0","77","291","133","135",2.01,"100934",49.99,  4.21 m/s,188°
695275.865905967,5912784.1704209,2022/12/12 12:31:32,"569",53.32818222,5.932572365,29.27,false,false,false,256.58,256.58,0,"400","0","77","291","133","135",2,"100937",49.99,  4.21 m/s,188°
695271.02934147,5912782.6973609,2022/12/12 12:31:33,"570",53.32817078,5.932498932,29.24,false,false,false,256.63,256.63,0,"400","0","77","291","133","135",1.97,"100937",49.99,  4.21 m/s,188°
695266.161063447,5912781.22188915,2022/12/12 12:31:34,"571",53.32815933,5.932425022,29.21,false,false,false,256.58,256.58,0,"414","2","77","291","133","134",1.95,"100935",49.99,  4.21 m/s,188°
695261.529315717,5912780.18166471,2022/12/12 12:31:35,"572",53.3281517,5.932354927,29.2,false,false,false,256.55,256.55,0,"407","1","77","291","133","134",1.93,"100931",49.99,  4.21 m/s,188°
695256.502271069,5912778.7007945,2022/12/12 12:31:36,"573",53.32814026,5.932278633,29.18,false,false,false,256.59,256.59,0,"405","0","77","291","133","135",1.9,"100935",49.99,  4.21 m/s,188°
695251.648290292,5912777.65145018,2022/12/12 12:31:37,"574",53.32813263,5.9322052,29.17,false,false,false,256.63,256.63,0,"405","0","76","291","132","135",1.89,"100934",49.99,  4.21 m/s,188°
695246.81171307,5912776.17841515,2022/12/12 12:31:38,"575",53.32812119,5.932131767,29.16,false,false,false,256.5,256.5,0,"407","1","76","291","132","135",1.87,"100937",49.99,  4.21 m/s,188°
695241.9894847,5912775.13038535,2022/12/12 12:31:39,"576",53.32811356,5.932058811,29.13,false,false,false,256.61,256.61,0,"413","1","77","292","132","135",1.85,"100939",49.99,  4.21 m/s,188°
695237.152948166,5912773.65624821,2022/12/12 12:31:40,"577",53.32810211,5.931985378,29.12,false,false,false,256.58,256.58,0,"409","1","77","291","132","135",1.84,"100934",49.99,  4.21 m/s,188°
695232.330715691,5912772.60822832,2022/12/12 12:31:41,"578",53.32809448,5.931912422,29.08,false,false,false,256.67,256.67,0,"405","0","76","292","132","135",1.83,"100939",49.99,  4.21 m/s,188°
695227.462371927,5912771.13390876,2022/12/12 12:31:42,"579",53.32808304,5.931838512,29.08,false,false,false,256.5,256.5,0,"405","0","77","292","132","134",1.82,"100933",49.99,  4.21 m/s,188°
695222.625894242,5912769.65978932,2022/12/12 12:31:43,"580",53.32807159,5.93176508,29.1,false,false,false,256.55,256.55,0,"400","0","76","291","132","135",1.8,"100938",49.99,  4.21 m/s,188°
695217.771898813,5912768.61047998,2022/12/12 12:31:44,"581",53.32806396,5.931691647,29.09,false,false,false,256.7,256.7,0,"409","1","76","292","132","135",1.78,"100937",49.99,  4.21 m/s,188°
695212.935303872,5912767.13747985,2022/12/12 12:31:45,"582",53.32805252,5.931618214,29.06,false,false,false,256.7,256.7,0,"409","1","76","291","132","135",1.76,"100937",49.99,  4.21 m/s,188°
695208.113060905,5912766.08948479,2022/12/12 12:31:46,"583",53.32804489,5.931545258,29.03,false,false,false,256.62,256.62,0,"405","0","75","292","132","135",1.76,"100937",49.99,  4.21 m/s,188°
695203.244704376,5912764.61519036,2022/12/12 12:31:47,"584",53.32803345,5.931471348,29.03,false,false,false,256.49,256.49,0,"405","0","76","291","132","135",1.74,"100939",49.99,  4.21 m/s,188°
695198.454213901,5912763.56850947,2022/12/12 12:31:48,"585",53.32802582,5.931398869,29.04,false,false,false,256.52,256.52,0,"400","0","76","292","132","135",1.72,"100935",49.99,  4.21 m/s,188°
695193.585898035,5912762.09311299,2022/12/12 12:31:49,"586",53.32801437,5.931324959,29.01,false,false,false,256.55,256.55,0,"407","1","75","292","131","135",1.71,"100940",49.99,  4.12 m/s,191°
695188.749290377,5912760.62013779,2022/12/12 12:31:50,"587",53.32800293,5.931251526,28.99,false,false,false,256.54,256.54,0,"413","1","76","292","131","134",1.7,"100937",49.99,  4.12 m/s,191°
695183.958793551,5912759.57347167,2022/12/12 12:31:51,"588",53.3279953,5.931179047,29,false,false,false,256.21,256.21,0,"405","0","76","292","131","135",1.69,"100939",49.99,  4.12 m/s,191°
695179.707957934,5912758.54897198,2022/12/12 12:31:51,"589",53.32798767,5.931114674,28.97,false,false,false,265.83,265.83,0,"407","1","75","292","130","134",1.68,"100940",49.99,  4.12 m/s,191°
695175.289076818,5912760.06737919,2022/12/12 12:31:53,"590",53.32800293,5.931049347,28.92,false,false,false,300.64,300.64,0,"407","1","75","292","131","134",1.69,"100952",49.99,  4.12 m/s,191°
695172.433925036,5912763.77428261,2022/12/12 12:31:54,"591",53.32803726,5.931008816,28.85,false,false,false,336.21,336.21,0,"416","2","75","291","130","135",1.72,"100961",49.99,  4.20 m/s,190°
695171.226433679,5912768.39878118,2022/12/12 12:31:55,"592",53.32807922,5.930993557,28.89,false,false,false,348.21,348.21,0,"432","4","75","292","130","134",1.76,"100969",49.99,  4.20 m/s,190°
695171.383963489,5912773.08044697,2022/12/12 12:31:56,"593",53.32812119,5.930998802,28.93,false,false,false,11.91,11.91,0,"423","3","76","291","130","134",1.84,"100967",49.99,  4.20 m/s,190°
695174.066947583,5912777.43918092,2022/12/12 12:31:57,"594",53.32815933,5.931041718,28.92,false,false,false,46.52,46.52,0,"432","4","75","291","131","135",1.89,"100968",49.99,  4.20 m/s,190°
695178.251166046,5912779.31087558,2022/12/12 12:31:57,"595",53.32817459,5.931105614,28.94,false,false,false,72.92,72.92,0,"433","5","76","291","131","134",1.94,"100972",49.99,  4.20 m/s,190°
695182.628942303,5912780.34058819,2022/12/12 12:31:59,"596",53.32818222,5.931171894,29.04,false,false,false,76.74,76.74,0,"436","5","76","292","130","135",1.97,"100971",49.99,  4.16 m/s,190°
695187.387728102,5912781.38595203,2022/12/12 12:32:00,"597",53.32818985,5.931243897,29.1,false,false,false,77.09,77.09,0,"448","7","77","292","130","135",1.99,"100970",49.99,  4.16 m/s,190°
695192.463877117,5912782.44435441,2022/12/12 12:32:01,"598",53.32819748,5.931320667,29.11,false,false,false,77.19,77.19,0,"439","5","77","292","130","134",2.05,"100969",49.99,  4.16 m/s,190°
695197.554446189,5912783.92776504,2022/12/12 12:32:02,"599",53.32820892,5.931397915,29.11,false,false,false,77.3,77.3,0,"444","6","76","292","130","135",2.08,"100968",49.99,  4.16 m/s,190°
695202.471941732,5912784.97966255,2022/12/12 12:32:03,"600",53.32821655,5.931472302,29.11,false,false,false,77.21,77.21,0,"447","7","76","292","130","135",2.13,"100966",49.99,  4.16 m/s,190°
695207.167140234,5912786.02243513,2022/12/12 12:32:04,"601",53.32822418,5.93154335,29.1,false,false,false,77.28,77.28,0,"448","7","76","292","129","135",2.17,"100965",49.99,  4.02 m/s,187°
695212.19414324,5912787.5043651,2022/12/12 12:32:05,"602",53.32823563,5.931619644,29.14,false,false,false,77.26,77.26,0,"466","10","77","292","130","135",2.22,"100968",49.99,  4.02 m/s,187°
695217.062473492,5912788.97866933,2022/12/12 12:32:06,"603",53.32824707,5.931693554,29.19,false,false,false,77.28,77.28,0,"447","7","76","292","129","135",2.26,"100964",49.99,  4.02 m/s,187°
695221.916447839,5912790.02797844,2022/12/12 12:32:07,"604",53.3282547,5.931766987,29.24,false,false,false,77.32,77.32,0,"447","7","77","292","130","135",2.31,"100964",49.99,  4.02 m/s,187°
695226.516435541,5912791.06685991,2022/12/12 12:32:08,"605",53.32826233,5.931836605,29.26,false,false,false,77.23,77.23,0,"447","7","77","292","129","135",2.33,"100966",49.99,  4.02 m/s,187°
695231.575230455,5912792.54900299,2022/12/12 12:32:08,"606",53.32827377,5.931913376,29.24,false,false,false,77.3,77.3,0,"452","7","76","292","130","134",2.37,"100963",49.99,  4.02 m/s,187°
695236.411748586,5912794.02313489,2022/12/12 12:32:10,"607",53.32828522,5.931986809,29.27,false,false,false,77.19,77.19,0,"463","7","77","292","129","135",2.41,"100966",49.99,  4.10 m/s,188°
695241.170445497,5912795.06855041,2022/12/12 12:32:11,"608",53.32829285,5.932058811,29.31,false,false,false,77.24,77.24,0,"452","7","77","291","130","135",2.43,"100963",49.99,  4.10 m/s,188°
695246.007004334,5912796.54158013,2022/12/12 12:32:12,"609",53.32830429,5.932132244,29.34,false,false,false,77.15,77.15,0,"463","9","77","292","129","135",2.47,"100964",49.99,  4.10 m/s,188°
695250.987925286,5912797.59613473,2022/12/12 12:32:12,"610",53.32831192,5.932207584,29.35,false,false,false,77.19,77.19,0,"459","8","77","292","129","135",2.52,"100963",49.99,  4.10 m/s,188°
695255.824479085,5912799.06917458,2022/12/12 12:32:14,"611",53.32832336,5.932281017,29.39,false,false,false,77.31,77.31,0,"456","8","77","292","129","135",2.57,"100965",49.99,  4.23 m/s,192°
695260.583234407,5912800.11461247,2022/12/12 12:32:15,"612",53.32833099,5.93235302,29.43,false,false,false,77.25,77.25,0.01,"452","7","77","291","129","135",2.61,"100965",49.99,  4.23 m/s,192°
695265.514940042,5912801.59268558,2022/12/12 12:32:16,"613",53.32834244,5.932427883,29.45,false,false,false,77.16,77.16,0.01,"456","8","77","291","129","134",2.63,"100964",49.99,  4.23 m/s,192°
695270.319729768,5912803.06443568,2022/12/12 12:32:17,"614",53.32835388,5.932500839,29.47,false,false,false,77.27,77.27,0.01,"459","8","77","291","128","135",2.66,"100964",49.99,  4.23 m/s,192°
695275.205437557,5912804.11510451,2022/12/12 12:32:18,"615",53.32836151,5.932574749,29.5,false,false,false,77.31,77.31,0.01,"459","8","77","292","129","134",2.68,"100962",49.99,  4.23 m/s,192°
695279.946663939,5912805.58536702,2022/12/12 12:32:19,"616",53.32837296,5.932646751,29.5,false,false,false,77.24,77.24,0.01,"456","8","77","291","129","134",2.69,"100961",49.99,  3.87 m/s,194°
695284.927682273,5912806.63884824,2022/12/12 12:32:20,"617",53.32838058,5.932722092,29.52,false,false,false,77.07,77.07,0.01,"456","8","77","292","128","135",2.73,"100964",49.99,  3.87 m/s,194°
695289.764172642,5912808.11303512,2022/12/12 12:32:21,"618",53.32839203,5.932795525,29.55,false,false,false,77.27,77.27,0.01,"456","8","76","292","128","134",2.77,"100964",49.99,  3.87 m/s,194°
695294.618115825,5912809.16241927,2022/12/12 12:32:22,"619",53.32839966,5.932868958,29.56,false,false,false,77.2,77.2,0,"463","9","76","292","128","135",2.79,"100965",49.99,  3.87 m/s,194°
695299.518092915,5912810.63811116,2022/12/12 12:32:23,"620",53.3284111,5.932943344,29.55,false,false,false,77.3,77.3,0,"466","10","77","291","128","134",2.81,"100960",49.99,  3.87 m/s,194°
695304.308519368,5912811.68489548,2022/12/12 12:32:24,"621",53.32841873,5.933015823,29.55,false,false,false,77.27,77.27,0,"456","8","77","291","129","135",2.82,"100959",49.99,  3.66 m/s,194°
695309.176756014,5912813.16040731,2022/12/12 12:32:25,"622",53.32843018,5.933089733,29.6,false,false,false,77.39,77.39,0,"456","8","77","292","128","135",2.84,"100958",49.99,  3.66 m/s,194°
695313.840219829,5912814.20198415,2022/12/12 12:32:26,"623",53.32843781,5.933160305,29.64,false,false,false,77.41,77.41,0,"456","8","77","292","128","135",2.83,"100954",49.99,  3.66 m/s,194°
695318.803699442,5912815.6803062,2022/12/12 12:32:27,"624",53.32844925,5.933235645,29.64,false,false,false,77.33,77.33,0,"459","8","77","292","128","136",2.84,"100954",49.99,  3.66 m/s,194°
695323.640217785,5912817.15341593,2022/12/12 12:32:28,"625",53.32846069,5.933309078,29.67,false,false,false,77.31,77.31,0,"466","10","77","292","128","135",2.83,"100954",49.99,  3.66 m/s,194°
695328.55765883,5912818.20544526,2022/12/12 12:32:29,"626",53.32846832,5.933383465,29.72,false,false,false,77.43,77.43,0,"456","8","77","292","127","135",2.84,"100960",49.99,  3.79 m/s,190°
695333.267101459,5912819.67445654,2022/12/12 12:32:30,"627",53.32847977,5.93345499,29.75,false,false,false,77.18,77.18,0,"456","8","77","292","127","136",2.84,"100956",49.99,  3.79 m/s,190°
695338.18453836,5912820.72649593,2022/12/12 12:32:31,"628",53.3284874,5.933529377,29.76,false,false,false,77.05,77.05,0,"452","7","77","292","127","135",2.84,"100957",49.99,  3.79 m/s,190°
695343.021046698,5912822.19962563,2022/12/12 12:32:32,"629",53.32849884,5.93360281,29.76,false,false,false,77.24,77.24,0,"452","7","77","293","128","135",2.84,"100955",49.99,  3.79 m/s,190°
695347.874966979,5912823.24906474,2022/12/12 12:32:33,"630",53.32850647,5.933676243,29.79,false,false,false,77.3,77.3,0,"470","10","77","293","128","135",2.83,"100951",49.99,  3.79 m/s,190°
695352.552755807,5912824.7156808,2022/12/12 12:32:34,"631",53.32851791,5.933747292,29.84,false,false,false,77.38,77.38,0,"452","7","78","293","128","135",2.83,"100954",49.99,  2.34 m/s,198°
695357.547925221,5912826.19646116,2022/12/12 12:32:34,"632",53.32852936,5.933823109,29.87,false,false,false,77.31,77.31,0,"456","8","77","293","128","136",2.83,"100955",49.99,  2.34 m/s,198°
695362.370082893,5912827.24460993,2022/12/12 12:32:36,"633",53.32853699,5.933896065,29.88,false,false,false,77.57,77.57,0,"456","8","77","293","127","135",2.83,"100951",49.99,  2.34 m/s,198°
695367.14306613,5912828.71515381,2022/12/12 12:32:37,"634",53.32854843,5.933968544,29.88,false,false,false,77,77,0,"456","8","77","292","127","135",2.84,"100955",49.99,  2.34 m/s,198°
695371.965219712,5912829.76331242,2022/12/12 12:32:38,"635",53.32855606,5.9340415,29.92,false,false,false,77.16,77.16,0,"466","10","77","292","127","136",2.85,"100954",49.99,  2.34 m/s,198°
695376.896978889,5912831.24039324,2022/12/12 12:32:38,"636",53.3285675,5.934116364,29.94,false,false,false,77.15,77.15,0,"452","7","77","292","126","135",2.87,"100957",49.99,  2.34 m/s,198°
695381.733354497,5912832.71467216,2022/12/12 12:32:40,"637",53.32857895,5.934189796,29.97,false,false,false,77.23,77.23,0,"452","7","77","291","127","135",2.87,"100958",49.99,  2.34 m/s,198°
695386.492055936,5912833.76023747,2022/12/12 12:32:41,"638",53.32858658,5.934261799,30.01,false,false,false,77.14,77.14,0,"456","8","77","292","126","135",2.88,"100952",49.99,  2.34 m/s,198°
695391.423740741,5912835.23733082,2022/12/12 12:32:42,"639",53.32859802,5.934336662,30.03,false,false,false,77.27,77.27,0,"456","8","77","291","126","135",2.92,"100955",49.99,  2.34 m/s,198°
695396.309396109,5912836.28812545,2022/12/12 12:32:43,"640",53.32860565,5.934410572,30.03,false,false,false,77.31,77.31,0,"470","10","76","292","126","135",2.95,"100957",49.99,  2.34 m/s,198°
695401.050626437,5912837.75851306,2022/12/12 12:32:44,"641",53.3286171,5.934482575,30.05,false,false,false,77.22,77.22,0,"459","8","76","291","126","135",2.94,"100952",49.99,  2.34 m/s,198°
695406.031479494,5912838.81323185,2022/12/12 12:32:45,"642",53.32862473,5.934557915,30.09,false,false,false,77.32,77.32,0,"456","8","77","291","126","136",2.96,"100955",49.99,  2.34 m/s,198°
695410.836196245,5912840.28512581,2022/12/12 12:32:46,"643",53.32863617,5.934630871,30.11,false,false,false,77.57,77.57,0,"459","8","76","292","127","136",2.97,"100949",49.99,  2.34 m/s,198°
695415.658331095,5912841.33332921,2022/12/12 12:32:47,"644",53.3286438,5.934703827,30.14,false,false,false,76.98,76.98,0,"459","8","76","292","126","136",2.98,"100953",49.99,  2.34 m/s,198°
695420.431286771,5912842.8039273,2022/12/12 12:32:48,"645",53.32865524,5.934776306,30.16,false,false,false,77.22,77.22,0,"470","10","76","292","126","136",2.99,"100952",49.99,  2.34 m/s,198°
695425.331218425,5912844.28086534,2022/12/12 12:32:48,"646",53.32866669,5.934850693,30.15,false,false,false,77.13,77.13,0,"459","8","77","292","126","136",3,"100954",49.99,  2.34 m/s,198°
695430.153346898,5912845.32908362,2022/12/12 12:32:50,"647",53.32867432,5.934923649,30.16,false,false,false,77.72,77.72,0,"459","8","77","292","126","136",3.01,"100947",49.99,  2.34 m/s,198°
695434.989807071,5912846.8023081,2022/12/12 12:32:51,"648",53.32868576,5.934997082,30.21,false,false,false,77.73,77.73,0,"459","8","77","292","126","135",2.99,"100945",49.99,  2.34 m/s,198°
695439.875443592,5912847.85314799,2022/12/12 12:32:52,"649",53.32869339,5.935070992,30.25,false,false,false,77.63,77.63,0,"456","8","76","292","126","136",2.96,"100936",49.99,  2.34 m/s,198°
695444.648386622,5912849.32377071,2022/12/12 12:32:53,"650",53.32870483,5.935143471,30.28,false,false,false,77.22,77.22,0,"463","9","77","292","125","136",2.94,"100940",49.99,  2.34 m/s,198°
695449.343549223,5912850.36678784,2022/12/12 12:32:54,"651",53.32871246,5.93521452,30.29,false,false,false,77.32,77.32,0,"452","7","76","292","125","135",2.91,"100941",49.99,  2.35 m/s,200°
695454.338667393,5912851.84767119,2022/12/12 12:32:54,"652",53.32872391,5.935290337,30.3,false,false,false,77.48,77.48,0,"448","7","76","292","126","136",2.9,"100941",49.99,  2.35 m/s,200°
695458.58937447,5912852.87241968,2022/12/12 12:32:56,"653",53.32873154,5.93535471,30.3,false,false,false,72.48,72.48,0,"448","7","76","293","125","135",2.89,"100946",49.99,  2.35 m/s,200°
695461.927472759,5912855.98392786,2022/12/12 12:32:57,"654",53.32875824,5.935406685,30.43,false,false,false,42.14,42.14,0,"456","8","77","293","125","136",2.92,"100947",49.99,  2.35 m/s,200°
695463.291080051,5912860.71411024,2022/12/12 12:32:58,"655",53.3288002,5.93543005,30.57,false,false,false,4.94,4.94,0,"466","10","76","293","125","136",2.94,"100942",49.99,  2.35 m/s,200°
695462.400809784,5912865.35159866,2022/12/12 12:32:59,"656",53.32884216,5.93541956,30.66,false,false,false,346.91,346.91,0,"463","9","77","292","125","136",2.94,"100942",49.99,  2.45 m/s,201°
695460.592979081,5912869.10252728,2022/12/12 12:33:00,"657",53.3288765,5.935394764,30.74,false,false,false,331.96,331.96,0,"456","8","77","292","125","135",2.92,"100937",49.99,  2.45 m/s,201°
695456.978914622,5912871.92812202,2022/12/12 12:33:01,"658",53.3289032,5.935342312,30.86,false,false,false,299.38,299.38,0,"452","7","77","292","125","135",2.91,"100928",49.99,  2.45 m/s,201°
695452.848905041,5912872.60821334,2022/12/12 12:33:02,"659",53.32891083,5.9352808,30.85,false,false,false,270.24,270.24,0,"447","7","77","293","125","135",2.87,"100925",49.99,  2.45 m/s,201°
