X,Y,TimeStamp (UTC),"""TriggerID""","""Latitude""","""Longitude""","""Altitude (Meter AGL)""",Gimbal Roll,"""Gimbal Pitch""","""Gimbal Yaw""","""Drone Yaw""","""Combined Yaw""",HCHO (ppm),CO2 (ppm),TVOC (ppb),NO2 (ppm),C2H5OH (ppm),VOC (ppm),CO (ppm),Temp (Celcius),Pressure (pa),Altitude (meter),wind_speed,wind_direction
695392.851781522,5912757.95844607,2022/12/21 11:34:28,"1",53.32790375,5.934310436,0.87,false,false,false,348.57,348.57,0.01,"416","2","153","306","268","146",9.85,"100864",58.34,  9.45 m/s,210°
695392.851781522,5912757.95844607,2022/12/21 11:34:30,"2",53.32790375,5.934310436,1.22,false,false,false,348.44,348.44,0.01,"413","1","151","307","267","146",9.82,"100854",58.34,  9.45 m/s,210°
695392.851781522,5912757.95844607,2022/12/21 11:34:31,"3",53.32790375,5.934310436,3.09,false,false,false,348.7,348.7,0.01,"402","0","152","307","267","146",9.78,"100838",58.34,  9.45 m/s,210°
695392.851781522,5912757.95844607,2022/12/21 11:34:32,"4",53.32790375,5.934310436,6.24,false,false,false,348.27,348.27,0.01,"400","0","150","306","267","146",9.74,"100799",66.7,  9.45 m/s,210°
695392.78833476,5912757.95583775,2022/12/21 11:34:33,"5",53.32790375,5.934309483,9.12,false,false,false,348.68,348.68,0.01,"400","0","149","301","266","145",9.69,"100770",66.7,  9.45 m/s,210°
695392.820024854,5912757.95714054,2022/12/21 11:34:33,"6",53.32790375,5.934309959,9.92,false,false,false,344.02,344.02,0.01,"409","1","149","307","266","146",9.65,"100744",66.7,  9.45 m/s,210°
695392.91529486,5912757.96105713,2022/12/21 11:34:35,"7",53.32790375,5.93431139,9.78,false,false,false,338.07,338.07,0.01,"409","1","148","306","264","145",9.66,"100736",66.7,  9.45 m/s,210°
695392.658182474,5912758.80042418,2022/12/21 11:34:36,"8",53.32791138,5.934308052,9.69,false,false,false,338.77,338.77,0.01,"400","0","147","305","264","145",9.65,"100733",66.7,  9.45 m/s,210°
695391.505899164,5912761.3028646,2022/12/21 11:34:37,"9",53.32793427,5.934292316,9.59,false,false,false,338.23,338.23,0.01,"406","0","147","305","264","145",9.59,"100748",66.7,  9.45 m/s,210°
695389.856923938,5912765.05923484,2022/12/21 11:34:38,"10",53.3279686,5.934269905,9.55,false,false,false,338.15,338.15,0.01,"409","1","146","305","263","145",9.56,"100755",66.7,  9.45 m/s,210°
695388.063506717,5912769.2340791,2022/12/21 11:34:39,"11",53.32800674,5.934245586,9.55,false,false,false,338.18,338.18,0.01,"413","1","146","305","262","145",9.54,"100754",66.7,  9.45 m/s,210°
695385.949489385,5912774.24679519,2022/12/21 11:34:40,"12",53.32805252,5.934216976,9.54,false,false,false,338.24,338.24,0.01,"428","4","146","306","263","145",9.52,"100759",66.7,  9.45 m/s,210°
695383.867232524,5912779.26081762,2022/12/21 11:34:41,"13",53.3280983,5.934188843,9.53,false,false,false,338.47,338.47,0.01,"415","2","147","306","262","146",9.52,"100756",66.7,  9.45 m/s,210°
695381.834132634,5912783.85133605,2022/12/21 11:34:42,"14",53.32814026,5.934161186,9.52,false,false,false,338.36,338.36,0.01,"413","1","147","306","262","145",9.51,"100761",66.7,  9.45 m/s,210°
695379.769346358,5912788.44055257,2022/12/21 11:34:43,"15",53.32818222,5.934133053,9.51,false,false,false,338.36,338.36,0.01,"413","1","147","306","261","145",9.49,"100752",66.7,  9.45 m/s,210°
695378.007655556,5912792.61781785,2022/12/21 11:34:43,"16",53.32822037,5.934109211,9.52,false,false,false,337.58,337.58,0.01,"413","1","147","306","261","145",9.51,"100756",66.7,  9.45 m/s,210°
695377.302966687,5912794.28872358,2022/12/21 11:34:45,"17",53.32823563,5.934099674,9.5,false,false,false,335.5,335.5,0.01,"418","2","147","306","261","145",9.51,"100749",66.7,  9.45 m/s,210°
695377.479145077,5912793.87044042,2022/12/21 11:34:45,"18",53.32823181,5.934102058,9.51,false,false,false,256.49,256.49,0.01,"413","1","145","306","261","145",9.54,"100747",66.7,  9.45 m/s,210°
695377.877572785,5912793.46240737,2022/12/21 11:34:47,"19",53.328228,5.934107781,9.52,false,false,false,253.46,253.46,0.01,"409","1","145","305","260","146",9.43,"100729",66.7,  9.45 m/s,210°
695377.245767414,5912792.5864984,2022/12/21 11:34:48,"20",53.32822037,5.934097767,9.49,false,false,false,254.33,254.33,0.01,"400","0","144","305","260","144",9.31,"100725",66.7,  9.45 m/s,210°
695375.185454557,5912791.65186744,2022/12/21 11:34:49,"21",53.32821274,5.934066296,9.47,false,false,false,253.82,253.82,0.01,"400","0","143","305","259","144",9.18,"100721",66.7,  9.45 m/s,210°
695372.204470266,5912790.67939175,2022/12/21 11:34:50,"22",53.32820511,5.934020996,9.45,false,false,false,253.36,253.36,0.01,"408","1","141","305","258","144",9.03,"100720",66.7,  9.45 m/s,210°
695368.82831274,5912789.2651487,2022/12/21 11:34:51,"23",53.32819366,5.933969498,9.4,false,false,false,253.44,253.44,0.01,"403","0","141","304","258","144",8.88,"100716",66.7,  9.45 m/s,210°
695364.95843209,5912788.25725298,2022/12/21 11:34:52,"24",53.32818604,5.933910847,9.37,false,false,false,253.3,253.3,0.01,"405","0","140","305","258","144",8.71,"100715",66.7,  9.45 m/s,210°
695360.62984312,5912786.80386646,2022/12/21 11:34:53,"25",53.32817459,5.933845043,9.34,false,false,false,253.46,253.46,0.01,"400","0","138","305","257","144",8.56,"100712",66.7,  9.45 m/s,210°
695355.937788841,5912784.91113313,2022/12/21 11:34:54,"26",53.32815933,5.933773518,9.29,false,false,false,253.17,253.17,0.01,"400","0","139","304","256","144",8.42,"100717",66.7,  9.45 m/s,210°
695351.005975169,5912783.43407537,2022/12/21 11:34:55,"27",53.32814789,5.933698654,9.27,false,false,false,253.1,253.1,0.01,"408","1","138","305","256","144",8.31,"100711",66.7,  9.45 m/s,210°
695346.186888208,5912781.53613082,2022/12/21 11:34:56,"28",53.32813263,5.933625221,9.24,false,false,false,252.83,252.83,0.01,"416","2","137","305","256","143",8.18,"100717",66.7,  9.45 m/s,210°
695341.286891653,5912780.06039124,2022/12/21 11:34:56,"29",53.32812119,5.933550835,9.18,false,false,false,253.19,253.19,0.01,"405","0","137","305","255","143",8.08,"100721",66.7,  9.45 m/s,210°
695336.499554431,5912778.16376187,2022/12/21 11:34:58,"30",53.32810593,5.933477879,9.18,false,false,false,253.29,253.29,0.01,"400","0","137","306","255","143",8.02,"100721",66.7,  9.45 m/s,210°
695331.758247168,5912776.69344051,2022/12/21 11:34:59,"31",53.32809448,5.933405876,9.13,false,false,false,254.03,254.03,0.01,"405","0","136","306","254","143",7.92,"100731",66.7,  9.45 m/s,210°
695326.840829449,5912775.64141161,2022/12/21 11:35:00,"32",53.32808685,5.93333149,9.04,false,false,false,255.01,255.01,0.01,"408","1","135","305","254","143",7.84,"100731",66.7,  9.45 m/s,210°
695322.099471536,5912774.17221207,2022/12/21 11:35:01,"33",53.32807541,5.933259487,8.99,false,false,false,255.47,255.47,0.01,"416","2","135","305","253","143",7.77,"100727",66.7,  9.45 m/s,210°
695317.199507012,5912772.6953856,2022/12/21 11:35:02,"34",53.32806396,5.933185101,8.93,false,false,false,256.13,256.13,0.01,"402","0","135","306","253","142",7.69,"100723",66.7,  9.45 m/s,210°
695312.440686807,5912771.65100349,2022/12/21 11:35:03,"35",53.32805634,5.933113098,8.87,false,false,false,256.83,256.83,0.01,"400","0","134","305","252","143",7.6,"100729",66.7,  9.45 m/s,210°
695307.635920405,5912770.17809925,2022/12/21 11:35:03,"36",53.32804489,5.933040142,8.83,false,false,false,257.37,257.37,0.01,"403","0","133","305","252","143",7.54,"100723",66.7,  9.45 m/s,210°
695303.321600822,5912769.15087832,2022/12/21 11:35:05,"37",53.32803726,5.932974815,8.83,false,false,false,256.31,256.31,0.01,"400","0","132","305","252","143",7.49,"100726",66.7,  9.45 m/s,210°
695300.372413381,5912768.179756,2022/12/21 11:35:06,"38",53.32802963,5.932929993,8.75,false,false,false,246.26,246.26,0.01,"414","2","132","305","251","142",7.47,"100732",66.7,  9.45 m/s,210°
695297.158000647,5912765.92339037,2022/12/21 11:35:07,"39",53.32801056,5.932880402,8.74,false,false,false,241.7,241.7,0.01,"406","0","132","305","251","142",7.45,"100733",66.7,  9.45 m/s,210°
695294.032617556,5912765.36944324,2022/12/21 11:35:08,"40",53.32800674,5.932833195,8.76,false,false,false,304.62,304.62,0.01,"406","0","133","306","251","143",7.41,"100752",66.7,  9.45 m/s,210°
695293.324847786,5912767.890169,2022/12/21 11:35:09,"41",53.32802963,5.932824135,8.55,false,false,false,3.84,3.84,0.01,"414","2","133","306","250","142",7.49,"100762",66.7,  9.45 m/s,210°
695295.14239187,5912770.09024839,2022/12/21 11:35:10,"42",53.32804871,5.932852745,8.56,false,false,false,72.92,72.92,0.01,"422","3","132","306","250","143",7.56,"100794",66.7,  9.45 m/s,210°
695297.664642324,5912770.61829942,2022/12/21 11:35:11,"43",53.32805252,5.932890892,8.61,false,false,false,91.18,91.18,0.01,"435","5","133","306","249","143",7.62,"100789",66.7,  9.45 m/s,210°
695300.729617969,5912770.31983095,2022/12/21 11:35:12,"44",53.32804871,5.932936668,8.69,false,false,false,90.33,90.33,0.01,"439","5","132","306","249","142",7.67,"100791",66.7,  9.45 m/s,210°
695304.331258342,5912770.89223912,2022/12/21 11:35:13,"45",53.32805252,5.932991028,8.75,false,false,false,75.23,75.23,0.01,"435","5","132","306","249","142",7.72,"100784",66.7,  9.45 m/s,210°
695307.66145558,5912771.87902075,2022/12/21 11:35:14,"46",53.32806015,5.933041573,8.77,false,false,false,73,73,0.01,"439","5","131","307","249","142",7.78,"100784",66.7,  9.45 m/s,210°
695311.672618361,5912773.31819914,2022/12/21 11:35:15,"47",53.32807159,5.933102608,8.83,false,false,false,73.62,73.62,0.01,"443","6","132","307","248","143",7.82,"100786",66.7,  9.45 m/s,210°
695316.15988164,5912774.77806009,2022/12/21 11:35:16,"48",53.32808304,5.933170795,8.86,false,false,false,73.39,73.39,0.01,"450","7","131","307","248","142",7.88,"100788",66.7,  9.45 m/s,210°
695321.123469558,5912776.25638631,2022/12/21 11:35:17,"49",53.32809448,5.933246136,8.92,false,false,false,73.47,73.47,0.01,"454","8","131","306","247","142",7.92,"100785",66.7,  9.45 m/s,210°
695325.910813898,5912778.15300002,2022/12/21 11:35:18,"50",53.32810974,5.933319092,8.98,false,false,false,73.24,73.24,0.01,"443","6","131","306","248","143",7.94,"100783",66.7,  9.45 m/s,210°
695330.556851549,5912779.61940019,2022/12/21 11:35:19,"51",53.32812119,5.933389664,9.02,false,false,false,73.49,73.49,0.01,"445","6","130","306","247","142",7.98,"100783",66.7,  9.45 m/s,210°
695335.48860769,5912781.09643378,2022/12/21 11:35:20,"52",53.32813263,5.933464527,9.08,false,false,false,73.64,73.64,0.01,"450","7","130","307","247","143",7.99,"100783",66.7,  9.45 m/s,210°
695340.402968159,5912782.99828293,2022/12/21 11:35:21,"53",53.32814789,5.933539391,9.13,false,false,false,73.66,73.66,0.01,"450","7","130","306","246","142",8.03,"100779",66.7,  9.45 m/s,210°
695345.144245969,5912784.46749832,2022/12/21 11:35:21,"54",53.32815933,5.933611393,9.19,false,false,false,73.67,73.67,0.01,"459","8","130","307","246","142",8.05,"100779",66.7,  9.45 m/s,210°
695349.948988357,5912785.94044107,2022/12/21 11:35:21,"55",53.32817078,5.933684349,9.25,false,false,false,73.58,73.58,0.01,"450","7","129","306","245","142",8.08,"100778",66.7,  9.45 m/s,210°
695354.577597227,5912787.83056063,2022/12/21 11:35:24,"56",53.32818604,5.933754921,9.3,false,false,false,73.72,73.72,0.01,"450","7","129","306","245","142",8.1,"100780",66.7,  9.45 m/s,210°
695359.350623071,5912789.30109569,2022/12/21 11:35:25,"57",53.32819748,5.9338274,9.34,false,false,false,73.42,73.42,0.01,"445","6","129","306","244","142",8.11,"100781",66.7,  9.45 m/s,210°
695364.218915567,5912790.77555163,2022/12/21 11:35:26,"58",53.32820892,5.93390131,9.38,false,false,false,73.65,73.65,0.01,"445","6","128","306","244","142",8.14,"100781",66.7,  9.45 m/s,210°
695368.879271212,5912792.6669907,2022/12/21 11:35:27,"59",53.32822418,5.933972359,9.44,false,false,false,73.56,73.56,0.01,"459","8","128","307","244","142",8.15,"100777",66.7,  9.45 m/s,210°
695373.588730007,5912794.13604157,2022/12/21 11:35:27,"60",53.32823563,5.934043884,9.48,false,false,false,74.73,74.73,0.01,"455","8","127","306","243","141",8.17,"100772",66.7,  9.45 m/s,210°
695376.918899287,5912795.12287242,2022/12/21 11:35:27,"61",53.32824326,5.934094429,9.5,false,false,false,74.75,74.75,0.01,"454","8","127","306","242","141",8.2,"100773",66.7,  9.45 m/s,210°
695377.868135303,5912796.01183023,2022/12/21 11:35:30,"62",53.32825089,5.934109211,9.5,false,false,false,32.78,32.78,0.01,"454","8","127","305","242","142",8.23,"100766",66.7,  5.77 m/s,202°
695377.212666103,5912797.25923382,2022/12/21 11:35:31,"63",53.32826233,5.934100151,9.51,false,false,false,338.93,338.93,0.01,"443","6","127","306","242","142",8.24,"100740",66.7,  5.77 m/s,202°
695375.63971792,5912797.61898537,2022/12/21 11:35:32,"64",53.32826614,5.934076786,9.52,false,false,false,273.7,273.7,0.01,"454","8","127","306","242","142",8.28,"100731",66.7,  5.77 m/s,202°
695373.78417281,5912797.11829776,2022/12/21 11:35:33,"65",53.32826233,5.934048653,9.54,false,false,false,254.44,254.44,0.01,"450","7","127","307","241","142",8.18,"100730",66.7,  7.19 m/s,189°
695371.134962605,5912796.58387221,2022/12/21 11:35:34,"66",53.32825851,5.934008598,9.51,false,false,false,253.8,253.8,0.01,"439","5","127","307","241","142",8.07,"100719",66.7,  7.19 m/s,189°
695367.409576029,5912795.15638833,2022/12/21 11:35:34,"67",53.32824707,5.933951855,9.47,false,false,false,253.23,253.23,0.01,"443","6","126","307","241","142",8,"100730",66.7,  7.19 m/s,189°
695363.207974134,5912793.70933281,2022/12/21 11:35:34,"68",53.32823563,5.933887959,9.4,false,false,false,253.36,253.36,0.01,"424","3","126","306","241","142",7.9,"100722",66.7,  7.19 m/s,189°
695358.593715092,5912792.24420548,2022/12/21 11:35:37,"69",53.32822418,5.933817864,9.35,false,false,false,253.05,253.05,0.01,"418","2","126","307","240","143",7.81,"100721",66.7,  7.19 m/s,189°
695353.711127032,5912790.34364241,2022/12/21 11:35:38,"70",53.32820892,5.933743477,9.32,false,false,false,252.78,252.78,0.01,"415","2","126","306","241","143",7.72,"100724",66.7,  7.19 m/s,189°
695348.811075065,5912788.86789207,2022/12/21 11:35:39,"71",53.32819748,5.93366909,9.25,false,false,false,253.21,253.21,0.01,"415","2","126","307","240","141",7.64,"100719",66.7,  7.19 m/s,189°
695344.196761949,5912787.40389098,2022/12/21 11:35:40,"72",53.32818604,5.933598995,9.2,false,false,false,252.98,252.98,0.01,"418","2","126","307","240","142",7.57,"100730",66.7,  7.19 m/s,189°
695339.155448134,5912785.49681981,2022/12/21 11:35:41,"73",53.32817078,5.933522224,9.17,false,false,false,252.98,252.98,0,"415","2","125","307","240","142",7.51,"100722",66.7,  7.19 m/s,189°
695334.572931474,5912784.03302132,2022/12/21 11:35:42,"74",53.32815933,5.933452606,9.14,false,false,false,252.97,252.97,0,"410","1","125","308","240","142",7.45,"100724",66.7,  7.19 m/s,189°
695329.831650635,5912782.56381654,2022/12/21 11:35:43,"75",53.32814789,5.933380604,9.07,false,false,false,253.52,253.52,0,"406","0","125","306","239","142",7.38,"100720",66.7,  7.19 m/s,189°
695325.058656327,5912781.09219943,2022/12/21 11:35:44,"76",53.32813644,5.933308125,9.01,false,false,false,253.76,253.76,0,"403","0","123","305","238","141",7.32,"100719",66.7,  7.19 m/s,189°
695320.380816597,5912779.62561164,2022/12/21 11:35:45,"77",53.328125,5.933237076,8.97,false,false,false,253.63,253.63,0,"414","2","123","306","238","141",7.27,"100718",66.7,  7.19 m/s,189°
695315.339486328,5912777.71856613,2022/12/21 11:35:45,"78",53.32810974,5.933160305,8.92,false,false,false,253.58,253.58,0,"410","1","122","306","237","142",7.23,"100723",66.7,  7.19 m/s,189°
695310.693397338,5912776.25329303,2022/12/21 11:35:45,"79",53.3280983,5.933089733,8.88,false,false,false,253.5,253.5,0,"406","0","123","307","236","141",7.2,"100721",66.7,  7.19 m/s,189°
695305.874289395,5912774.35538988,2022/12/21 11:35:48,"80",53.32808304,5.9330163,8.83,false,false,false,253.18,253.18,0,"401","0","122","307","236","141",7.15,"100725",66.7,  7.19 m/s,189°
695301.101280756,5912772.88379717,2022/12/21 11:35:49,"81",53.32807159,5.932943821,8.78,false,false,false,252.73,252.73,0,"401","0","122","307","236","142",7.12,"100731",66.7,  7.19 m/s,189°
695296.359980299,5912771.41462627,2022/12/21 11:35:50,"82",53.32806015,5.932871819,8.75,false,false,false,252.4,252.4,0,"407","1","122","307","237","141",7.1,"100745",66.7,  7.19 m/s,189°
695291.509105916,5912769.51543304,2022/12/21 11:35:51,"83",53.32804489,5.932797909,8.7,false,false,false,252.64,252.64,0,"416","2","122","308","237","141",7.07,"100747",66.7,  7.19 m/s,189°
695286.767733084,5912768.04626912,2022/12/21 11:35:52,"84",53.32803345,5.932725906,8.66,false,false,false,252.34,252.34,0,"407","1","122","307","236","141",7.04,"100739",66.7,  7.19 m/s,189°
695283.564556066,5912767.06472148,2022/12/21 11:35:53,"85",53.32802582,5.932677269,8.65,false,false,false,252.82,252.82,0,"411","1","122","308","236","142",7.03,"100738",66.7,  7.93 m/s,193°
695282.358205041,5912767.01515562,2022/12/21 11:35:54,"86",53.32802582,5.932659149,8.57,false,false,false,294.63,294.63,0.01,"416","2","122","307","235","141",7.06,"100751",66.7,  7.93 m/s,193°
695282.066250125,5912768.7030316,2022/12/21 11:35:55,"87",53.32804108,5.932655811,8.54,false,false,false,344.5,344.5,0.01,"420","3","122","308","235","142",7.14,"100765",66.7,  7.93 m/s,193°
695283.107671795,5912770.44569251,2022/12/21 11:35:56,"88",53.32805634,5.932672501,8.59,false,false,false,58.82,58.82,0.01,"441","6","123","307","235","141",7.22,"100792",66.7,  7.93 m/s,193°
695284.836275141,5912770.94112776,2022/12/21 11:35:56,"89",53.32806015,5.932698727,8.62,false,false,false,72.53,72.53,0.01,"435","5","122","307","235","141",7.3,"100784",66.7,  7.93 m/s,193°
695287.626747141,5912771.90571901,2022/12/21 11:35:58,"90",53.32806778,5.932741165,8.65,false,false,false,73.27,73.27,0.01,"436","5","122","307","234","141",7.36,"100788",66.7,  7.23 m/s,200°
695291.083905997,5912772.89770555,2022/12/21 11:35:59,"91",53.32807541,5.932793617,8.68,false,false,false,73.43,73.43,0.01,"436","5","122","307","234","141",7.41,"100789",66.7,  7.23 m/s,200°
695295.239507872,5912773.91839373,2022/12/21 11:36:00,"92",53.32808304,5.93285656,8.72,false,false,false,73.54,73.54,0.01,"444","6","123","308","234","141",7.45,"100782",66.7,  7.23 m/s,200°
695299.836390644,5912775.80715436,2022/12/21 11:36:01,"93",53.3280983,5.932926655,8.78,false,false,false,73.39,73.39,0.01,"455","8","122","308","234","141",7.48,"100785",66.7,  7.23 m/s,200°
695304.736401801,5912777.28285084,2022/12/21 11:36:02,"94",53.32810974,5.933001041,8.85,false,false,false,73.22,73.22,0.01,"446","7","122","308","234","141",7.51,"100784",66.7,  7.23 m/s,200°
695309.636431078,5912778.75966723,2022/12/21 11:36:03,"95",53.32812119,5.933075428,8.88,false,false,false,73.49,73.49,0.01,"444","6","122","308","233","142",7.56,"100786",66.7,  7.23 m/s,200°
695314.48733534,5912780.65776728,2022/12/21 11:36:04,"96",53.32813644,5.933149338,8.94,false,false,false,73.34,73.34,0.01,"444","6","122","308","232","141",7.59,"100784",66.7,  7.23 m/s,200°
695319.196819687,5912782.12676363,2022/12/21 11:36:05,"97",53.32814789,5.933220863,9,false,false,false,73.54,73.54,0.01,"444","6","121","308","233","141",7.62,"100791",66.7,  7.23 m/s,200°
695324.111184471,5912784.02859581,2022/12/21 11:36:06,"98",53.32816315,5.933295727,9.04,false,false,false,73.88,73.88,0.01,"455","8","122","308","232","141",7.65,"100787",66.7,  7.23 m/s,200°
695328.915978155,5912785.50040509,2022/12/21 11:36:07,"99",53.32817459,5.933368683,9.09,false,false,false,73.73,73.73,0.01,"455","8","122","307","232","141",7.67,"100782",66.7,  7.23 m/s,200°
695333.657210501,5912786.97072108,2022/12/21 11:36:08,"100",53.32818604,5.933440685,9.14,false,false,false,73.63,73.63,0.01,"446","7","122","308","232","141",7.71,"100780",66.7,  7.23 m/s,200°
695338.398552459,5912788.43993253,2022/12/21 11:36:09,"101",53.32819748,5.933512688,9.19,false,false,false,73.45,73.45,0.01,"446","7","122","307","232","141",7.74,"100772",66.7,  7.23 m/s,200°
695343.01286596,5912789.90392798,2022/12/21 11:36:10,"102",53.32820892,5.933582783,9.24,false,false,false,73.45,73.45,0.01,"446","7","122","308","231","141",7.77,"100771",66.7,  7.23 m/s,200°
695347.92714791,5912791.80578245,2022/12/21 11:36:10,"103",53.32822418,5.933657646,9.29,false,false,false,73.73,73.73,0.01,"455","8","121","308","231","141",7.79,"100777",66.7,  7.23 m/s,200°
695352.763638417,5912793.28003348,2022/12/21 11:36:12,"104",53.32823563,5.933731079,9.31,false,false,false,73.75,73.75,0.01,"463","9","121","308","230","140",7.82,"100780",66.7,  7.23 m/s,200°
695357.600171911,5912794.75317743,2022/12/21 11:36:13,"105",53.32824707,5.933804512,9.38,false,false,false,73.85,73.85,0.01,"455","8","120","307","229","141",7.85,"100778",66.7,  7.63 m/s,196°
695362.355728357,5912796.64852331,2022/12/21 11:36:14,"106",53.32826233,5.933876991,9.43,false,false,false,73.53,73.53,0.01,"455","8","121","307","230","141",7.88,"100777",66.7,  7.63 m/s,196°
695367.033540581,5912798.11515308,2022/12/21 11:36:15,"107",53.32827377,5.93394804,9.48,false,false,false,73.69,73.69,0.01,"456","8","120","307","229","140",7.89,"100778",66.7,  7.63 m/s,196°
695371.679548074,5912799.58159419,2022/12/21 11:36:16,"108",53.32828522,5.934018612,9.54,false,false,false,74.48,74.48,0.01,"460","9","121","308","229","141",7.91,"100774",66.7,  7.63 m/s,196°
695374.946200982,5912800.56581295,2022/12/21 11:36:17,"109",53.32829285,5.934068203,9.55,false,false,false,74.7,74.7,0.01,"472","10","120","308","229","140",7.92,"100780",66.7,  7.63 m/s,196°
695376.08590783,5912801.46260019,2022/12/21 11:36:18,"110",53.32830048,5.934085846,9.56,false,false,false,38.49,38.49,0.01,"456","8","120","306","229","141",7.95,"100757",66.7,  7.51 m/s,196°
695375.43043971,5912802.71000402,2022/12/21 11:36:19,"111",53.32831192,5.934076786,9.59,false,false,false,341.29,341.29,0.01,"446","7","121","308","229","141",7.95,"100736",66.7,  7.51 m/s,196°
695373.681315642,5912803.48803939,2022/12/21 11:36:20,"112",53.32831955,5.934051037,9.6,false,false,false,273.69,273.69,0.01,"446","7","121","308","228","141",7.99,"100728",66.7,  7.51 m/s,196°
695371.889264591,5912802.98884849,2022/12/21 11:36:20,"113",53.32831573,5.934023857,9.61,false,false,false,254.75,254.75,0.01,"444","6","121","308","228","140",7.91,"100727",66.7,  7.51 m/s,196°
695369.193982136,5912802.02923243,2022/12/21 11:36:22,"114",53.32830811,5.933982849,9.56,false,false,false,253.53,253.53,0.01,"444","6","121","308","228","141",7.82,"100729",66.7,  7.51 m/s,196°
695365.673344888,5912801.03457752,2022/12/21 11:36:23,"115",53.32830048,5.933929443,9.53,false,false,false,253.81,253.81,0.01,"435","5","120","307","227","140",7.71,"100717",66.7,  6.95 m/s,189°
695361.630508993,5912799.59293526,2022/12/21 11:36:24,"116",53.32828903,5.933867931,9.48,false,false,false,253.64,253.64,0.01,"420","3","120","308","228","140",7.63,"100714",66.7,  6.95 m/s,189°
695357.174991709,5912798.13544787,2022/12/21 11:36:25,"117",53.32827759,5.933800221,9.43,false,false,false,253.34,253.34,0.01,"420","3","119","308","227","140",7.55,"100721",66.7,  6.95 m/s,189°
695352.038424772,5912796.22444675,2022/12/21 11:36:26,"118",53.32826233,5.933722019,9.41,false,false,false,252.85,252.85,0.01,"420","3","119","308","227","141",7.49,"100714",66.7,  6.95 m/s,189°
695347.170135044,5912794.75000323,2022/12/21 11:36:27,"119",53.32825089,5.933648109,9.36,false,false,false,253.13,253.13,0.01,"423","3","119","307","226","141",7.41,"100712",66.7,  6.95 m/s,189°
695342.39715756,5912793.27836829,2022/12/21 11:36:28,"120",53.32823944,5.93357563,9.3,false,false,false,253.21,253.21,0.01,"416","2","118","308","226","140",7.35,"100718",66.7,  6.95 m/s,189°
695337.578078085,5912791.3804323,2022/12/21 11:36:28,"121",53.32822418,5.933502197,9.24,false,false,false,253.31,253.31,0.01,"415","2","119","307","227","141",7.29,"100730",66.7,  6.95 m/s,189°
695332.678089863,5912789.9047014,2022/12/21 11:36:30,"122",53.32821274,5.933427811,9.19,false,false,false,253.27,253.27,0.01,"411","1","118","308","226","140",7.25,"100724",66.7,  6.95 m/s,189°
695327.936793712,5912788.4343836,2022/12/21 11:36:31,"123",53.32820129,5.933355808,9.15,false,false,false,253.69,253.69,0.01,"405","0","118","307","226","140",7.19,"100716",66.7,  6.95 m/s,189°
695323.212928026,5912786.54148978,2022/12/21 11:36:32,"124",53.32818604,5.933283806,9.11,false,false,false,253.27,253.27,0.01,"411","1","117","307","225","140",7.13,"100720",66.7,  6.95 m/s,189°
695318.439936209,5912785.06987925,2022/12/21 11:36:33,"125",53.32817459,5.933211327,9.06,false,false,false,252.68,252.68,0.01,"420","3","117","308","225","140",7.11,"100727",66.7,  6.95 m/s,189°
695313.652596609,5912783.17327296,2022/12/21 11:36:34,"126",53.32815933,5.933138371,9,false,false,false,252.62,252.62,0.01,"407","1","117","309","225","140",7.07,"100732",66.7,  6.95 m/s,189°
695308.911243201,5912781.70408648,2022/12/21 11:36:35,"127",53.32814789,5.933066368,8.93,false,false,false,252.77,252.77,0.01,"405","0","117","308","225","141",7.02,"100730",66.7,  6.95 m/s,189°
695304.011283442,5912780.2272735,2022/12/21 11:36:35,"128",53.32813644,5.932991982,8.89,false,false,false,253.55,253.55,0.01,"405","0","117","308","224","141",7,"100723",66.7,  6.95 m/s,189°
695299.301681171,5912778.75940167,2022/12/21 11:36:37,"129",53.328125,5.932920456,8.82,false,false,false,253.64,253.64,0.01,"407","1","117","308","224","140",6.99,"100726",66.7,  6.95 m/s,189°
695294.528629779,5912777.28892756,2022/12/21 11:36:38,"130",53.32811356,5.932847977,8.79,false,false,false,253.41,253.41,0.01,"420","3","116","309","224","140",6.97,"100723",66.7,  7.30 m/s,193°
695289.804720575,5912775.3949527,2022/12/21 11:36:39,"131",53.3280983,5.932775974,8.72,false,false,false,253.36,253.36,0.01,"407","1","116","308","224","140",6.95,"100730",66.7,  7.30 m/s,193°
695285.285694873,5912773.93381197,2022/12/21 11:36:40,"132",53.32808685,5.93270731,8.69,false,false,false,252.48,252.48,0.01,"405","0","117","308","224","140",6.93,"100729",66.7,  7.30 m/s,193°
695281.623715042,5912772.5090032,2022/12/21 11:36:41,"133",53.32807541,5.93265152,8.68,false,false,false,252.27,252.27,0.01,"407","1","116","308","223","140",6.92,"100735",66.7,  7.30 m/s,193°
695280.258649211,5912772.45291664,2022/12/21 11:36:42,"134",53.32807541,5.932631016,8.6,false,false,false,284.71,284.71,0.01,"415","2","116","309","223","141",6.93,"100758",66.7,  7.30 m/s,193°
695279.839735577,5912774.13557636,2022/12/21 11:36:43,"135",53.32809067,5.932625771,8.55,false,false,false,339.98,339.98,0.01,"425","3","116","309","223","140",7.02,"100755",66.7,  8.45 m/s,202°
695280.644558473,5912775.4429908,2022/12/21 11:36:43,"136",53.32810211,5.932638645,8.58,false,false,false,47.65,47.65,0.01,"425","3","116","308","223","141",7.09,"100790",66.7,  8.45 m/s,202°
695282.32394937,5912776.36192813,2022/12/21 11:36:45,"137",53.32810974,5.932664394,8.62,false,false,false,72.48,72.48,0.01,"432","4","117","309","222","140",7.14,"100791",66.7,  8.45 m/s,202°
695284.955769034,5912777.31999938,2022/12/21 11:36:46,"138",53.32811737,5.932704449,8.65,false,false,false,73.31,73.31,0.01,"435","5","117","308","222","140",7.21,"100792",66.7,  8.45 m/s,202°
695288.317654729,5912778.30806956,2022/12/21 11:36:47,"139",53.328125,5.93275547,8.69,false,false,false,73.19,73.19,0.01,"436","5","116","309","222","140",7.25,"100792",66.7,  8.45 m/s,202°
695292.377982675,5912779.32484084,2022/12/21 11:36:48,"140",53.32813263,5.932816982,8.74,false,false,false,73.46,73.46,0.01,"451","7","115","307","222","140",7.31,"100788",66.7,  7.76 m/s,195°
695297.024073059,5912780.79009599,2022/12/21 11:36:49,"141",53.32814407,5.932887554,8.81,false,false,false,73.68,73.68,0.01,"446","7","115","308","221","140",7.34,"100783",66.7,  7.76 m/s,195°
695301.652704818,5912782.68016345,2022/12/21 11:36:50,"142",53.32815933,5.932958126,8.87,false,false,false,73.19,73.19,0.01,"441","6","115","308","221","140",7.37,"100787",66.7,  7.76 m/s,195°
695306.679688476,5912784.16219387,2022/12/21 11:36:51,"143",53.32817078,5.93303442,8.94,false,false,false,73.29,73.29,0.01,"441","6","114","308","220","140",7.41,"100783",66.7,  7.76 m/s,195°
695311.467029367,5912786.0587931,2022/12/21 11:36:52,"144",53.32818604,5.933107376,8.99,false,false,false,73.57,73.57,0.01,"444","6","116","309","220","140",7.45,"100788",66.7,  7.76 m/s,195°
695316.525809128,5912787.54102702,2022/12/21 11:36:52,"145",53.32819748,5.933184147,9.06,false,false,false,73.79,73.79,0.01,"451","7","115","308","221","140",7.48,"100786",66.7,  7.76 m/s,195°
695321.235398236,5912789.00891623,2022/12/21 11:36:54,"146",53.32820892,5.933255673,9.12,false,false,false,73.82,73.82,0.01,"456","8","115","307","220","139",7.52,"100788",66.7,  7.76 m/s,195°
695325.84966967,5912790.47400698,2022/12/21 11:36:55,"147",53.32822037,5.933325768,9.18,false,false,false,73.7,73.7,0.01,"446","7","114","308","220","140",7.57,"100785",66.7,  7.76 m/s,195°
695330.700443859,5912792.37323334,2022/12/21 11:36:56,"148",53.32823563,5.933399677,9.23,false,false,false,73.75,73.75,0.01,"446","7","115","308","219","139",7.6,"100789",66.7,  7.76 m/s,195°
695335.632252944,5912793.85027013,2022/12/21 11:36:57,"149",53.32824707,5.933474541,9.3,false,false,false,73.62,73.62,0.01,"451","7","114","308","219","139",7.63,"100783",66.7,  7.76 m/s,195°
695340.405277197,5912795.32078618,2022/12/21 11:36:57,"150",53.32825851,5.93354702,9.36,false,false,false,73.77,73.77,0.01,"455","8","113","307","219","140",7.67,"100780",66.7,  7.76 m/s,195°
695345.160838786,5912797.21611473,2022/12/21 11:36:59,"151",53.32827377,5.933619499,9.41,false,false,false,73.87,73.87,0.01,"455","8","114","308","218","139",7.7,"100777",66.7,  7.76 m/s,195°
695349.870365323,5912798.6851448,2022/12/21 11:37:00,"152",53.32828522,5.933691025,9.45,false,false,false,73.99,73.99,0.01,"455","8","114","308","218","140",7.73,"100775",66.7,  7.76 m/s,195°
695354.357706827,5912800.14393331,2022/12/21 11:37:01,"153",53.32829666,5.933759213,9.51,false,false,false,73.7,73.7,0.01,"463","9","114","308","218","140",7.75,"100773",66.7,  7.76 m/s,195°
695359.257633211,5912801.62079901,2022/12/21 11:37:02,"154",53.32830811,5.933833599,9.58,false,false,false,73.64,73.64,0.01,"460","9","115","308","218","140",7.76,"100774",66.7,  7.76 m/s,195°
695363.871928431,5912803.08481515,2022/12/21 11:37:03,"155",53.32831955,5.933903694,9.64,false,false,false,73.49,73.49,0.01,"455","8","114","308","218","140",7.78,"100772",66.7,  7.51 m/s,197°
695368.722743186,5912804.98408369,2022/12/21 11:37:04,"156",53.32833481,5.933977604,9.69,false,false,false,74.2,74.2,0.01,"460","9","114","308","218","140",7.8,"100775",66.7,  7.51 m/s,197°
695372.511634136,5912806.4141796,2022/12/21 11:37:05,"157",53.32834625,5.934035301,9.71,false,false,false,74.88,74.88,0.01,"456","8","114","308","217","140",7.82,"100771",66.7,  7.51 m/s,197°
695373.986253574,5912806.90032212,2022/12/21 11:37:06,"158",53.32835007,5.934057713,9.72,false,false,false,49.27,49.27,0.01,"463","9","114","307","217","139",7.85,"100761",66.7,  7.51 m/s,197°
695373.521258026,5912808.15555592,2022/12/21 11:37:07,"159",53.32836151,5.934051514,9.8,false,false,false,345.25,345.25,0.01,"456","8","114","308","218","140",7.87,"100745",66.7,  7.51 m/s,197°
695371.867338618,5912808.93750541,2022/12/21 11:37:08,"160",53.32836914,5.934027195,9.83,false,false,false,285.82,285.82,0.01,"451","7","115","308","218","140",7.92,"100744",66.7,  7.62 m/s,191°
695370.057827258,5912808.86312274,2022/12/21 11:37:09,"161",53.32836914,5.934000015,9.83,false,false,false,254.31,254.31,0.01,"451","7","114","308","217","140",7.87,"100730",66.7,  7.62 m/s,191°
695367.521308737,5912807.90891969,2022/12/21 11:37:10,"162",53.32836151,5.933961391,9.8,false,false,false,254.19,254.19,0.01,"446","7","115","308","216","140",7.8,"100724",66.7,  7.62 m/s,191°
695363.968985924,5912806.91296331,2022/12/21 11:37:11,"163",53.32835388,5.933907509,9.74,false,false,false,253.45,253.45,0.01,"441","6","114","309","217","140",7.72,"100723",66.7,  7.62 m/s,191°
695360.053067874,5912805.47765297,2022/12/21 11:37:12,"164",53.32834244,5.933847904,9.69,false,false,false,253.31,253.31,0.01,"444","6","114","309","217","139",7.63,"100721",66.7,  7.62 m/s,191°
695355.29751983,5912803.5823092,2022/12/21 11:37:13,"165",53.32832718,5.933775425,9.63,false,false,false,253.1,253.1,0.01,"425","3","114","309","217","140",7.55,"100724",66.7,  8.42 m/s,197°
695350.397527983,5912802.10544482,2022/12/21 11:37:14,"166",53.32831573,5.933701038,9.57,false,false,false,252.89,252.89,0.01,"420","3","114","309","217","140",7.49,"100716",66.7,  8.42 m/s,197°
695345.68802593,5912800.63752894,2022/12/21 11:37:15,"167",53.32830429,5.933629513,9.49,false,false,false,253.29,253.29,0.01,"423","3","114","309","216","140",7.42,"100721",66.7,  8.42 m/s,197°
695340.773686126,5912798.73567384,2022/12/21 11:37:16,"168",53.32828903,5.933554649,9.42,false,false,false,253.55,253.55,0.01,"420","3","113","308","216","140",7.35,"100725",66.7,  8.42 m/s,197°
695336.032421888,5912797.26646249,2022/12/21 11:37:17,"169",53.32827759,5.933482647,9.36,false,false,false,253.28,253.28,0.01,"432","4","113","308","216","140",7.29,"100724",66.7,  8.42 m/s,197°
695331.068972415,5912795.78701074,2022/12/21 11:37:18,"170",53.32826614,5.933407307,9.3,false,false,false,252.86,252.86,0.01,"411","1","113","308","216","140",7.23,"100727",66.7,  8.42 m/s,197°
695326.345048784,5912793.89411087,2022/12/21 11:37:19,"171",53.32825089,5.933335304,9.25,false,false,false,252.92,252.92,0.01,"411","1","113","308","216","140",7.18,"100728",66.7,  8.42 m/s,197°
695321.635578181,5912792.42510711,2022/12/21 11:37:20,"172",53.32823944,5.933263779,9.18,false,false,false,253.06,253.06,0.01,"411","1","112","309","215","139",7.12,"100723",66.7,  8.42 m/s,197°
695316.767277044,5912790.95069502,2022/12/21 11:37:21,"173",53.328228,5.933189869,9.12,false,false,false,253.19,253.19,0.01,"407","1","112","308","215","139",7.08,"100726",66.7,  8.42 m/s,197°
695312.233928048,5912789.0645275,2022/12/21 11:37:22,"174",53.32821274,5.933120728,9.06,false,false,false,253.29,253.29,0.01,"415","2","112","307","214","140",7.04,"100727",66.7,  8.42 m/s,197°
695307.492626036,5912787.59423024,2022/12/21 11:37:23,"175",53.32820129,5.933048725,8.99,false,false,false,253.57,253.57,0.01,"407","1","112","307","214","140",6.98,"100723",66.7,  8.42 m/s,197°
695302.497357073,5912786.11461586,2022/12/21 11:37:24,"176",53.32818985,5.932972908,8.93,false,false,false,253.78,253.78,0.01,"405","0","112","308","214","139",6.95,"100723",66.7,  8.42 m/s,197°
695297.851273386,5912784.6493552,2022/12/21 11:37:25,"177",53.32817841,5.932902336,8.89,false,false,false,253.18,253.18,0.01,"401","0","112","309","214","140",6.92,"100727",66.7,  8.42 m/s,197°
695292.936967108,5912782.7475531,2022/12/21 11:37:26,"178",53.32816315,5.932827473,8.83,false,false,false,253.83,253.83,0.01,"405","0","111","308","213","139",6.89,"100720",66.7,  8.42 m/s,197°
695288.386126302,5912781.28510163,2022/12/21 11:37:27,"179",53.3281517,5.932758331,8.75,false,false,false,254.1,254.1,0.01,"411","1","110","308","213","140",6.87,"100725",66.7,  8.42 m/s,197°
695283.644831359,5912779.8159433,2022/12/21 11:37:28,"180",53.32814026,5.932686329,8.71,false,false,false,252.59,252.59,0.01,"411","1","111","308","213","139",6.85,"100730",66.7,  8.27 m/s,204°
695279.792428993,5912778.38219769,2022/12/21 11:37:29,"181",53.32812881,5.932627678,8.7,false,false,false,251.79,251.79,0.01,"405","0","110","308","213","139",6.84,"100729",66.7,  8.27 m/s,204°
695278.127341053,5912777.88937375,2022/12/21 11:37:30,"182",53.328125,5.932602406,8.61,false,false,false,276.17,276.17,0.01,"407","1","110","308","213","139",6.84,"100750",66.7,  8.27 m/s,204°
695277.549645923,5912779.56550982,2022/12/21 11:37:31,"183",53.32814026,5.932594776,8.53,false,false,false,336.23,336.23,0.01,"416","2","110","309","213","140",6.92,"100755",66.7,  8.27 m/s,204°
695278.146608604,5912781.28990849,2022/12/21 11:37:32,"184",53.32815552,5.93260479,8.56,false,false,false,38.2,38.2,0.01,"423","3","111","309","212","140",6.98,"100780",66.7,  8.27 m/s,204°
695279.779938826,5912781.78142769,2022/12/21 11:37:33,"185",53.32815933,5.932629585,8.59,false,false,false,72.38,72.38,0.01,"444","6","111","309","212","140",7.06,"100786",66.7,  7.71 m/s,205°
695282.316486347,5912782.73558321,2022/12/21 11:37:34,"186",53.32816696,5.932668209,8.63,false,false,false,73.15,73.15,0.01,"432","4","111","308","212","140",7.11,"100788",66.7,  7.71 m/s,205°
695285.664087528,5912783.29865386,2022/12/21 11:37:35,"187",53.32817078,5.932718754,8.68,false,false,false,73.35,73.35,0.01,"441","6","112","309","212","140",7.18,"100787",66.7,  7.71 m/s,205°
695289.61173285,5912784.73520409,2022/12/21 11:37:36,"188",53.32818222,5.932778835,8.73,false,false,false,73.34,73.34,0.01,"441","6","111","309","212","139",7.23,"100788",66.7,  7.71 m/s,205°
695294.003899896,5912786.19002313,2022/12/21 11:37:37,"189",53.32819366,5.932845593,8.79,false,false,false,73.49,73.49,0.01,"444","6","111","309","212","139",7.26,"100793",66.7,  7.71 m/s,205°
695298.854689223,5912788.08921661,2022/12/21 11:37:38,"190",53.32820892,5.932919502,8.86,false,false,false,73.61,73.61,0.01,"460","9","112","309","211","139",7.31,"100787",66.7,  7.71 m/s,205°
695303.59599284,5912789.55950522,2022/12/21 11:37:39,"191",53.32822037,5.932991505,8.94,false,false,false,73.8,73.8,0.01,"446","7","111","308","210","139",7.35,"100788",66.7,  7.71 m/s,205°
695308.400785782,5912791.03129376,2022/12/21 11:37:40,"192",53.32823181,5.933064461,9.01,false,false,false,73.57,73.57,0.01,"446","7","111","309","210","139",7.39,"100787",66.7,  7.71 m/s,205°
695313.219875343,5912792.92919991,2022/12/21 11:37:41,"193",53.32824707,5.933137894,9.1,false,false,false,73.89,73.89,0.01,"451","7","111","308","211","139",7.44,"100790",66.7,  7.71 m/s,205°
695318.151621514,5912794.40621573,2022/12/21 11:37:42,"194",53.32825851,5.933212757,9.16,false,false,false,73.57,73.57,0.01,"451","7","111","308","210","139",7.47,"100786",66.7,  7.71 m/s,205°
695322.924603759,5912795.8778262,2022/12/21 11:37:42,"195",53.32826996,5.933285236,9.25,false,false,false,73.83,73.83,0.01,"463","9","111","308","210","139",7.52,"100787",66.7,  7.71 m/s,205°
695327.538913617,5912797.34180669,2022/12/21 11:37:44,"196",53.3282814,5.933355331,9.32,false,false,false,73.51,73.51,0.01,"456","8","110","308","210","138",7.55,"100783",66.7,  7.71 m/s,205°
695332.199274822,5912799.23320965,2022/12/21 11:37:45,"197",53.32829666,5.93342638,9.39,false,false,false,73.48,73.48,0.01,"455","8","111","309","210","139",7.57,"100779",66.7,  7.71 m/s,205°
695337.162720322,5912800.71266267,2022/12/21 11:37:46,"198",53.32830811,5.93350172,9.47,false,false,false,73.63,73.63,0.01,"456","8","111","308","210","139",7.61,"100780",66.7,  7.71 m/s,205°
695341.872290958,5912802.18057278,2022/12/21 11:37:47,"199",53.32831955,5.933573246,9.55,false,false,false,73.23,73.23,0.01,"455","8","111","309","209","139",7.63,"100783",66.7,  7.71 m/s,205°
695346.359631026,5912803.63935378,2022/12/21 11:37:48,"200",53.32833099,5.933641434,9.61,false,false,false,73.53,73.53,0.01,"460","9","110","308","209","139",7.64,"100777",66.7,  7.18 m/s,196°
695351.210451026,5912805.53860431,2022/12/21 11:37:49,"201",53.32834625,5.933715344,9.68,false,false,false,73.56,73.56,0.01,"456","8","110","308","209","139",7.67,"100781",66.7,  7.18 m/s,196°
695356.01517003,5912807.01155375,2022/12/21 11:37:50,"202",53.3283577,5.9337883,9.75,false,false,false,73.72,73.72,0.01,"451","7","110","308","208","139",7.69,"100779",66.7,  7.18 m/s,196°
695360.86591667,5912808.91081157,2022/12/21 11:37:51,"203",53.32837296,5.933862209,9.81,false,false,false,73.58,73.58,0.01,"451","7","110","308","208","139",7.71,"100776",66.7,  7.18 m/s,196°
695365.416758157,5912810.37222147,2022/12/21 11:37:52,"204",53.3283844,5.933931351,9.87,false,false,false,73.68,73.68,0.01,"451","7","110","308","209","139",7.73,"100771",66.7,  7.18 m/s,196°
695369.713546644,5912811.82319273,2022/12/21 11:37:53,"205",53.32839584,5.933996677,9.93,false,false,false,74.71,74.71,0.01,"456","8","110","308","208","138",7.74,"100772",66.7,  8.22 m/s,198°
695371.759578299,5912812.33282332,2022/12/21 11:37:54,"206",53.32839966,5.934027672,9.94,false,false,false,62.78,62.78,0.01,"460","9","109","308","208","139",7.76,"100768",66.7,  8.22 m/s,198°
695371.675526106,5912813.60371659,2022/12/21 11:37:55,"207",53.3284111,5.934027195,10,false,false,false,350.96,350.96,0.01,"446","7","109","309","208","139",7.77,"100740",66.7,  8.22 m/s,198°
695370.416845099,5912814.82743883,2022/12/21 11:37:56,"208",53.32842255,5.934009075,10.04,false,false,false,303.85,303.85,0.01,"444","6","109","309","207","139",7.81,"100731",66.7,  8.22 m/s,198°
695368.561352166,5912814.32564105,2022/12/21 11:37:57,"209",53.32841873,5.933980942,10.04,false,false,false,255.87,255.87,0.01,"444","6","110","309","208","139",7.79,"100720",66.7,  8.22 m/s,198°
695366.356560539,5912813.81059981,2022/12/21 11:37:58,"210",53.32841492,5.933947563,9.99,false,false,false,254.75,254.75,0.01,"444","6","109","308","207","139",7.71,"100715",66.7,  7.38 m/s,197°
695363.089915591,5912812.82638677,2022/12/21 11:37:59,"211",53.32840729,5.933897972,9.96,false,false,false,254.02,254.02,0.01,"451","7","109","308","207","140",7.64,"100713",66.7,  7.38 m/s,197°
695359.332829607,5912811.39649156,2022/12/21 11:38:00,"212",53.32839584,5.933840752,9.9,false,false,false,253.55,253.55,0.01,"432","4","109","308","206","139",7.59,"100714",66.7,  7.38 m/s,197°
695354.909012901,5912809.94030862,2022/12/21 11:38:01,"213",53.3283844,5.933773518,9.81,false,false,false,253.83,253.83,0.01,"432","4","109","309","206","140",7.53,"100709",66.7,  7.38 m/s,197°
695350.040738313,5912808.4658618,2022/12/21 11:38:02,"214",53.32837296,5.933699608,9.76,false,false,false,253.38,253.38,0.01,"423","3","109","309","207","139",7.47,"100710",66.7,  7.38 m/s,197°
695345.094718587,5912806.56269948,2022/12/21 11:38:03,"215",53.3283577,5.933624268,9.71,false,false,false,252.59,252.59,0.01,"425","3","109","309","206","139",7.43,"100710",66.7,  7.38 m/s,197°
695340.226483757,5912805.08715079,2022/12/21 11:38:04,"216",53.32834625,5.933550358,9.64,false,false,false,252.3,252.3,0.01,"432","4","108","309","207","139",7.38,"100730",66.7,  7.38 m/s,197°
695335.534374836,5912803.1944346,2022/12/21 11:38:05,"217",53.32833099,5.933478832,9.55,false,false,false,252.42,252.42,0.01,"423","3","109","309","207","139",7.32,"100729",66.7,  7.38 m/s,197°
695330.697844791,5912801.72131303,2022/12/21 11:38:06,"218",53.32831955,5.933405399,9.46,false,false,false,253.1,253.1,0.01,"415","2","109","309","206","140",7.26,"100711",66.7,  7.38 m/s,197°
695326.147052836,5912800.25993953,2022/12/21 11:38:07,"219",53.32830811,5.933336258,9.38,false,false,false,253.23,253.23,0.01,"415","2","109","309","206","139",7.19,"100721",66.7,  7.38 m/s,197°
695321.310563133,5912798.78571559,2022/12/21 11:38:08,"220",53.32829666,5.933262825,9.31,false,false,false,253.8,253.8,0.01,"411","1","109","309","206","139",7.13,"100714",66.7,  7.38 m/s,197°
695316.523238824,5912796.88910604,2022/12/21 11:38:09,"221",53.3282814,5.933189869,9.22,false,false,false,253.8,253.8,0.01,"415","2","109","309","205","139",7.07,"100721",66.7,  7.38 m/s,197°
695311.845413003,5912795.42252633,2022/12/21 11:38:09,"222",53.32826996,5.93311882,9.15,false,false,false,253.25,253.25,0.01,"411","1","109","308","205","139",7.03,"100719",66.7,  7.38 m/s,197°
695306.913712078,5912793.944405,2022/12/21 11:38:09,"223",53.32825851,5.933043957,9.08,false,false,false,253.54,253.54,0.01,"408","1","107","308","205","139",6.99,"100719",66.7,  7.38 m/s,197°
695302.235880925,5912792.47783488,2022/12/21 11:38:09,"224",53.32824707,5.932972908,9,false,false,false,253.21,253.21,0.01,"405","0","108","309","205","139",6.94,"100724",66.7,  7.38 m/s,197°
695297.448543666,5912790.58124487,2022/12/21 11:38:13,"225",53.32823181,5.932899952,8.93,false,false,false,252.94,252.94,0.01,"408","1","108","309","205","140",6.9,"100726",66.7,  8.11 m/s,202°
695292.643747584,5912789.10946748,2022/12/21 11:38:14,"226",53.32822037,5.932826996,8.85,false,false,false,253.15,253.15,0.01,"408","1","108","309","205","139",6.87,"100724",66.7,  8.11 m/s,202°
695287.951606406,5912787.21679905,2022/12/21 11:38:15,"227",53.32820511,5.93275547,8.78,false,false,false,252.84,252.84,0.01,"410","1","108","309","205","139",6.84,"100732",66.7,  8.11 m/s,202°
695283.146850202,5912785.74391934,2022/12/21 11:38:16,"228",53.32819366,5.932682514,8.68,false,false,false,253.49,253.49,0.01,"403","0","107","309","204","139",6.8,"100729",66.7,  8.11 m/s,202°
695278.78650311,5912784.29041793,2022/12/21 11:38:17,"229",53.32818222,5.932616234,8.65,false,false,false,252.16,252.16,0.01,"400","0","107","309","205","139",6.77,"100730",66.7,  8.11 m/s,202°
695276.313468826,5912783.33887379,2022/12/21 11:38:18,"230",53.32817459,5.932578564,8.6,false,false,false,256.59,256.59,0.01,"408","1","107","309","204","139",6.75,"100745",66.7,  7.80 m/s,193°
695275.45320493,5912784.15346461,2022/12/21 11:38:19,"231",53.32818222,5.932566166,8.49,false,false,false,321.54,321.54,0.01,"422","3","107","309","204","139",6.8,"100758",66.7,  7.80 m/s,193°
695275.47868439,5912785.85438298,2022/12/21 11:38:20,"232",53.32819748,5.932567596,8.48,false,false,false,8.65,8.65,0.01,"423","3","107","305","203","139",6.89,"100767",66.7,  7.80 m/s,193°
695276.854989176,5912787.18527687,2022/12/21 11:38:21,"233",53.32820892,5.932589054,8.52,false,false,false,70.76,70.76,0.01,"432","4","109","309","204","139",6.95,"100793",66.7,  7.80 m/s,193°
695278.851874272,5912788.11725793,2022/12/21 11:38:22,"234",53.32821655,5.932619572,8.57,false,false,false,72.61,72.61,0.01,"444","6","109","309","204","139",7.01,"100791",66.7,  7.80 m/s,193°
695281.945486866,5912788.66989061,2022/12/21 11:38:22,"235",53.32822037,5.932666302,8.62,false,false,false,72.81,72.81,0.01,"447","7","108","309","204","139",7.08,"100786",66.7,  7.80 m/s,193°
695285.720065383,5912789.67491599,2022/12/21 11:38:24,"236",53.328228,5.932723522,8.69,false,false,false,73.71,73.71,0.01,"447","7","109","310","204","139",7.12,"100784",66.7,  7.08 m/s,192°
695289.826487372,5912791.11799063,2022/12/21 11:38:25,"237",53.32823944,5.932785988,8.77,false,false,false,73.54,73.54,0.01,"447","7","108","309","204","139",7.17,"100786",66.7,  7.08 m/s,192°
695294.377251553,5912792.58044098,2022/12/21 11:38:26,"238",53.32825089,5.932855129,8.86,false,false,false,73.38,73.38,0.01,"454","8","109","309","203","139",7.22,"100785",66.7,  7.08 m/s,192°
695299.35510533,5912794.48374258,2022/12/21 11:38:27,"239",53.32826614,5.932930946,8.95,false,false,false,73.83,73.83,0.01,"462","9","109","308","203","139",7.27,"100783",66.7,  7.08 m/s,192°
695304.223361294,5912795.95924888,2022/12/21 11:38:28,"240",53.32827759,5.933004856,9.05,false,false,false,73.64,73.64,0.01,"462","9","108","309","203","139",7.32,"100785",66.7,  7.08 m/s,192°
695308.901188436,5912797.42582105,2022/12/21 11:38:29,"241",53.32828903,5.933075905,9.13,false,false,false,73.55,73.55,0.01,"459","8","109","309","202","139",7.34,"100777",66.7,  7.08 m/s,192°
695313.688514725,5912799.32242287,2022/12/21 11:38:30,"242",53.32830429,5.933148861,9.22,false,false,false,73.45,73.45,0.01,"459","8","109","309","202","139",7.37,"100780",66.7,  7.08 m/s,192°
695318.652010337,5912800.80074438,2022/12/21 11:38:31,"243",53.32831573,5.933224201,9.3,false,false,false,73.57,73.57,0.01,"462","9","109","309","202","139",7.43,"100782",66.7,  7.08 m/s,192°
695323.393296069,5912802.27105317,2022/12/21 11:38:32,"244",53.32832718,5.933296204,9.39,false,false,false,73.44,73.44,0.01,"463","9","108","309","202","138",7.46,"100779",66.7,  7.08 m/s,192°
695328.117099763,5912804.16505962,2022/12/21 11:38:33,"245",53.32834244,5.933368206,9.48,false,false,false,73.64,73.64,0.01,"473","11","108","308","202","139",7.49,"100777",66.7,  7.08 m/s,192°
695332.92187154,5912805.63687347,2022/12/21 11:38:34,"246",53.32835388,5.933441162,9.56,false,false,false,73.75,73.75,0.01,"462","9","108","309","202","138",7.52,"100776",66.7,  7.08 m/s,192°
695337.599636156,5912807.10458636,2022/12/21 11:38:35,"247",53.32836533,5.933512211,9.64,false,false,false,73.55,73.55,0.01,"463","9","108","309","202","138",7.57,"100777",66.7,  7.08 m/s,192°
695342.37264624,5912808.57510473,2022/12/21 11:38:35,"248",53.32837677,5.93358469,9.71,false,false,false,73.44,73.44,0.01,"463","9","108","308","202","139",7.59,"100776",66.7,  7.08 m/s,192°
695347.064747363,5912810.46782786,2022/12/21 11:38:35,"249",53.32839203,5.933656216,9.8,false,false,false,73.53,73.53,0.01,"463","9","107","309","202","139",7.63,"100770",66.7,  7.08 m/s,192°
695351.805995361,5912811.93705061,2022/12/21 11:38:38,"250",53.32840347,5.933728218,9.89,false,false,false,73.58,73.58,0.01,"476","11","107","309","201","139",7.66,"100767",66.7,  8.58 m/s,199°
695356.674220155,5912813.41261139,2022/12/21 11:38:39,"251",53.32841492,5.933802128,9.98,false,false,false,73.87,73.87,0.01,"462","9","107","309","201","138",7.68,"100760",66.7,  8.58 m/s,199°
695361.398001252,5912815.30665147,2022/12/21 11:38:40,"252",53.32843018,5.93387413,10.08,false,false,false,73.72,73.72,0.01,"463","9","108","309","201","138",7.69,"100762",66.7,  8.58 m/s,199°
695366.17106363,5912816.77719683,2022/12/21 11:38:41,"253",53.32844162,5.93394661,10.17,false,false,false,74.66,74.66,0.01,"463","9","107","309","200","139",7.71,"100759",66.7,  8.58 m/s,199°
695369.374192755,5912817.7588013,2022/12/21 11:38:42,"254",53.32844925,5.933995247,10.2,false,false,false,74.8,74.8,0.01,"466","10","107","309","201","139",7.75,"100761",66.7,  8.58 m/s,199°
695370.164710409,5912818.64123349,2022/12/21 11:38:43,"255",53.32845688,5.934007645,10.23,false,false,false,26.04,26.04,0.01,"480","12","107","308","200","139",7.76,"100743",66.7,  7.69 m/s,198°
695369.31877484,5912819.88080851,2022/12/21 11:38:44,"256",53.32846832,5.933995724,10.28,false,false,false,335.75,335.75,0.01,"462","9","107","308","200","139",7.79,"100728",66.7,  7.69 m/s,198°
695367.523561815,5912820.2325397,2022/12/21 11:38:45,"257",53.32847214,5.933969021,10.3,false,false,false,266.48,266.48,0.01,"459","8","107","308","200","138",7.81,"100722",66.7,  7.69 m/s,198°
695365.763272993,5912819.73465634,2022/12/21 11:38:46,"258",53.32846832,5.933942318,10.27,false,false,false,254.09,254.09,0.01,"454","8","107","308","200","139",7.73,"100717",66.7,  7.69 m/s,198°
695363.068045052,5912818.77393148,2022/12/21 11:38:47,"259",53.32846069,5.93390131,10.22,false,false,false,253.44,253.44,0.01,"447","7","107","309","199","139",7.64,"100720",66.7,  7.69 m/s,198°
695359.579175802,5912817.78058615,2022/12/21 11:38:48,"260",53.32845306,5.933848381,10.17,false,false,false,253.44,253.44,0.01,"451","7","107","309","199","139",7.58,"100711",66.7,  7.00 m/s,198°
695355.487135831,5912816.7624511,2022/12/21 11:38:49,"261",53.32844543,5.933786392,10.08,false,false,false,253.54,253.54,0.01,"443","6","106","309","200","139",7.5,"100706",66.7,  7.00 m/s,198°
695350.890267111,5912814.87474726,2022/12/21 11:38:50,"262",53.32843018,5.933716297,10,false,false,false,253.43,253.43,0.01,"432","4","106","309","199","138",7.43,"100708",66.7,  7.00 m/s,198°
695345.895083855,5912813.39397423,2022/12/21 11:38:51,"263",53.32841873,5.93364048,9.93,false,false,false,253.05,253.05,0.01,"426","3","106","308","198","138",7.36,"100705",66.7,  7.00 m/s,198°
695340.995054405,5912811.91823143,2022/12/21 11:38:52,"264",53.32840729,5.933566093,9.83,false,false,false,253.46,253.46,0.01,"432","4","106","309","199","138",7.32,"100706",66.7,  7.00 m/s,198°
695336.144304332,5912810.01899398,2022/12/21 11:38:53,"265",53.32839203,5.933492184,9.75,false,false,false,252.6,252.6,0.01,"426","3","105","308","199","138",7.28,"100719",66.7,  7.00 m/s,198°
695331.3395836,5912808.54606468,2022/12/21 11:38:54,"266",53.32838058,5.933419228,9.64,false,false,false,253.05,253.05,0.01,"439","5","105","308","199","138",7.24,"100718",66.7,  7.00 m/s,198°
695326.679185891,5912806.65577441,2022/12/21 11:38:55,"267",53.32836533,5.933348179,9.56,false,false,false,253.24,253.24,0.01,"423","3","105","309","198","138",7.2,"100717",66.7,  7.00 m/s,198°
695321.874459351,5912805.18285483,2022/12/21 11:38:56,"268",53.32835388,5.933275223,9.45,false,false,false,254.26,254.26,0.01,"422","3","104","308","198","138",7.16,"100709",66.7,  7.00 m/s,198°
695317.22839959,5912803.71757465,2022/12/21 11:38:57,"269",53.32834244,5.933204651,9.36,false,false,false,253.88,253.88,0.01,"418","2","105","307","198","138",7.11,"100714",66.7,  7.00 m/s,198°
695312.48718041,5912802.24727475,2022/12/21 11:38:58,"270",53.32833099,5.933132649,9.23,false,false,false,253.66,253.66,0.01,"418","2","104","309","198","139",7.08,"100712",66.7,  7.00 m/s,198°
695307.682333548,5912800.77547904,2022/12/21 11:38:59,"271",53.32831955,5.933059692,9.15,false,false,false,253.39,253.39,0.01,"426","3","104","309","198","138",7.04,"100707",66.7,  7.00 m/s,198°
695302.990275922,5912798.88279809,2022/12/21 11:39:00,"272",53.32830429,5.932988167,9.1,false,false,false,253.11,253.11,0.01,"414","2","103","309","198","138",7,"100727",66.7,  7.00 m/s,198°
695298.058464258,5912797.40579525,2022/12/21 11:39:00,"273",53.32829285,5.932913303,9,false,false,false,252.84,252.84,0.01,"411","1","104","308","197","138",6.97,"100719",66.7,  7.00 m/s,198°
695293.23944093,5912795.50790722,2022/12/21 11:39:02,"274",53.32827759,5.932839871,8.9,false,false,false,252.29,252.29,0.01,"418","2","105","310","198","139",6.95,"100734",66.7,  7.00 m/s,198°
695288.59341012,5912794.04154339,2022/12/21 11:39:03,"275",53.32826614,5.932769299,8.82,false,false,false,252.64,252.64,0.01,"414","2","104","310","197","139",6.92,"100732",66.7,  7.37 m/s,202°
695283.742511409,5912792.14346964,2022/12/21 11:39:04,"276",53.32825089,5.932695389,8.69,false,false,false,253.3,253.3,0.01,"423","3","104","309","197","139",6.9,"100733",66.7,  7.37 m/s,202°
695279.096474887,5912790.67711523,2022/12/21 11:39:05,"277",53.32823944,5.932624817,8.6,false,false,false,253.2,253.2,0.01,"422","3","104","309","197","139",6.89,"100727",66.7,  7.37 m/s,202°
695275.163113929,5912789.66557137,2022/12/21 11:39:06,"278",53.32823181,5.932565212,8.57,false,false,false,252.6,252.6,0.01,"418","2","103","308","196","138",6.88,"100729",66.7,  7.37 m/s,202°
695273.561542559,5912789.17535843,2022/12/21 11:39:07,"279",53.328228,5.932540894,8.51,false,false,false,273.65,273.65,0.01,"423","3","104","309","197","138",6.9,"100746",66.7,  7.37 m/s,202°
695273.033059951,5912790.427992,2022/12/21 11:39:08,"280",53.32823944,5.932533741,8.44,false,false,false,334.93,334.93,0.01,"432","4","104","309","197","138",6.96,"100751",66.7,  6.57 m/s,202°
695273.598266032,5912792.15108539,2022/12/21 11:39:09,"281",53.3282547,5.932543278,8.45,false,false,false,35.12,35.12,0.01,"444","6","104","310","195","137",7.02,"100772",66.7,  6.57 m/s,202°
695275.182382659,5912793.0661061,2022/12/21 11:39:09,"282",53.32826233,5.932567596,8.5,false,false,false,72.17,72.17,0.01,"444","6","104","309","196","139",7.08,"100793",66.7,  6.57 m/s,202°
695277.60941957,5912793.59023523,2022/12/21 11:39:09,"283",53.32826614,5.932604313,8.58,false,false,false,72.89,72.89,0.01,"443","6","103","309","196","139",7.15,"100790",66.7,  6.57 m/s,202°
695280.971361213,5912794.57830319,2022/12/21 11:39:12,"284",53.32827377,5.932655335,8.64,false,false,false,73,73,0.01,"443","6","103","309","196","139",7.21,"100791",66.7,  6.57 m/s,202°
695285.014221511,5912796.01987624,2022/12/21 11:39:13,"285",53.32828522,5.932716847,8.71,false,false,false,73.16,73.16,0.01,"447","7","104","308","195","138",7.24,"100789",66.7,  7.37 m/s,190°
695289.438068753,5912797.47599335,2022/12/21 11:39:14,"286",53.32829666,5.932784081,8.8,false,false,false,73.5,73.5,0.01,"454","8","104","309","195","138",7.28,"100790",66.7,  7.37 m/s,190°
695294.179298466,5912798.94626999,2022/12/21 11:39:15,"287",53.32830811,5.932856083,8.91,false,false,false,73.3,73.3,0.01,"462","9","103","309","195","137",7.32,"100785",66.7,  7.37 m/s,190°
695299.157145401,5912800.84957156,2022/12/21 11:39:16,"288",53.32832336,5.9329319,9.01,false,false,false,73.41,73.41,0.01,"451","7","103","309","195","138",7.35,"100787",66.7,  7.37 m/s,190°
695304.025394711,5912802.32507781,2022/12/21 11:39:17,"289",53.32833481,5.93300581,9.11,false,false,false,73.59,73.59,0.01,"447","7","103","309","195","138",7.39,"100784",66.7,  7.37 m/s,190°
695308.861930629,5912803.79817207,2022/12/21 11:39:18,"290",53.32834625,5.933079243,9.21,false,false,false,73.77,73.77,0.01,"451","7","103","308","195","137",7.44,"100786",66.7,  7.37 m/s,190°
695313.617493933,5912805.693469,2022/12/21 11:39:19,"291",53.32836151,5.933151722,9.3,false,false,false,73.62,73.62,0.01,"459","8","102","308","194","137",7.48,"100785",66.7,  7.37 m/s,190°
695318.263506889,5912807.15985774,2022/12/21 11:39:20,"292",53.32837296,5.933222294,9.4,false,false,false,73.7,73.7,0.01,"473","11","102","309","195","137",7.52,"100777",66.7,  7.37 m/s,190°
695323.131790597,5912808.63427178,2022/12/21 11:39:21,"293",53.3283844,5.933296204,9.5,false,false,false,73.35,73.35,0.01,"454","8","103","309","194","137",7.54,"100780",66.7,  7.37 m/s,190°
695327.855587813,5912810.52827812,2022/12/21 11:39:22,"294",53.32839966,5.933368206,9.61,false,false,false,73.54,73.54,0.01,"459","8","103","308","194","137",7.56,"100778",66.7,  7.37 m/s,190°
695332.628596741,5912811.99878672,2022/12/21 11:39:23,"295",53.3284111,5.933440685,9.71,false,false,false,73.72,73.72,0.01,"459","8","102","309","193","137",7.6,"100776",66.7,  7.37 m/s,190°
695337.338111275,5912813.46780464,2022/12/21 11:39:24,"296",53.32842255,5.933512211,9.81,false,false,false,73.49,73.49,0.01,"459","8","102","309","194","138",7.61,"100772",66.7,  7.37 m/s,190°
695341.984156305,5912814.93310484,2022/12/21 11:39:25,"297",53.32843399,5.933582783,9.91,false,false,false,73.25,73.25,0.01,"466","10","102","308","193","137",7.64,"100773",66.7,  7.37 m/s,190°
695346.77145327,5912816.8297407,2022/12/21 11:39:26,"298",53.32844925,5.933655739,10,false,false,false,73.77,73.77,0.01,"459","8","102","309","193","137",7.65,"100772",66.7,  7.37 m/s,190°
695351.63971985,5912818.30418435,2022/12/21 11:39:27,"299",53.32846069,5.933729649,10.09,false,false,false,73.88,73.88,0.01,"459","8","103","308","193","137",7.69,"100769",66.7,  7.37 m/s,190°
695356.38091298,5912819.77452395,2022/12/21 11:39:28,"300",53.32847214,5.933801651,10.19,false,false,false,73.56,73.56,0.01,"462","9","102","309","193","138",7.7,"100767",66.7,  9.49 m/s,196°
695361.090459487,5912821.24245368,2022/12/21 11:39:29,"301",53.32848358,5.933873177,10.29,false,false,false,73.58,73.58,0.01,"459","8","102","309","193","138",7.72,"100766",66.7,  9.49 m/s,196°
695365.482461888,5912822.69844937,2022/12/21 11:39:30,"302",53.32849503,5.933939934,10.37,false,false,false,74.76,74.76,0.01,"473","11","102","309","193","137",7.74,"100766",66.7,  9.49 m/s,196°
695367.796745566,5912823.64351666,2022/12/21 11:39:31,"303",53.32850266,5.93397522,10.39,false,false,false,69,69,0.01,"463","9","103","309","192","137",7.76,"100766",66.7,  9.49 m/s,196°
695367.77620675,5912824.91702073,2022/12/21 11:39:32,"304",53.3285141,5.933975697,10.43,false,false,false,357.81,357.81,0.01,"459","8","102","309","192","138",7.77,"100733",66.7,  9.49 m/s,196°
695366.644533461,5912826.14485058,2022/12/21 11:39:33,"305",53.32852554,5.933959484,10.47,false,false,false,313.78,313.78,0.01,"444","6","103","309","192","138",7.77,"100722",66.7,  6.24 m/s,188°
695364.86678491,5912826.07177511,2022/12/21 11:39:34,"306",53.32852554,5.933932781,10.47,false,false,false,257.24,257.24,0.01,"451","7","103","309","192","138",7.79,"100706",66.7,  6.24 m/s,188°
695362.901753766,5912825.14106523,2022/12/21 11:39:34,"307",53.32851791,5.933902741,10.43,false,false,false,254.05,254.05,0.01,"454","8","102","309","192","138",7.71,"100710",66.7,  6.24 m/s,188°
695359.984301546,5912824.17120742,2022/12/21 11:39:36,"308",53.32851028,5.933858395,10.37,false,false,false,253.71,253.71,0.01,"447","7","103","309","191","138",7.62,"100704",66.7,  6.24 m/s,188°
