X,Y,TimeStamp (UTC),"""TriggerID""","""Latitude""","""Longitude""","""Altitude (Meter AGL)""",Gimbal Roll,"""Gimbal Pitch""","""Gimbal Yaw""","""Drone Yaw""","""Combined Yaw""",HCHO (ppm),CO2 (ppm),TVOC (ppb),NO2 (ppm),C2H5OH (ppm),VOC (ppm),CO (ppm),Temp (Celcius),Pressure (pa),Altitude (meter),wind_speed,wind_direction
695392.932758877,5912757.53624959,2022/12/21 12:12:47,"1",53.32789993,5.93431139,0.26,false,false,false,346.25,346.25,0.01,"466","10","99","321","153","150",10.67,"100825",58.34,  7.07 m/s,201°
695392.932758877,5912757.53624959,2022/12/21 12:12:48,"2",53.32789993,5.93431139,0.84,false,false,false,345.32,345.32,0.01,"466","10","99","321","152","150",10.62,"100796",66.7,  7.07 m/s,201°
695392.978808198,5912757.96366819,2022/12/21 12:12:49,"3",53.32790375,5.934312344,1.18,false,false,false,345.4,345.4,0.01,"463","9","98","321","152","150",10.62,"100790",66.7,  7.07 m/s,201°
695393.042254961,5912757.96627651,2022/12/21 12:12:50,"4",53.32790375,5.934313297,2.81,false,false,false,345.08,345.08,0.01,"451","7","98","320","152","150",10.6,"100772",66.7,  7.07 m/s,201°
695393.042254961,5912757.96627651,2022/12/21 12:12:51,"5",53.32790375,5.934313297,6.05,false,false,false,345.12,345.12,0.01,"444","6","96","316","151","149",10.57,"100736",66.7,  7.07 m/s,201°
695392.947051529,5912757.96236266,2022/12/21 12:12:52,"6",53.32790375,5.934311867,9.19,false,false,false,345.39,345.39,0.01,"442","6","95","315","151","149",10.49,"100696",75.07,  7.07 m/s,201°
695392.91529486,5912757.96105713,2022/12/21 12:12:53,"7",53.32790375,5.93431139,12.14,false,false,false,345.72,345.72,0.01,"438","5","94","322","150","149",10.45,"100661",75.07,  7.07 m/s,201°
695392.91529486,5912757.96105713,2022/12/21 12:12:53,"8",53.32790375,5.93431139,15.26,false,false,false,345.45,345.45,0.01,"433","5","94","323","151","148",10.38,"100620",75.07,  7.07 m/s,201°
695392.978808198,5912757.96366819,2022/12/21 12:12:55,"9",53.32790375,5.934312344,18.23,false,false,false,345.67,345.67,0.01,"433","5","93","322","151","149",10.35,"100583",83.45,  7.07 m/s,201°
695393.042254961,5912757.96627651,2022/12/21 12:12:56,"10",53.32790375,5.934313297,19.37,false,false,false,347.02,347.02,0.01,"423","3","93","322","150","149",10.34,"100577",83.45,  7.07 m/s,201°
695392.947051529,5912757.96236266,2022/12/21 12:12:57,"11",53.32790375,5.934311867,19.21,false,false,false,63.18,63.18,0.01,"425","3","92","322","149","149",10.32,"100597",83.45,  8.08 m/s,214°
695392.851781522,5912757.95844607,2022/12/21 12:12:58,"12",53.32790375,5.934310436,19.07,false,false,false,69.08,69.08,0.01,"433","5","92","322","149","148",10.32,"100600",75.07,  8.08 m/s,214°
695393.723283575,5912758.41868551,2022/12/21 12:12:59,"13",53.32790756,5.934323788,19,false,false,false,68.62,68.62,0.01,"438","5","91","321","149","149",10.31,"100600",75.07,  8.08 m/s,214°
695396.259825099,5912759.37290201,2022/12/21 12:13:00,"14",53.32791519,5.934362412,18.91,false,false,false,69.47,69.47,0.01,"451","7","91","321","149","148",10.3,"100600",75.07,  8.08 m/s,214°
695399.826471151,5912760.79499491,2022/12/21 12:13:01,"15",53.32792664,5.934416771,18.88,false,false,false,69.09,69.09,0.01,"442","6","91","321","148","148",10.3,"100599",83.45,  8.08 m/s,214°
695403.820201465,5912762.65794689,2022/12/21 12:13:01,"16",53.32794189,5.934477806,18.88,false,false,false,69.1,69.1,0.01,"442","6","90","320","148","149",10.28,"100600",75.07,  8.08 m/s,214°
695408.321855962,5912764.54289901,2022/12/21 12:13:03,"17",53.32795715,5.934546471,18.87,false,false,false,69.06,69.06,0.01,"442","6","89","321","149","148",10.26,"100602",75.07,  8.08 m/s,214°
695413.077426869,5912766.43829532,2022/12/21 12:13:04,"18",53.32797241,5.93461895,18.85,false,false,false,69.68,69.68,0.01,"444","6","89","321","148","148",10.25,"100608",75.07,  8.08 m/s,214°
695417.974244348,5912768.76502973,2022/12/21 12:13:05,"19",53.32799149,5.934693813,18.84,false,false,false,69.45,69.45,0.01,"451","7","88","321","148","148",10.25,"100606",75.07,  8.08 m/s,214°
695422.793366553,5912770.66193528,2022/12/21 12:13:06,"20",53.32800674,5.934767246,18.82,false,false,false,69.54,69.54,0.01,"447","7","88","320","148","147",10.25,"100605",75.07,  8.08 m/s,214°
695427.421966549,5912772.55212603,2022/12/21 12:13:07,"21",53.328022,5.934837818,18.83,false,false,false,69.39,69.39,0.01,"444","6","88","321","147","147",10.27,"100602",75.07,  8.08 m/s,214°
695432.018806522,5912774.44101557,2022/12/21 12:13:08,"22",53.32803726,5.934907913,18.83,false,false,false,69.63,69.63,0.01,"444","6","87","321","147","147",10.28,"100603",75.07,  8.08 m/s,214°
695436.55219653,5912776.32730073,2022/12/21 12:13:09,"23",53.32805252,5.934977055,18.84,false,false,false,69.51,69.51,0.01,"444","6","88","320","147","147",10.26,"100605",75.07,  8.08 m/s,214°
695440.768084317,5912778.2005345,2022/12/21 12:13:10,"24",53.32806778,5.935041428,18.85,false,false,false,69.12,69.12,0.01,"451","7","87","321","147","147",10.24,"100602",75.07,  8.08 m/s,214°
695445.474450586,5912780.5183534,2022/12/21 12:13:11,"25",53.32808685,5.93511343,18.84,false,false,false,69.2,69.2,0.01,"447","7","86","320","147","147",10.22,"100607",75.07,  8.08 m/s,214°
695449.912560524,5912782.40073391,2022/12/21 12:13:12,"26",53.32810211,5.935181141,18.83,false,false,false,69.68,69.68,0.01,"442","6","87","320","147","147",10.2,"100604",75.07,  5.50 m/s,192°
695454.668099019,5912784.29617262,2022/12/21 12:13:12,"27",53.32811737,5.93525362,18.86,false,false,false,69.62,69.62,0.01,"442","6","86","321","147","147",10.13,"100604",75.07,  5.50 m/s,192°
695459.391944045,5912786.19031294,2022/12/21 12:13:14,"28",53.32813263,5.935325623,18.85,false,false,false,69.73,69.73,0.01,"442","6","86","321","146","147",10.11,"100603",75.07,  5.50 m/s,192°
695464.147475444,5912788.08576131,2022/12/21 12:13:15,"29",53.32814789,5.935398102,18.81,false,false,false,69.1,69.1,0.01,"444","6","86","320","146","148",10.09,"100604",75.07,  5.50 m/s,192°
695468.949090969,5912790.40752198,2022/12/21 12:13:16,"30",53.32816696,5.935471535,18.81,false,false,false,69.45,69.45,0.01,"451","7","86","321","146","148",10.06,"100610",75.07,  5.50 m/s,192°
695473.482386216,5912792.29384032,2022/12/21 12:13:17,"31",53.32818222,5.935540676,18.82,false,false,false,69.98,69.98,0.01,"444","6","85","320","145","148",10.1,"100608",75.07,  8.83 m/s,195°
695476.699845325,5912793.70051862,2022/12/21 12:13:18,"32",53.32819366,5.93558979,18.81,false,false,false,70.12,70.12,0.01,"442","6","86","321","145","147",10.07,"100608",75.07,  8.83 m/s,195°
695477.144302375,5912793.7187985,2022/12/21 12:13:19,"33",53.32819366,5.935596466,18.79,false,false,false,21.67,21.67,0.01,"438","5","85","317","145","148",10.05,"100583",83.45,  8.83 m/s,195°
695476.668155458,5912793.69921526,2022/12/21 12:13:20,"34",53.32819366,5.935589314,18.8,false,false,false,293.91,293.91,0.01,"433","5","85","321","145","148",10.03,"100576",83.45,  8.83 m/s,195°
695476.350657604,5912793.68615705,2022/12/21 12:13:21,"35",53.32819366,5.935584545,18.81,false,false,false,256.73,256.73,0.01,"442","6","85","321","145","147",9.99,"100566",83.45,  8.83 m/s,195°
695475.542682246,5912793.2285143,2022/12/21 12:13:22,"36",53.32818985,5.935572147,18.82,false,false,false,256.07,256.07,0.01,"423","3","85","321","145","147",9.86,"100565",83.45,  8.83 m/s,195°
695473.591940606,5912792.72387203,2022/12/21 12:13:23,"37",53.32818604,5.935542584,18.84,false,false,false,255.93,255.93,0.01,"421","3","84","321","145","147",9.74,"100559",83.45,  8.83 m/s,195°
695470.484013883,5912791.74611271,2022/12/21 12:13:24,"38",53.32817841,5.935495377,18.81,false,false,false,254.96,254.96,0.01,"421","3","84","320","145","147",9.63,"100565",83.45,  8.83 m/s,195°
695466.949099502,5912790.32526906,2022/12/21 12:13:25,"39",53.32816696,5.935441494,18.83,false,false,false,254.87,254.87,0.01,"413","1","83","321","144","147",9.52,"100561",83.45,  8.83 m/s,195°
695462.888808856,5912789.30834767,2022/12/21 12:13:26,"40",53.32815933,5.935379982,18.8,false,false,false,255.18,255.18,0.01,"421","3","83","321","144","146",9.42,"100557",83.45,  8.83 m/s,195°
695458.179254683,5912787.84031718,2022/12/21 12:13:27,"41",53.32814789,5.935308456,18.77,false,false,false,255.4,255.4,0.01,"407","1","82","321","144","147",9.26,"100550",83.45,  8.83 m/s,195°
695453.103152393,5912786.78162971,2022/12/21 12:13:28,"42",53.32814026,5.935231686,18.71,false,false,false,256.2,256.2,0.01,"400","0","82","321","143","147",9.1,"100531",83.45,  8.83 m/s,195°
695448.012694197,5912785.29683161,2022/12/21 12:13:29,"43",53.32812881,5.935154438,18.69,false,false,false,256.38,256.38,0.01,"403","0","82","320","143","146",8.97,"100532",83.45,  8.83 m/s,195°
695443.222217208,5912784.25101452,2022/12/21 12:13:30,"44",53.32812119,5.935081959,18.69,false,false,false,256.28,256.28,0.01,"400","0","81","321","143","146",8.84,"100530",83.45,  8.83 m/s,195°
695438.449252355,5912782.77928277,2022/12/21 12:13:31,"45",53.32810974,5.93500948,18.7,false,false,false,255.94,255.94,0.01,"400","0","81","321","143","147",8.73,"100542",83.45,  8.83 m/s,195°
695433.549213012,5912781.30344471,2022/12/21 12:13:32,"46",53.3280983,5.934935093,18.71,false,false,false,255.34,255.34,0.01,"408","1","81","322","143","146",8.66,"100546",83.45,  8.83 m/s,195°
695428.680973166,5912779.82780549,2022/12/21 12:13:33,"47",53.32808685,5.934861183,18.7,false,false,false,255.54,255.54,0.01,"403","0","80","322","143","147",8.59,"100546",83.45,  8.83 m/s,195°
695423.590522243,5912778.34414868,2022/12/21 12:13:34,"48",53.32807541,5.934783936,18.65,false,false,false,255.26,255.26,0.01,"403","0","80","322","143","146",8.53,"100545",83.45,  8.83 m/s,195°
695419.00795262,5912776.88026568,2022/12/21 12:13:35,"49",53.32806396,5.934714317,18.65,false,false,false,255.32,255.32,0.01,"408","1","80","321","143","146",8.47,"100544",83.45,  8.83 m/s,195°
695414.203171959,5912775.40836496,2022/12/21 12:13:36,"50",53.32805252,5.934641361,18.61,false,false,false,255.44,255.44,0.01,"405","0","80","322","142","146",8.38,"100529",83.45,  8.83 m/s,195°
695409.43014516,5912773.93777481,2022/12/21 12:13:37,"51",53.32804108,5.934568882,18.58,false,false,false,255.98,255.98,0.01,"413","1","79","321","142","147",8.33,"100534",83.45,  9.20 m/s,196°
695404.59364825,5912772.46346624,2022/12/21 12:13:38,"52",53.32802963,5.934495449,18.56,false,false,false,255.94,255.94,0.01,"400","0","79","321","141","146",8.28,"100542",83.45,  9.20 m/s,196°
695399.771440495,5912771.41527577,2022/12/21 12:13:39,"53",53.328022,5.934422493,18.54,false,false,false,255.96,255.96,0.01,"400","0","78","323","141","146",8.23,"100537",83.45,  9.20 m/s,196°
695394.903136281,5912769.94078367,2022/12/21 12:13:40,"54",53.32801056,5.934348583,18.51,false,false,false,255.2,255.2,0.01,"400","0","78","322","141","146",8.19,"100547",83.45,  9.20 m/s,196°
695390.08404975,5912768.04279458,2022/12/21 12:13:41,"55",53.3279953,5.93427515,18.49,false,false,false,255.15,255.15,0.01,"400","0","77","322","141","146",8.14,"100544",83.45,  9.20 m/s,196°
695385.247496235,5912766.56961803,2022/12/21 12:13:42,"56",53.32798386,5.934201717,18.48,false,false,false,255.23,255.23,0.01,"411","1","76","321","141","146",8.1,"100543",83.45,  7.67 m/s,196°
695380.457036005,5912765.52275286,2022/12/21 12:13:43,"57",53.32797623,5.934129238,18.46,false,false,false,255.09,255.09,0.01,"400","0","76","323","141","146",8.07,"100544",83.45,  7.67 m/s,196°
695375.479223448,5912763.61825431,2022/12/21 12:13:44,"58",53.32796097,5.934053421,18.45,false,false,false,255.22,255.22,0.01,"402","0","76","323","141","146",8.03,"100540",83.45,  7.67 m/s,196°
695370.783962001,5912762.57531251,2022/12/21 12:13:45,"59",53.32795334,5.933982372,18.4,false,false,false,255.95,255.95,0.01,"400","0","77","322","140","145",7.98,"100539",83.45,  7.67 m/s,196°
695365.947443771,5912761.10104379,2022/12/21 12:13:46,"60",53.32794189,5.933908939,18.39,false,false,false,256.51,256.51,0.01,"400","0","76","322","140","146",7.94,"100528",83.45,  7.67 m/s,196°
695361.283955821,5912760.06053163,2022/12/21 12:13:47,"61",53.32793427,5.933838368,18.35,false,false,false,256.84,256.84,0.01,"410","1","76","322","140","145",7.92,"100528",83.45,  10.95 m/s,194°
695356.415675983,5912758.58496741,2022/12/21 12:13:48,"62",53.32792282,5.933764458,18.34,false,false,false,256.31,256.31,0.01,"406","0","75","323","140","146",7.9,"100532",83.45,  10.95 m/s,194°
695351.38863093,5912757.10399678,2022/12/21 12:13:49,"63",53.32791138,5.933688164,18.32,false,false,false,256.12,256.12,0.01,"403","0","75","322","140","146",7.89,"100533",83.45,  10.95 m/s,194°
695346.679062377,5912755.6349662,2022/12/21 12:13:50,"64",53.32789993,5.933616638,18.29,false,false,false,256.08,256.08,0.01,"400","0","74","322","140","145",7.86,"100531",83.45,  10.95 m/s,194°
695342.032958842,5912754.1696628,2022/12/21 12:13:51,"65",53.32788849,5.933546066,18.3,false,false,false,255.95,255.95,0.01,"403","0","75","323","140","145",7.84,"100528",83.45,  10.95 m/s,194°
695337.259938193,5912752.69803404,2022/12/21 12:13:52,"66",53.32787704,5.933473587,18.31,false,false,false,254.9,254.9,0.01,"406","0","74","323","139","145",7.83,"100545",83.45,  9.87 m/s,197°
695332.45511245,5912751.22621708,2022/12/21 12:13:53,"67",53.3278656,5.933400631,18.27,false,false,false,255.14,255.14,0.01,"414","2","74","323","139","145",7.79,"100532",83.45,  9.87 m/s,197°
695327.491567011,5912749.74788232,2022/12/21 12:13:54,"68",53.32785416,5.933325291,18.21,false,false,false,255.51,255.51,0.01,"403","0","74","323","139","145",7.76,"100540",83.45,  9.87 m/s,197°
695322.955001154,5912748.71151103,2022/12/21 12:13:55,"69",53.32784653,5.933256626,18.18,false,false,false,256.29,256.29,0.01,"400","0","73","322","139","145",7.74,"100523",83.45,  9.87 m/s,197°
695318.086700018,5912747.2359866,2022/12/21 12:13:56,"70",53.32783508,5.933182716,18.17,false,false,false,256.33,256.33,0.01,"400","0","73","323","139","146",7.72,"100528",83.45,  9.87 m/s,197°
695313.313620657,5912745.76549427,2022/12/21 12:13:57,"71",53.32782364,5.933110237,18.17,false,false,false,255.97,255.97,0.01,"400","0","74","322","138","145",7.7,"100533",83.45,  11.56 m/s,199°
695308.508827563,5912744.29258978,2022/12/21 12:13:58,"72",53.32781219,5.933037281,18.16,false,false,false,256.12,256.12,0.01,"416","2","73","322","138","145",7.69,"100526",83.45,  11.56 m/s,199°
695303.608715798,5912742.81688748,2022/12/21 12:13:59,"73",53.32780075,5.932962894,18.15,false,false,false,255.69,255.69,0.01,"400","0","73","322","138","145",7.67,"100534",83.45,  11.56 m/s,199°
695298.772181383,5912741.34380283,2022/12/21 12:13:59,"74",53.32778931,5.932889462,18.14,false,false,false,256.02,256.02,0.01,"402","0","73","323","138","145",7.66,"100529",83.45,  11.56 m/s,199°
695293.840353041,5912739.86569377,2022/12/21 12:14:01,"75",53.32777786,5.932814598,18.12,false,false,false,255.96,255.96,0.01,"400","0","72","323","138","145",7.64,"100532",83.45,  11.56 m/s,199°
695289.049851205,5912738.81892177,2022/12/21 12:14:01,"76",53.32777023,5.932742119,18.09,false,false,false,255.18,255.18,0.01,"402","0","72","323","137","144",7.63,"100534",83.45,  11.56 m/s,199°
695285.165613306,5912737.38497983,2022/12/21 12:14:01,"77",53.32775879,5.932682991,18.1,false,false,false,255.23,255.23,0.01,"416","2","73","324","138","145",7.63,"100541",83.45,  11.56 m/s,199°
695282.481566637,5912737.69911075,2022/12/21 12:14:01,"78",53.3277626,5.932642937,18.07,false,false,false,286.54,286.54,0.01,"416","2","72","324","138","145",7.65,"100565",83.45,  11.56 m/s,199°
695280.376968635,5912740.16244695,2022/12/21 12:14:01,"79",53.32778549,5.932612896,18.06,false,false,false,331.89,331.89,0.01,"432","4","73","324","137","145",7.72,"100575",83.45,  11.56 m/s,199°
695279.62003899,5912743.10556548,2022/12/21 12:14:01,"80",53.32781219,5.932603359,18,false,false,false,348.91,348.91,0.01,"424","3","73","324","138","145",7.8,"100571",83.45,  11.56 m/s,199°
695280.831315974,5912746.13066473,2022/12/21 12:14:07,"81",53.3278389,5.932623386,18.01,false,false,false,36.4,36.4,0.01,"424","3","73","324","136","145",7.87,"100603",75.07,  9.74 m/s,200°
695283.840994714,5912747.95419501,2022/12/21 12:14:08,"82",53.32785416,5.93266964,18.01,false,false,false,74.1,74.1,0.01,"432","4","72","324","137","144",7.94,"100623",75.07,  9.74 m/s,200°
695287.04418493,5912748.93574252,2022/12/21 12:14:09,"83",53.32786179,5.932718277,18.05,false,false,false,74.65,74.65,0.01,"436","5","73","324","137","145",8.01,"100624",75.07,  9.74 m/s,200°
695291.02679006,5912749.52379259,2022/12/21 12:14:09,"84",53.3278656,5.932778359,18.08,false,false,false,75.74,75.74,0.01,"444","6","73","323","136","145",8.08,"100617",75.07,  9.74 m/s,200°
695295.704600879,5912750.99034785,2022/12/21 12:14:11,"85",53.32787704,5.932849407,18.06,false,false,false,75.42,75.42,0.01,"450","7","73","324","137","144",8.14,"100619",75.07,  9.74 m/s,200°
695300.445943332,5912752.46063239,2022/12/21 12:14:12,"86",53.32788849,5.93292141,18.07,false,false,false,75.9,75.9,0.01,"444","6","72","324","136","144",8.19,"100622",75.07,  9.74 m/s,200°
695305.663479324,5912753.94937563,2022/12/21 12:14:12,"87",53.32789993,5.933000565,18.09,false,false,false,75.94,75.94,0.01,"446","7","73","324","136","144",8.23,"100616",75.07,  9.74 m/s,200°
695310.563466521,5912755.42618967,2022/12/21 12:14:12,"88",53.32791138,5.933074951,18.12,false,false,false,75.97,75.97,0.01,"446","7","72","324","136","144",8.28,"100618",75.07,  9.74 m/s,200°
695315.322257872,5912756.47168157,2022/12/21 12:14:15,"89",53.32791901,5.933146954,18.13,false,false,false,75.79,75.79,0.01,"446","7","73","324","136","144",8.32,"100615",75.07,  9.74 m/s,200°
695320.2540424,5912757.94869867,2022/12/21 12:14:16,"90",53.32793045,5.933221817,18.16,false,false,false,76.07,76.07,0.01,"463","9","72","323","136","144",8.36,"100613",75.07,  9.74 m/s,200°
695325.027107484,5912759.41919831,2022/12/21 12:14:17,"91",53.32794189,5.933294296,18.21,false,false,false,75.92,75.92,0.01,"450","7","72","324","136","144",8.41,"100613",75.07,  9.82 m/s,206°
695329.831880821,5912760.89211997,2022/12/21 12:14:18,"92",53.32795334,5.933367252,18.23,false,false,false,76.01,76.01,0.01,"455","8","72","323","136","144",8.44,"100609",75.07,  9.82 m/s,206°
695334.636697158,5912762.3639345,2022/12/21 12:14:19,"93",53.32796478,5.933440208,18.23,false,false,false,76.19,76.19,0.01,"455","8","72","323","136","144",8.48,"100617",75.07,  9.82 m/s,206°
695339.236761145,5912763.40292765,2022/12/21 12:14:20,"94",53.32797241,5.933509827,18.26,false,false,false,75.79,75.79,0.01,"455","8","71","323","135","144",8.51,"100621",75.07,  9.82 m/s,206°
695343.978013641,5912764.87325346,2022/12/21 12:14:21,"95",53.32798386,5.933581829,18.28,false,false,false,75.84,75.84,0.01,"463","9","72","323","135","144",8.53,"100620",75.07,  9.82 m/s,206°
695348.973295449,5912766.35291117,2022/12/21 12:14:22,"96",53.3279953,5.933657646,18.3,false,false,false,75.94,75.94,0.01,"461","9","73","324","135","144",8.57,"100618",75.07,  8.74 m/s,197°
695353.555871834,5912767.81561116,2022/12/21 12:14:23,"97",53.32800674,5.933727264,18.33,false,false,false,75.89,75.89,0.01,"459","8","73","324","135","143",8.57,"100614",75.07,  8.74 m/s,197°
695358.551169004,5912769.29639386,2022/12/21 12:14:23,"98",53.32801819,5.933803082,18.35,false,false,false,75.92,75.92,0.01,"459","8","73","323","135","144",8.59,"100618",75.07,  8.74 m/s,197°
695363.41941618,5912770.77084574,2022/12/21 12:14:25,"99",53.32802963,5.933876991,18.38,false,false,false,75.97,75.97,0.01,"459","8","72","324","135","144",8.61,"100612",75.07,  8.74 m/s,197°
695368.28768148,5912772.24641748,2022/12/21 12:14:26,"100",53.32804108,5.933950901,18.41,false,false,false,76.1,76.1,0.01,"465","9","73","324","135","144",8.62,"100614",75.07,  8.74 m/s,197°
695373.155989753,5912773.72088221,2022/12/21 12:14:27,"101",53.32805252,5.934024811,18.42,false,false,false,76.05,76.05,0.01,"463","9","73","323","134","143",8.65,"100609",75.07,  9.28 m/s,207°
695378.009955804,5912774.77035105,2022/12/21 12:14:28,"102",53.32806015,5.934098244,18.44,false,false,false,75.97,75.97,0.01,"461","9","72","323","134","144",8.68,"100610",75.07,  9.28 m/s,207°
695382.81474596,5912776.24221493,2022/12/21 12:14:29,"103",53.32807159,5.9341712,18.46,false,false,false,75.99,75.99,0.01,"459","8","73","323","135","144",8.71,"100612",75.07,  9.28 m/s,207°
695387.555974624,5912777.7125848,2022/12/21 12:14:30,"104",53.32808304,5.934243202,18.48,false,false,false,75.89,75.89,0.01,"461","9","72","323","134","144",8.74,"100617",75.07,  9.28 m/s,207°
695392.424272446,5912779.18706953,2022/12/21 12:14:31,"105",53.32809448,5.934317112,18.49,false,false,false,76.01,76.01,0.01,"461","9","72","324","134","144",8.75,"100619",75.07,  9.28 m/s,207°
695397.197252257,5912780.65875468,2022/12/21 12:14:32,"106",53.32810593,5.934389591,18.52,false,false,false,76.02,76.02,0.01,"472","10","72","323","134","143",8.76,"100615",75.07,  10.07 m/s,203°
695401.843315642,5912782.12411299,2022/12/21 12:14:33,"107",53.32811737,5.934460163,18.55,false,false,false,75.99,75.99,0.01,"459","8","72","323","134","143",8.77,"100613",75.07,  10.07 m/s,203°
695406.870321261,5912783.60513795,2022/12/21 12:14:34,"108",53.32812881,5.934536457,18.58,false,false,false,75.99,75.99,0.01,"459","8","72","323","133","144",8.78,"100612",75.07,  10.07 m/s,203°
695411.629068904,5912784.65072737,2022/12/21 12:14:35,"109",53.32813644,5.93460846,18.61,false,false,false,75.97,75.97,0.01,"461","9","72","324","134","144",8.79,"100607",75.07,  10.07 m/s,203°
695416.275012442,5912786.1172093,2022/12/21 12:14:36,"110",53.32814789,5.934679031,18.62,false,false,false,75.99,75.99,0.01,"463","9","72","324","133","144",8.79,"100609",75.07,  10.07 m/s,203°
695421.048091566,5912787.5878094,2022/12/21 12:14:37,"111",53.32815933,5.934751511,18.63,false,false,false,75.78,75.78,0.01,"481","12","72","324","133","144",8.81,"100610",75.07,  8.03 m/s,204°
695425.821055706,5912789.05952368,2022/12/21 12:14:38,"112",53.32817078,5.93482399,18.65,false,false,false,75.89,75.89,0.01,"465","9","73","324","134","144",8.82,"100607",75.07,  8.03 m/s,204°
695430.848047967,5912790.54057433,2022/12/21 12:14:38,"113",53.32818222,5.934900284,18.67,false,false,false,75.72,75.72,0.01,"463","9","72","324","133","144",8.81,"100605",75.07,  8.03 m/s,204°
695435.606718235,5912791.58618529,2022/12/21 12:14:38,"114",53.32818985,5.934972286,18.69,false,false,false,75.78,75.78,0.01,"461","9","72","324","134","145",8.81,"100606",75.07,  8.03 m/s,204°
695440.633705374,5912793.06724641,2022/12/21 12:14:41,"115",53.32820129,5.93504858,18.71,false,false,false,76.52,76.52,0.01,"463","9","73","324","133","145",8.83,"100606",75.07,  8.03 m/s,204°
695445.501928366,5912794.54289828,2022/12/21 12:14:42,"116",53.32821274,5.93512249,18.72,false,false,false,76.17,76.17,0.01,"477","11","72","324","134","145",8.85,"100609",75.07,  7.97 m/s,212°
695450.306681501,5912796.01483131,2022/12/21 12:14:43,"117",53.32822418,5.935195446,18.74,false,false,false,76.09,76.09,0.01,"477","11","73","324","133","144",8.85,"100607",75.07,  7.97 m/s,212°
695455.079629787,5912797.48657537,2022/12/21 12:14:44,"118",53.32823563,5.935267925,18.76,false,false,false,75.9,75.9,0.01,"465","9","73","324","133","144",8.87,"100609",75.07,  7.97 m/s,212°
695459.884377526,5912798.95851821,2022/12/21 12:14:45,"119",53.32824707,5.935340881,18.8,false,false,false,76.02,76.02,0.01,"465","9","72","324","133","145",8.88,"100602",75.07,  7.97 m/s,212°
695464.625676345,5912800.42785668,2022/12/21 12:14:46,"120",53.32825851,5.935412884,18.8,false,false,false,75.68,75.68,0.01,"472","10","72","324","132","145",8.88,"100607",75.07,  7.97 m/s,212°
695468.844672379,5912801.45130727,2022/12/21 12:14:47,"121",53.32826614,5.93547678,18.82,false,false,false,76.6,76.6,0.01,"477","11","72","324","133","144",8.88,"100601",75.07,  7.03 m/s,192°
695471.268437235,5912802.82645399,2022/12/21 12:14:48,"122",53.32827759,5.935513973,18.8,false,false,false,55.32,55.32,0.01,"477","11","73","324","133","144",8.88,"100602",75.07,  7.03 m/s,192°
695472.052658711,5912805.40852119,2022/12/21 12:14:49,"123",53.32830048,5.935527325,18.87,false,false,false,5.54,5.54,0.01,"477","11","73","324","133","145",8.9,"100602",75.07,  7.03 m/s,192°
695470.97818472,5912808.33855675,2022/12/21 12:14:50,"124",53.32832718,5.93551302,18.88,false,false,false,343.48,343.48,0.01,"465","9","73","324","132","145",8.91,"100583",83.45,  7.03 m/s,192°
695468.714796343,5912810.79528374,2022/12/21 12:14:51,"125",53.32835007,5.935480595,18.9,false,false,false,306.98,306.98,0.01,"472","10","73","324","133","144",8.95,"100571",83.45,  7.03 m/s,192°
695465.427534744,5912811.08450144,2022/12/21 12:14:52,"126",53.32835388,5.93543148,18.9,false,false,false,263.46,263.46,0,"465","9","74","324","133","145",8.89,"100563",83.45,  7.03 m/s,192°
695462.143433467,5912810.52502738,2022/12/21 12:14:53,"127",53.32835007,5.935381889,18.89,false,false,false,256.34,256.34,0,"477","11","73","324","133","145",8.82,"100565",83.45,  7.03 m/s,192°
695458.291101277,5912809.09113535,2022/12/21 12:14:54,"128",53.32833862,5.935323238,18.87,false,false,false,255.56,255.56,0,"450","7","73","324","132","145",8.74,"100561",83.45,  7.03 m/s,192°
695453.849882676,5912808.05855513,2022/12/21 12:14:55,"129",53.32833099,5.935256004,18.88,false,false,false,255.18,255.18,0,"446","7","73","324","132","145",8.67,"100560",83.45,  7.03 m/s,192°
695449.235614464,5912806.59445095,2022/12/21 12:14:56,"130",53.32831955,5.935185909,18.86,false,false,false,254.71,254.71,0,"444","6","72","324","132","145",8.58,"100555",83.45,  7.03 m/s,192°
695444.24040047,5912805.11468621,2022/12/21 12:14:57,"131",53.32830811,5.935110092,18.79,false,false,false,255.09,255.09,0,"444","6","73","325","132","145",8.5,"100544",83.45,  7.03 m/s,192°
695439.118270484,5912803.62859407,2022/12/21 12:14:58,"132",53.32829666,5.935032368,18.84,false,false,false,255.43,255.43,0,"455","8","73","324","132","145",8.42,"100548",83.45,  7.03 m/s,192°
695434.281766153,5912802.15536643,2022/12/21 12:14:59,"133",53.32828522,5.934958935,18.79,false,false,false,256.6,256.6,0,"432","4","72","324","132","144",8.36,"100539",83.45,  7.03 m/s,192°
695429.54050742,5912800.68494632,2022/12/21 12:15:00,"134",53.32827377,5.934886932,18.79,false,false,false,256.13,256.13,0,"424","3","72","324","131","144",8.27,"100534",83.45,  7.03 m/s,192°
695424.718332703,5912799.63672975,2022/12/21 12:15:01,"135",53.32826614,5.934813976,18.76,false,false,false,256.42,256.42,0,"424","3","71","323","132","144",8.2,"100528",83.45,  7.03 m/s,192°
695420.008846302,5912798.16873982,2022/12/21 12:15:02,"136",53.3282547,5.934742451,18.75,false,false,false,255.79,255.79,0,"421","3","71","323","131","144",8.13,"100531",83.45,  10.26 m/s,198°
695415.235844426,5912796.69814324,2022/12/21 12:15:03,"137",53.32824326,5.934669972,18.75,false,false,false,255.74,255.74,0,"424","3","71","323","131","144",8.06,"100529",83.45,  10.26 m/s,198°
695410.462819013,5912795.22643673,2022/12/21 12:15:04,"138",53.32823181,5.934597492,18.72,false,false,false,256.16,256.16,0,"420","3","70","322","130","144",8,"100524",83.45,  10.26 m/s,198°
695405.753324631,5912793.75846112,2022/12/21 12:15:05,"139",53.32822037,5.934525967,18.68,false,false,false,256.34,256.34,0,"411","1","70","324","130","144",7.93,"100520",83.45,  10.26 m/s,198°
695400.916847558,5912792.28415583,2022/12/21 12:15:06,"140",53.32820892,5.934452534,18.69,false,false,false,255.91,255.91,0,"409","1","70","324","131","143",7.87,"100518",83.45,  10.26 m/s,198°
695396.016809144,5912790.80835647,2022/12/21 12:15:07,"141",53.32819748,5.934378147,18.67,false,false,false,255.86,255.86,0,"409","1","70","324","131","144",7.82,"100529",83.45,  10.82 m/s,200°
695391.116834549,5912789.33256497,2022/12/21 12:15:08,"142",53.32818604,5.934303761,18.64,false,false,false,255.8,255.8,0,"411","1","69","325","131","144",7.78,"100530",83.45,  10.82 m/s,200°
695386.343795634,5912787.86088301,2022/12/21 12:15:09,"143",53.32817459,5.934231281,18.63,false,false,false,255.32,255.32,0,"411","1","69","324","130","144",7.72,"100530",83.45,  10.82 m/s,200°
695381.475572038,5912786.38640708,2022/12/21 12:15:10,"144",53.32816315,5.934157372,18.62,false,false,false,255.64,255.64,0,"402","0","69","325","131","144",7.69,"100534",83.45,  10.82 m/s,200°
695376.575568354,5912784.90951597,2022/12/21 12:15:11,"145",53.3281517,5.934082985,18.58,false,false,false,255.72,255.72,0,"406","0","68","324","130","144",7.65,"100537",83.45,  10.82 m/s,200°
695371.753369122,5912783.86135375,2022/12/21 12:15:12,"146",53.32814407,5.934010029,18.54,false,false,false,256.09,256.09,0,"400","0","69","324","131","144",7.62,"100536",83.45,  9.02 m/s,201°
695366.948584186,5912782.38950093,2022/12/21 12:15:13,"147",53.32813263,5.933937073,18.59,false,false,false,254.96,254.96,0,"402","0","69","325","130","144",7.59,"100549",83.45,  9.02 m/s,201°
695362.129501437,5912780.49154012,2022/12/21 12:15:14,"148",53.32811737,5.93386364,18.6,false,false,false,254.29,254.29,0,"413","1","68","325","130","143",7.54,"100554",83.45,  9.02 m/s,201°
695357.339051919,5912779.44469801,2022/12/21 12:15:15,"149",53.32810974,5.933791161,18.56,false,false,false,255.17,255.17,0.01,"407","1","69","325","130","143",7.5,"100548",83.45,  9.02 m/s,201°
695352.629461887,5912777.97677302,2022/12/21 12:15:16,"150",53.3280983,5.933719635,18.55,false,false,false,255.23,255.23,0.01,"413","1","68","325","130","144",7.48,"100550",83.45,  9.02 m/s,201°
695347.792955338,5912776.50252252,2022/12/21 12:15:17,"151",53.32808685,5.933646202,18.52,false,false,false,255.64,255.64,0.01,"409","1","69","325","130","144",7.47,"100551",83.45,  8.18 m/s,195°
695342.924643813,5912775.02808386,2022/12/21 12:15:18,"152",53.32807541,5.933572292,18.48,false,false,false,255.8,255.8,0.01,"418","2","69","325","129","144",7.47,"100550",83.45,  8.18 m/s,195°
695337.911956405,5912773.97212791,2022/12/21 12:15:19,"153",53.32806778,5.933496475,18.46,false,false,false,256.42,256.42,0.01,"427","4","68","325","130","144",7.47,"100542",83.45,  8.18 m/s,195°
695333.329382296,5912772.50944296,2022/12/21 12:15:20,"154",53.32805634,5.933426857,18.44,false,false,false,255.43,255.43,0.01,"416","2","68","325","129","144",7.46,"100539",83.45,  8.18 m/s,195°
695328.492865317,5912771.03521234,2022/12/21 12:15:21,"155",53.32804489,5.933353424,18.45,false,false,false,256.09,256.09,0.01,"418","2","69","324","130","144",7.47,"100545",83.45,  8.18 m/s,195°
695323.497583584,5912769.55557618,2022/12/21 12:15:22,"156",53.32803345,5.933277607,18.41,false,false,false,255.71,255.71,0.01,"418","2","68","324","129","144",7.47,"100542",83.45,  9.18 m/s,196°
695318.692817705,5912768.08266074,2022/12/21 12:15:23,"157",53.328022,5.933204651,18.39,false,false,false,255.62,255.62,0.01,"418","2","68","325","129","144",7.46,"100542",83.45,  9.18 m/s,196°
695313.888003422,5912766.61086229,2022/12/21 12:15:24,"158",53.32801056,5.933131695,18.35,false,false,false,255.82,255.82,0.01,"418","2","69","325","129","143",7.45,"100542",83.45,  9.18 m/s,196°
695309.034018953,5912765.56145941,2022/12/21 12:15:25,"159",53.32800293,5.933058262,18.34,false,false,false,255.28,255.28,0.01,"416","2","68","324","129","144",7.44,"100547",83.45,  9.18 m/s,196°
695304.246655829,5912763.66486316,2022/12/21 12:15:26,"160",53.32798767,5.932985306,18.33,false,false,false,255.3,255.3,0.01,"423","3","68","325","129","144",7.43,"100549",83.45,  9.18 m/s,196°
695299.360910178,5912762.61416534,2022/12/21 12:15:27,"161",53.32798004,5.932911396,18.32,false,false,false,255.86,255.86,0.01,"427","4","68","324","128","143",7.43,"100544",83.45,  8.49 m/s,194°
695294.556085494,5912761.14238669,2022/12/21 12:15:28,"162",53.3279686,5.93283844,18.31,false,false,false,255.79,255.79,0.01,"423","3","68","325","129","143",7.44,"100548",83.45,  8.49 m/s,194°
695289.751303801,5912759.6695009,2022/12/21 12:15:29,"163",53.32795715,5.932765484,18.3,false,false,false,255.43,255.43,0.01,"418","2","68","325","129","143",7.43,"100545",83.45,  8.49 m/s,194°
695285.009920437,5912758.20033898,2022/12/21 12:15:30,"164",53.32794571,5.932693481,18.28,false,false,false,255.78,255.78,0.01,"418","2","68","325","128","144",7.43,"100543",83.45,  8.49 m/s,194°
695280.5051794,5912757.16531574,2022/12/21 12:15:31,"165",53.32793808,5.932625294,18.27,false,false,false,254.45,254.45,0.01,"426","3","68","324","128","143",7.43,"100546",83.45,  8.49 m/s,194°
695277.792446973,5912756.62944819,2022/12/21 12:15:32,"166",53.32793427,5.932584286,18.25,false,false,false,265.89,265.89,0.01,"439","5","68","325","128","143",7.43,"100552",83.45,  8.56 m/s,201°
695275.200510473,5912757.79730267,2022/12/21 12:15:33,"167",53.32794571,5.932546139,18.25,false,false,false,311.44,311.44,0.01,"433","5","68","325","129","144",7.47,"100574",83.45,  8.56 m/s,201°
695273.85471266,5912761.14175264,2022/12/21 12:15:34,"168",53.32797623,5.932528019,18.22,false,false,false,342.04,342.04,0.01,"444","6","68","325","128","144",7.56,"100577",83.45,  8.56 m/s,201°
695273.986707837,5912764.1213937,2022/12/21 12:15:35,"169",53.32800293,5.932531834,18.26,false,false,false,12.76,12.76,0.01,"444","6","67","324","128","143",7.63,"100589",83.45,  8.56 m/s,201°
695276.280456877,5912766.33991643,2022/12/21 12:15:36,"170",53.328022,5.932567596,18.28,false,false,false,60.74,60.74,0.01,"447","7","68","325","128","144",7.68,"100619",75.07,  8.56 m/s,201°
695279.561451394,5912767.75018117,2022/12/21 12:15:37,"171",53.32803345,5.932617664,18.3,false,false,false,74.88,74.88,0.01,"462","9","68","325","129","144",7.75,"100618",75.07,  8.56 m/s,201°
695283.131338673,5912768.32126841,2022/12/21 12:15:38,"172",53.32803726,5.932671547,18.33,false,false,false,75.62,75.62,0.01,"462","9","69","325","128","143",7.81,"100614",75.07,  8.56 m/s,201°
695287.699581667,5912769.35890405,2022/12/21 12:15:39,"173",53.32804489,5.932740688,18.34,false,false,false,75.6,75.6,0.01,"457","8","69","325","128","144",7.85,"100613",75.07,  8.56 m/s,201°
695292.2504344,5912770.82135458,2022/12/21 12:15:39,"174",53.32805634,5.93280983,18.35,false,false,false,75.51,75.51,0.01,"462","9","69","325","128","143",7.89,"100617",75.07,  8.56 m/s,201°
695297.245722362,5912772.30095774,2022/12/21 12:15:41,"175",53.32806778,5.932885647,18.38,false,false,false,75.95,75.95,0.01,"465","9","69","324","128","143",7.95,"100613",75.07,  8.56 m/s,201°
695302.145737864,5912773.77665144,2022/12/21 12:15:42,"176",53.32807922,5.932960033,18.42,false,false,false,75.61,75.61,0.01,"470","10","69","325","127","144",7.99,"100612",75.07,  8.56 m/s,201°
695307.045771488,5912775.25346506,2022/12/21 12:15:43,"177",53.32809067,5.93303442,18.46,false,false,false,75.9,75.9,0.01,"473","11","69","325","127","143",8.04,"100614",75.07,  8.56 m/s,201°
695311.867989648,5912776.30156114,2022/12/21 12:15:44,"178",53.3280983,5.933107376,18.49,false,false,false,76.04,76.04,0.01,"465","9","69","324","127","144",8.08,"100609",75.07,  8.56 m/s,201°
695316.609347876,5912777.77075047,2022/12/21 12:15:45,"179",53.32810974,5.933179379,18.51,false,false,false,75.81,75.81,0.01,"465","9","69","324","127","143",8.12,"100614",75.07,  8.56 m/s,201°
695321.509307167,5912779.24757645,2022/12/21 12:15:46,"180",53.32812119,5.933253765,18.55,false,false,false,75.82,75.82,0.01,"470","10","69","324","127","143",8.16,"100613",75.07,  8.56 m/s,201°
695326.441132482,5912780.72460332,2022/12/21 12:15:47,"181",53.32813263,5.933328629,18.58,false,false,false,75.94,75.94,0.01,"473","11","68","324","127","143",8.2,"100611",75.07,  9.45 m/s,201°
695331.245929032,5912782.19641488,2022/12/21 12:15:48,"182",53.32814407,5.933401585,18.61,false,false,false,75.77,75.77,0.01,"476","11","68","324","127","143",8.24,"100615",75.07,  9.45 m/s,201°
695336.082433664,5912783.67064859,2022/12/21 12:15:49,"183",53.32815552,5.933475018,18.64,false,false,false,75.95,75.95,0.01,"470","10","68","324","126","143",8.27,"100613",75.07,  9.45 m/s,201°
695340.85546832,5912785.14116485,2022/12/21 12:15:49,"184",53.32816696,5.933547497,18.63,false,false,false,75.72,75.72,0.01,"465","9","68","324","127","143",8.29,"100614",75.07,  9.45 m/s,201°
695345.723723995,5912786.61671369,2022/12/21 12:15:51,"185",53.32817841,5.933621407,18.63,false,false,false,76.2,76.2,0.01,"465","9","68","324","126","143",8.33,"100614",75.07,  9.45 m/s,201°
695350.655468985,5912788.09376329,2022/12/21 12:15:52,"186",53.32818985,5.93369627,18.65,false,false,false,76.03,76.03,0.01,"465","9","68","324","126","143",8.37,"100613",75.07,  10.48 m/s,208°
695355.477667112,5912789.14190411,2022/12/21 12:15:52,"187",53.32819748,5.933769226,18.68,false,false,false,76.21,76.21,0.01,"480","12","68","324","126","143",8.41,"100617",75.07,  10.48 m/s,208°
695360.219001512,5912790.61113753,2022/12/21 12:15:52,"188",53.32820892,5.933841229,18.69,false,false,false,75.92,75.92,0.01,"465","9","68","324","126","142",8.44,"100611",75.07,  10.48 m/s,208°
695364.960220959,5912792.08148506,2022/12/21 12:15:55,"189",53.32822037,5.933913231,18.71,false,false,false,75.92,75.92,0.01,"470","10","67","324","126","142",8.47,"100615",75.07,  10.48 m/s,208°
695369.860265588,5912793.55725223,2022/12/21 12:15:56,"190",53.32823181,5.933987618,18.73,false,false,false,76.1,76.1,0.01,"470","10","68","324","126","143",8.49,"100609",75.07,  10.48 m/s,208°
695374.555429406,5912794.60019111,2022/12/21 12:15:57,"191",53.32823944,5.934058666,18.74,false,false,false,75.99,75.99,0.01,"470","10","68","324","126","143",8.51,"100611",75.07,  9.23 m/s,205°
695379.264951417,5912796.06925043,2022/12/21 12:15:58,"192",53.32825089,5.934130192,18.76,false,false,false,76.07,76.07,0.01,"480","12","68","324","126","143",8.52,"100605",75.07,  9.23 m/s,205°
695384.291947374,5912797.55025171,2022/12/21 12:15:59,"193",53.32826233,5.934206486,18.78,false,false,false,76,76,0.01,"473","11","67","324","126","142",8.54,"100606",75.07,  9.23 m/s,205°
695389.096712319,5912799.02212255,2022/12/21 12:16:00,"194",53.32827377,5.934279442,18.81,false,false,false,76.09,76.09,0.01,"470","10","67","324","126","143",8.55,"100605",75.07,  9.23 m/s,205°
695393.933185228,5912800.4964159,2022/12/21 12:16:01,"195",53.32828522,5.934352875,18.85,false,false,false,75.9,75.9,0.01,"473","11","68","324","125","143",8.56,"100608",75.07,  9.23 m/s,205°
695398.579229455,5912801.96177148,2022/12/21 12:16:02,"196",53.32829666,5.934423447,18.86,false,false,false,76.04,76.04,0.01,"473","11","68","324","125","143",8.58,"100609",75.07,  9.23 m/s,205°
695403.542655866,5912803.44129431,2022/12/21 12:16:02,"197",53.32830811,5.934498787,18.88,false,false,false,76.09,76.09,0.01,"476","11","68","324","125","143",8.58,"100611",75.07,  9.23 m/s,205°
695408.379166347,5912804.91449051,2022/12/21 12:16:04,"198",53.32831955,5.93457222,18.88,false,false,false,76.15,76.15,0.01,"480","12","67","324","125","143",8.6,"100612",75.07,  9.23 m/s,205°
695413.152161412,5912806.38508035,2022/12/21 12:16:05,"199",53.32833099,5.934644699,18.89,false,false,false,75.91,75.91,0.01,"470","10","67","324","125","143",8.62,"100614",75.07,  9.23 m/s,205°
695417.942574603,5912807.4319796,2022/12/21 12:16:06,"200",53.32833862,5.934717178,18.9,false,false,false,76.07,76.07,0.01,"470","10","67","324","125","143",8.62,"100611",75.07,  9.23 m/s,205°
695422.779031674,5912808.9063027,2022/12/21 12:16:07,"201",53.32835007,5.934790611,18.94,false,false,false,76.01,76.01,0.01,"470","10","67","324","124","143",8.64,"100606",75.07,  8.98 m/s,204°
695427.679044396,5912810.38213027,2022/12/21 12:16:08,"202",53.32836151,5.934864998,18.96,false,false,false,75.86,75.86,0.01,"473","11","67","324","125","144",8.64,"100603",75.07,  8.98 m/s,204°
695432.32502469,5912811.84863134,2022/12/21 12:16:09,"203",53.32837296,5.93493557,18.97,false,false,false,75.66,75.66,0.01,"485","12","68","325","125","143",8.63,"100604",75.07,  8.98 m/s,204°
695437.288478006,5912813.32707782,2022/12/21 12:16:10,"204",53.3283844,5.93501091,18.99,false,false,false,75.98,75.98,0.01,"470","10","67","324","124","143",8.62,"100609",75.07,  8.98 m/s,204°
695441.983678,5912814.3700868,2022/12/21 12:16:11,"205",53.32839203,5.935081959,19.05,false,false,false,75.55,75.55,0.01,"470","10","68","325","125","144",8.64,"100604",75.07,  8.98 m/s,204°
695446.851923966,5912815.84462853,2022/12/21 12:16:12,"206",53.32840347,5.935155869,19.05,false,false,false,75.92,75.92,0.01,"470","10","68","325","125","143",8.64,"100603",75.07,  6.86 m/s,204°
695451.751811167,5912817.32159057,2022/12/21 12:16:13,"207",53.32841492,5.935230255,19.07,false,false,false,75.88,75.88,0.01,"476","11","68","324","125","143",8.65,"100604",75.07,  6.86 m/s,204°
695456.651807917,5912818.79744841,2022/12/21 12:16:14,"208",53.32842636,5.935304642,19.07,false,false,false,75.78,75.78,0.01,"488","13","68","324","125","143",8.67,"100603",75.07,  6.86 m/s,204°
695461.234260121,5912820.2613662,2022/12/21 12:16:15,"209",53.32843781,5.93537426,19.11,false,false,false,76.97,76.97,0.01,"476","11","68","324","125","143",8.67,"100605",75.07,  6.86 m/s,204°
695464.405727414,5912821.24061986,2022/12/21 12:16:16,"210",53.32844543,5.935422421,19.1,false,false,false,71.23,71.23,0.01,"476","11","68","324","125","143",8.69,"100606",75.07,  6.86 m/s,204°
695466.127905148,5912823.43684892,2022/12/21 12:16:17,"211",53.32846451,5.9354496,19.15,false,false,false,25.83,25.83,0.01,"470","10","67","322","125","143",8.7,"100579",83.45,  10.25 m/s,197°
695465.702647816,5912826.81911146,2022/12/21 12:16:18,"212",53.32849503,5.935445309,19.22,false,false,false,345.69,345.69,0.01,"462","9","67","325","125","144",8.68,"100563",83.45,  10.25 m/s,197°
695464.13768598,5912829.30345005,2022/12/21 12:16:19,"213",53.32851791,5.935423374,19.27,false,false,false,327.34,327.34,0.01,"462","9","68","324","124","144",8.69,"100563",83.45,  10.25 m/s,197°
695460.861650706,5912830.86859567,2022/12/21 12:16:20,"214",53.32853317,5.935375214,19.28,false,false,false,280.25,280.25,0.01,"462","9","67","324","125","143",8.73,"100540",83.45,  10.25 m/s,197°
695457.672764966,5912830.31303963,2022/12/21 12:16:21,"215",53.32852936,5.935327053,19.32,false,false,false,257.98,257.98,0.01,"451","7","68","324","125","143",8.59,"100521",83.45,  10.25 m/s,197°
695454.215675874,5912829.3209302,2022/12/21 12:16:22,"216",53.32852173,5.935274601,19.32,false,false,false,256.37,256.37,0.01,"447","7","67","324","123","143",8.48,"100532",83.45,  10.25 m/s,197°
695450.299845061,5912827.88443242,2022/12/21 12:16:23,"217",53.32851028,5.935214996,19.31,false,false,false,256.48,256.48,0.01,"444","6","67","324","123","144",8.39,"100534",83.45,  10.25 m/s,197°
695445.558637489,5912826.41511041,2022/12/21 12:16:24,"218",53.32849884,5.935142994,19.24,false,false,false,256.81,256.81,0.01,"444","6","67","324","124","143",8.31,"100518",83.45,  10.25 m/s,197°
695440.926962632,5912825.37470932,2022/12/21 12:16:25,"219",53.32849121,5.935072899,19.22,false,false,false,255.91,255.91,0.01,"439","5","66","323","124","144",8.23,"100522",83.45,  10.25 m/s,197°
695435.741296057,5912823.88712066,2022/12/21 12:16:26,"220",53.32847977,5.934994221,19.21,false,false,false,256.61,256.61,0.01,"426","3","66","325","124","143",8.15,"100509",83.45,  10.25 m/s,197°
695430.922279871,5912821.98908847,2022/12/21 12:16:27,"221",53.32846451,5.934920788,19.23,false,false,false,255.66,255.66,0,"426","3","66","324","124","143",8.09,"100525",83.45,  10.25 m/s,197°
695426.11759473,5912820.51606247,2022/12/21 12:16:28,"222",53.32845306,5.934847832,19.2,false,false,false,255.17,255.17,0,"423","3","66","324","123","143",8.03,"100520",83.45,  10.25 m/s,197°
695421.281104895,5912819.04284772,2022/12/21 12:16:29,"223",53.32844162,5.934774399,19.16,false,false,false,254.53,254.53,0,"423","3","65","324","123","142",7.96,"100540",83.45,  10.25 m/s,197°
695416.476368613,5912817.57094366,2022/12/21 12:16:30,"224",53.32843018,5.934701443,19.15,false,false,false,254.82,254.82,0,"426","3","66","325","124","143",7.89,"100536",83.45,  10.25 m/s,197°
695411.89390276,5912816.10706938,2022/12/21 12:16:31,"225",53.32841873,5.934631825,19.11,false,false,false,255.48,255.48,0,"413","1","66","325","123","143",7.83,"100528",83.45,  10.25 m/s,197°
695406.898623382,5912814.62734114,2022/12/21 12:16:32,"226",53.32840729,5.934556007,19.09,false,false,false,255.88,255.88,0,"413","1","66","325","124","143",7.77,"100519",83.45,  9.80 m/s,201°
695402.076459568,5912813.5791473,2022/12/21 12:16:33,"227",53.32839966,5.934483051,19.05,false,false,false,256.46,256.46,0,"413","1","66","323","123","143",7.72,"100525",83.45,  9.80 m/s,201°
695397.27175864,5912812.10615085,2022/12/21 12:16:34,"228",53.32838821,5.934410095,19.03,false,false,false,256.45,256.45,0,"413","1","65","325","123","142",7.68,"100523",83.45,  9.80 m/s,201°
695392.371806914,5912810.63035751,2022/12/21 12:16:35,"229",53.32837677,5.934335709,19.01,false,false,false,256.27,256.27,0,"418","2","65","325","123","143",7.65,"100529",83.45,  9.80 m/s,201°
695387.44002953,5912809.15326106,2022/12/21 12:16:36,"230",53.32836533,5.934260845,19,false,false,false,255.81,255.81,0,"418","2","65","324","123","142",7.63,"100534",83.45,  9.80 m/s,201°
695382.540117997,5912807.67636593,2022/12/21 12:16:37,"231",53.32835388,5.934186459,18.98,false,false,false,255.69,255.69,0,"416","2","65","325","123","143",7.61,"100532",83.45,  10.52 m/s,195°
695377.908414696,5912806.63602697,2022/12/21 12:16:38,"232",53.32834625,5.934116364,18.93,false,false,false,256.03,256.03,0,"416","2","65","324","123","143",7.59,"100526",83.45,  10.52 m/s,195°
695372.976629533,5912805.15894572,2022/12/21 12:16:39,"233",53.32833481,5.9340415,18.88,false,false,false,256.27,256.27,0,"413","1","65","324","123","143",7.56,"100519",83.45,  10.52 m/s,195°
695368.298871609,5912803.69119782,2022/12/21 12:16:40,"234",53.32832336,5.933970451,18.88,false,false,false,256.35,256.35,0,"416","2","65","325","122","142",7.53,"100527",83.45,  10.52 m/s,195°
695363.652888286,5912802.22587474,2022/12/21 12:16:41,"235",53.32831192,5.93389988,18.89,false,false,false,255.75,255.75,0.01,"413","1","65","326","122","142",7.49,"100521",83.45,  10.52 m/s,195°
695358.657582196,5912800.74619787,2022/12/21 12:16:42,"236",53.32830048,5.933824062,18.85,false,false,false,256.24,256.24,0.01,"409","1","65","325","123","143",7.46,"100521",83.45,  11.63 m/s,201°
695354.043329071,5912799.28107482,2022/12/21 12:16:43,"237",53.32828903,5.933753967,18.8,false,false,false,256.14,256.14,0.01,"407","1","64","324","122","142",7.44,"100527",83.45,  11.63 m/s,201°
695348.984637824,5912797.79880316,2022/12/21 12:16:44,"238",53.32827759,5.933677197,18.78,false,false,false,256.24,256.24,0.01,"407","1","64","326","123","142",7.43,"100531",83.45,  11.63 m/s,201°
695344.021125501,5912796.31933506,2022/12/21 12:16:45,"239",53.32826614,5.933601856,18.79,false,false,false,255.96,255.96,0.01,"407","1","64","326","122","142",7.42,"100525",83.45,  11.63 m/s,201°
695339.167176605,5912795.26990056,2022/12/21 12:16:46,"240",53.32825851,5.933528423,18.76,false,false,false,255.82,255.82,0.01,"407","1","64","325","123","143",7.4,"100534",83.45,  11.63 m/s,201°
695334.648136786,5912793.80982418,2022/12/21 12:16:47,"241",53.32824707,5.933459759,18.75,false,false,false,255.67,255.67,0.01,"409","1","64","324","122","143",7.4,"100533",83.45,  10.68 m/s,197°
695329.557611846,5912792.32626559,2022/12/21 12:16:48,"242",53.32823563,5.933382511,18.73,false,false,false,255.82,255.82,0.01,"423","3","64","325","122","143",7.39,"100534",83.45,  10.68 m/s,197°
695324.784627554,5912790.85464851,2022/12/21 12:16:49,"243",53.32822418,5.933310032,18.67,false,false,false,255.58,255.58,0.01,"413","1","64","325","122","142",7.38,"100537",83.45,  10.68 m/s,197°
695320.043351323,5912789.3854534,2022/12/21 12:16:50,"244",53.32821274,5.93323803,18.64,false,false,false,256.03,256.03,0.01,"413","1","63","325","122","142",7.38,"100535",83.45,  10.68 m/s,197°
695315.175092297,5912787.90993096,2022/12/21 12:16:51,"245",53.32820129,5.93316412,18.61,false,false,false,255.75,255.75,0.01,"413","1","63","325","122","143",7.37,"100534",83.45,  10.68 m/s,197°
695310.338541299,5912786.43683062,2022/12/21 12:16:52,"246",53.32818985,5.933090687,18.59,false,false,false,255.61,255.61,0.01,"413","1","64","325","122","142",7.36,"100536",83.45,  10.07 m/s,197°
695305.470231104,5912784.96243032,2022/12/21 12:16:53,"247",53.32817841,5.933016777,18.57,false,false,false,255.52,255.52,0.01,"418","2","64","325","122","143",7.35,"100541",83.45,  10.07 m/s,197°
695300.633720351,5912783.48822793,2022/12/21 12:16:54,"248",53.32816696,5.932943344,18.56,false,false,false,255.31,255.31,0.01,"416","2","63","326","121","142",7.35,"100545",83.45,  10.07 m/s,197°
695295.828917674,5912782.01644748,2022/12/21 12:16:55,"249",53.32815552,5.932870388,18.53,false,false,false,255.1,255.1,0.01,"409","1","63","326","122","143",7.35,"100545",83.45,  10.07 m/s,197°
695291.024157989,5912780.54355988,2022/12/21 12:16:56,"250",53.32814407,5.932797432,18.51,false,false,false,254.74,254.74,0.01,"407","1","63","326","121","143",7.33,"100551",83.45,  10.07 m/s,197°
695286.219349907,5912779.07178927,2022/12/21 12:16:57,"251",53.32813263,5.932724476,18.47,false,false,false,255.88,255.88,0.01,"413","1","63","325","121","142",7.32,"100536",83.45,  9.13 m/s,199°
695281.428887153,5912778.02502405,2022/12/21 12:16:58,"252",53.328125,5.932651997,18.43,false,false,false,255.96,255.96,0.01,"416","2","63","325","121","143",7.32,"100544",83.45,  9.13 m/s,199°
695276.624074111,5912776.55326326,2022/12/21 12:16:59,"253",53.32811356,5.932579041,18.4,false,false,false,255.24,255.24,0.01,"418","2","63","326","121","142",7.31,"100542",83.45,  9.13 m/s,199°
695272.817660359,5912775.54693792,2022/12/21 12:17:00,"254",53.32810593,5.932521343,18.4,false,false,false,255.41,255.41,0.01,"416","2","63","325","121","143",7.32,"100548",83.45,  9.13 m/s,199°
695270.119287084,5912775.43607493,2022/12/21 12:17:01,"255",53.32810593,5.932480812,18.39,false,false,false,286.89,286.89,0.01,"423","3","64","325","121","142",7.34,"100569",83.45,  9.13 m/s,199°
695268.029059621,5912778.32441657,2022/12/21 12:17:02,"256",53.32813263,5.932451248,18.32,false,false,false,333.43,333.43,0.01,"433","5","64","326","121","143",7.41,"100583",83.45,  10.64 m/s,203°
695267.335654278,5912781.27014628,2022/12/21 12:17:03,"257",53.32815933,5.932442665,18.26,false,false,false,349.27,349.27,0.01,"427","4","64","326","121","143",7.49,"100585",83.45,  10.64 m/s,203°
695268.515170138,5912784.29393787,2022/12/21 12:17:04,"258",53.32818604,5.932462215,18.27,false,false,false,36.62,36.62,0.01,"454","8","64","326","121","143",7.54,"100617",75.07,  10.64 m/s,203°
695271.383498498,5912785.68612951,2022/12/21 12:17:05,"259",53.32819748,5.932506084,18.29,false,false,false,73.46,73.46,0.01,"444","6","65","326","121","143",7.61,"100617",75.07,  10.64 m/s,203°
695274.42801545,5912786.66115095,2022/12/21 12:17:06,"260",53.32820511,5.932552338,18.35,false,false,false,75.24,75.24,0.01,"447","7","65","326","121","143",7.67,"100612",75.07,  10.64 m/s,203°
695278.139083899,5912787.66356075,2022/12/21 12:17:07,"261",53.32821274,5.932608604,18.35,false,false,false,75.46,75.46,0.01,"451","7","65","326","120","143",7.71,"100614",75.07,  10.64 m/s,203°
695282.453390289,5912788.69075912,2022/12/21 12:17:08,"262",53.32822037,5.932673931,18.38,false,false,false,75.54,75.54,0.01,"454","8","65","325","121","142",7.76,"100617",75.07,  10.64 m/s,203°
695286.909001628,5912790.1481785,2022/12/21 12:17:09,"263",53.32823181,5.932741642,18.39,false,false,false,75.66,75.66,0.01,"465","9","65","325","120","143",7.82,"100620",75.07,  10.64 m/s,203°
695291.809021621,5912791.62497672,2022/12/21 12:17:10,"264",53.32824326,5.932816029,18.43,false,false,false,75.91,75.91,0.01,"465","9","66","325","121","142",7.88,"100615",75.07,  10.64 m/s,203°
695296.931246336,5912793.10979678,2022/12/21 12:17:11,"265",53.3282547,5.932893753,18.47,false,false,false,75.78,75.78,0.01,"462","9","65","325","120","142",7.92,"100619",75.07,  10.64 m/s,203°
695301.831306444,5912794.58549341,2022/12/21 12:17:12,"266",53.32826614,5.93296814,18.5,false,false,false,75.9,75.9,0.01,"462","9","65","325","121","142",7.97,"100620",75.07,  10.64 m/s,203°
695306.636048895,5912796.05839234,2022/12/21 12:17:13,"267",53.32827759,5.933041096,18.53,false,false,false,75.76,75.76,0.01,"462","9","65","325","120","142",8.01,"100620",75.07,  10.64 m/s,203°
695311.409077947,5912797.52887914,2022/12/21 12:17:14,"268",53.32828903,5.933113575,18.59,false,false,false,75.82,75.82,0.01,"470","10","65","324","120","142",8.04,"100614",75.07,  10.64 m/s,203°
695316.326541562,5912798.58089528,2022/12/21 12:17:15,"269",53.32829666,5.933187962,18.61,false,false,false,76.12,76.12,0.01,"470","10","65","325","120","142",8.09,"100617",75.07,  10.64 m/s,203°
695321.194722497,5912800.05641643,2022/12/21 12:17:16,"270",53.32830811,5.933261871,18.65,false,false,false,76.11,76.11,0.01,"462","9","65","324","120","142",8.14,"100615",75.07,  10.64 m/s,203°
695325.999500233,5912801.52822313,2022/12/21 12:17:16,"271",53.32831955,5.933334827,18.69,false,false,false,76.02,76.02,0.01,"462","9","65","325","120","142",8.17,"100614",75.07,  10.64 m/s,203°
695330.599526916,5912802.56720879,2022/12/21 12:17:16,"272",53.32832718,5.933404446,18.72,false,false,false,76.03,76.03,0.01,"462","9","65","325","119","142",8.2,"100614",75.07,  10.64 m/s,203°
695335.467745877,5912804.04163269,2022/12/21 12:17:19,"273",53.32833862,5.933478355,18.79,false,false,false,76,76,0.01,"470","10","64","325","119","141",8.23,"100606",75.07,  9.84 m/s,206°
695340.367739312,5912805.51848163,2022/12/21 12:17:20,"274",53.32835007,5.933552742,18.81,false,false,false,75.85,75.85,0.01,"480","12","65","324","120","142",8.25,"100609",75.07,  9.84 m/s,206°
695345.172506693,5912806.99030797,2022/12/21 12:17:21,"275",53.32836151,5.933625698,18.84,false,false,false,75.9,75.9,0.01,"470","10","65","325","119","142",8.28,"100606",75.07,  9.84 m/s,206°
695349.882023264,5912808.45933828,2022/12/21 12:17:22,"276",53.32837296,5.933697224,18.86,false,false,false,76.03,76.03,0.01,"470","10","64","324","120","143",8.3,"100615",75.07,  9.46 m/s,205°
695354.84550027,5912809.93769805,2022/12/21 12:17:23,"277",53.3283844,5.933772564,18.9,false,false,false,75.81,75.81,0.01,"470","10","64","325","119","141",8.33,"100606",75.07,  9.46 m/s,205°
695359.682015831,5912811.41084455,2022/12/21 12:17:24,"278",53.32839584,5.933845997,18.92,false,false,false,75.85,75.85,0.01,"470","10","64","325","120","142",8.36,"100611",75.07,  9.46 m/s,205°
695364.486726662,5912812.88380274,2022/12/21 12:17:25,"279",53.32840729,5.933918953,18.95,false,false,false,76.29,76.29,0.01,"480","12","64","325","119","141",8.4,"100617",75.07,  9.46 m/s,205°
695369.32323679,5912814.35695918,2022/12/21 12:17:26,"280",53.32841873,5.933992386,18.98,false,false,false,76.04,76.04,0.01,"470","10","64","324","119","143",8.41,"100612",75.07,  9.46 m/s,205°
695374.177161159,5912815.40642508,2022/12/21 12:17:27,"281",53.32842636,5.934065819,19.03,false,false,false,75.91,75.91,0.01,"470","10","64","324","119","142",8.42,"100613",75.07,  9.50 m/s,207°
695378.950108023,5912816.87809267,2022/12/21 12:17:28,"282",53.32843781,5.934138298,19.07,false,false,false,75.94,75.94,0.01,"465","9","64","324","119","141",8.44,"100610",75.07,  9.50 m/s,207°
695383.754854182,5912818.34995854,2022/12/21 12:17:29,"283",53.32844925,5.934211254,19.12,false,false,false,76.47,76.47,0.01,"470","10","64","325","119","142",8.45,"100602",75.07,  9.50 m/s,207°
695388.481813706,5912819.39422003,2022/12/21 12:17:30,"284",53.32845688,5.93428278,19.14,false,false,false,75.65,75.65,0.01,"480","12","65","325","119","143",8.45,"100603",75.07,  9.50 m/s,207°
695393.445269591,5912820.87262064,2022/12/21 12:17:31,"285",53.32846832,5.93435812,19.16,false,false,false,75.91,75.91,0.01,"476","11","64","325","119","142",8.46,"100602",75.07,  9.50 m/s,207°
695398.34523106,5912822.34953014,2022/12/21 12:17:32,"286",53.32847977,5.934432507,19.2,false,false,false,76.04,76.04,0.01,"473","11","65","325","119","142",8.49,"100605",75.07,  7.89 m/s,211°
695403.245168915,5912823.82532997,2022/12/21 12:17:33,"287",53.32849121,5.934506893,19.24,false,false,false,75.84,75.84,0.01,"473","11","65","325","119","142",8.51,"100602",75.07,  7.89 m/s,211°
695408.049856202,5912825.29833278,2022/12/21 12:17:34,"288",53.32850266,5.934579849,19.26,false,false,false,75.95,75.95,0.01,"473","11","64","325","119","142",8.51,"100605",75.07,  7.89 m/s,211°
695412.822896871,5912826.76892552,2022/12/21 12:17:35,"289",53.3285141,5.934652329,19.3,false,false,false,75.97,75.97,0.01,"485","12","64","324","119","142",8.53,"100604",75.07,  7.89 m/s,211°
695417.564112078,5912828.23821468,2022/12/21 12:17:36,"290",53.32852554,5.934724331,19.33,false,false,false,76.07,76.07,0.01,"485","12","65","325","119","142",8.55,"100604",75.07,  7.89 m/s,211°
695422.337035087,5912829.70992644,2022/12/21 12:17:37,"291",53.32853699,5.93479681,19.37,false,false,false,76.19,76.19,0.01,"476","11","64","325","118","142",8.57,"100603",75.07,  8.52 m/s,208°
695427.141757321,5912831.18183676,2022/12/21 12:17:37,"292",53.32854843,5.934869766,19.41,false,false,false,76.07,76.07,0.01,"476","11","65","325","118","142",8.59,"100606",75.07,  8.52 m/s,208°
695431.946431125,5912832.65486407,2022/12/21 12:17:37,"293",53.32855988,5.934942722,19.43,false,false,false,75.49,75.49,0.01,"476","11","64","325","118","142",8.6,"100611",75.07,  8.52 m/s,208°
695436.719458362,5912834.12548114,2022/12/21 12:17:40,"294",53.32857132,5.935015202,19.47,false,false,false,75.92,75.92,0.01,"480","12","65","325","119","143",8.61,"100605",75.07,  8.52 m/s,208°
695441.541595568,5912835.17371077,2022/12/21 12:17:41,"295",53.32857895,5.935088158,19.49,false,false,false,76.24,76.24,0.01,"492","14","65","325","119","142",8.63,"100604",75.07,  8.52 m/s,208°
695446.378063588,5912836.64694667,2022/12/21 12:17:42,"296",53.32859039,5.935161591,19.53,false,false,false,75.71,75.71,0.01,"476","11","65","325","118","142",8.64,"100602",75.07,  9.01 m/s,197°
695451.246172723,5912838.1226028,2022/12/21 12:17:43,"297",53.32860184,5.9352355,19.55,false,false,false,76.3,76.3,0.01,"476","11","65","324","118","142",8.66,"100608",75.07,  9.01 m/s,197°
695455.923921202,5912839.58932162,2022/12/21 12:17:44,"298",53.32861328,5.935306549,19.58,false,false,false,77.49,77.49,0.01,"470","10","65","325","118","142",8.67,"100611",75.07,  9.01 m/s,197°
695458.777835665,5912840.55662699,2022/12/21 12:17:44,"299",53.32862091,5.935349941,19.62,false,false,false,67.07,67.07,0.01,"473","11","65","324","119","142",8.69,"100606",75.07,  9.01 m/s,197°
695460.228667421,5912843.16610709,2022/12/21 12:17:46,"300",53.3286438,5.935373306,19.71,false,false,false,19.73,19.73,0.01,"485","12","64","322","118","142",8.69,"100572",83.45,  9.01 m/s,197°
695459.535146846,5912846.11181146,2022/12/21 12:17:47,"301",53.3286705,5.935364723,19.82,false,false,false,344.33,344.33,0.01,"465","9","65","325","118","142",8.68,"100557",83.45,  9.01 m/s,197°
695457.779744594,5912848.5894336,2022/12/21 12:17:48,"302",53.32869339,5.935339928,19.91,false,false,false,322.05,322.05,0.01,"465","9","65","325","118","142",8.69,"100558",83.45,  9.01 m/s,197°
695454.489371661,5912849.72846711,2022/12/21 12:17:49,"303",53.32870483,5.93529129,19.94,false,false,false,276.59,276.59,0.01,"462","9","65","324","118","143",8.67,"100531",83.45,  9.01 m/s,197°
695451.395766491,5912849.17683287,2022/12/21 12:17:50,"304",53.32870102,5.93524456,19.93,false,false,false,257.48,257.48,0.01,"451","7","65","325","118","142",8.53,"100533",83.45,  9.01 m/s,197°
695447.97044654,5912848.18603361,2022/12/21 12:17:51,"305",53.32869339,5.935192585,19.93,false,false,false,255.93,255.93,0.01,"454","8","65","324","117","142",8.42,"100522",83.45,  9.01 m/s,197°
695444.054584525,5912846.7506527,2022/12/21 12:17:52,"306",53.32868195,5.93513298,19.9,false,false,false,255.84,255.84,0.01,"439","5","65","325","118","142",8.29,"100523",83.45,  9.01 m/s,197°
