X,Y,TimeStamp (UTC),"""TriggerID""","""Latitude""","""Longitude""","""Altitude (Meter AGL)""",Gimbal Roll,"""Gimbal Pitch""","""Gimbal Yaw""","""Drone Yaw""","""Combined Yaw""",HCHO (ppm),CO2 (ppm),TVOC (ppb),NO2 (ppm),C2H5OH (ppm),VOC (ppm),CO (ppm),Temp (Celcius),Pressure (pa),Altitude (meter),wind_speed,wind_direction
695311.4811,5912808.155,12-12-22 10:19,1580,53.3283844,5.933121204,9.31,FALSE,FALSE,FALSE,252.89,252.89,0.01,450,7,100,285,155,127,1.19,101217,24.96,  3.17 m/s,188°
695306.7891,5912806.263,12-12-22 10:19,1581,53.32836914,5.933049679,9.2,FALSE,FALSE,FALSE,253.04,253.04,0.01,445,6,100,284,155,127,1.16,101220,24.96,  3.17 m/s,188°
695302.0161,5912804.792,12-12-22 10:19,1582,53.3283577,5.9329772,9.1,FALSE,FALSE,FALSE,252.76,252.76,0.01,439,5,100,284,155,127,1.13,101222,24.96,  3.17 m/s,188°
695297.2748,5912803.322,12-12-22 10:19,1583,53.32834625,5.932905197,8.98,FALSE,FALSE,FALSE,252.83,252.83,0.01,439,5,100,284,155,126,1.09,101220,24.96,  3.17 m/s,188°
695292.551,5912801.428,12-12-22 10:19,1584,53.32833099,5.932833195,8.87,FALSE,FALSE,FALSE,252.99,252.99,0.01,428,4,100,284,155,127,1.06,101224,24.96,  3.17 m/s,188°
695287.8096,5912799.959,12-12-22 10:19,1585,53.32831955,5.932761192,8.77,FALSE,FALSE,FALSE,253.23,253.23,0.01,428,4,99,284,155,127,1.04,101217,24.96,  3.17 m/s,188°
695283.0366,5912798.488,12-12-22 10:19,1586,53.32830811,5.932688713,8.66,FALSE,FALSE,FALSE,253.18,253.18,0.01,450,7,99,284,155,127,1.02,101216,24.96,  1.29 m/s,208°
695278.2954,5912797.018,12-12-22 10:19,1587,53.32829666,5.932616711,8.55,FALSE,FALSE,FALSE,253.08,253.08,0.01,428,4,99,283,155,127,1.01,101220,24.96,  1.29 m/s,208°
695273.6493,5912795.553,12-12-22 10:19,1588,53.32828522,5.932546139,8.45,FALSE,FALSE,FALSE,252.37,252.37,0.01,426,3,98,284,154,127,0.99,101223,24.96,  1.29 m/s,208°
695270.8588,5912794.588,12-12-22 10:19,1589,53.32827759,5.9325037,8.37,FALSE,FALSE,FALSE,252.26,252.26,0.01,445,6,98,284,155,127,1.01,101236,24.96,  1.29 m/s,208°
695270.6683,5912794.581,12-12-22 10:19,1590,53.32827759,5.932500839,8.34,FALSE,FALSE,FALSE,316.11,316.11,0.01,439,5,98,284,154,127,1.06,101239,24.96,  1.29 m/s,208°
695270.8383,5912795.862,12-12-22 10:19,1591,53.32828903,5.932504177,8.34,FALSE,FALSE,FALSE,339.17,339.17,0.01,470,10,98,285,155,127,1.13,101254,24.96,  1.29 m/s,208°
695270.7368,5912797.558,12-12-22 10:19,1592,53.32830429,5.9325037,8.34,FALSE,FALSE,FALSE,339.11,339.11,0.01,454,8,98,285,154,127,1.15,101257,24.96,  1.44 m/s,205°
695270.878,5912797.989,12-12-22 10:19,1593,53.32830811,5.932506084,8.36,FALSE,FALSE,FALSE,30.41,30.41,0.01,450,7,99,284,154,127,1.19,101262,24.96,  1.44 m/s,205°
695272.194,5912798.467,12-12-22 10:19,1594,53.32831192,5.932526112,8.4,FALSE,FALSE,FALSE,73.37,73.37,0.01,454,8,99,285,154,127,1.26,101264,24.96,  1.44 m/s,205°
695274.5892,5912798.99,12-12-22 10:19,1595,53.32831573,5.932562351,8.45,FALSE,FALSE,FALSE,73.18,73.18,0.01,464,9,99,285,154,127,1.29,101261,24.96,  1.44 m/s,205°
695277.8559,5912799.974,12-12-22 10:19,1596,53.32832336,5.932611942,8.52,FALSE,FALSE,FALSE,73.64,73.64,0.01,476,11,99,285,154,127,1.27,101263,24.96,  1.43 m/s,201°
695281.6765,5912801.407,12-12-22 10:19,1597,53.32833481,5.932670116,8.61,FALSE,FALSE,FALSE,73.48,73.48,0.01,470,10,99,286,155,127,1.26,101259,24.96,  1.43 m/s,201°
695285.8956,5912802.43,12-12-22 10:19,1598,53.32834244,5.932734013,8.71,FALSE,FALSE,FALSE,73.58,73.58,0.01,459,8,99,285,155,127,1.27,101261,24.96,  1.43 m/s,201°
695290.7464,5912804.329,12-12-22 10:19,1599,53.3283577,5.932807922,8.82,FALSE,FALSE,FALSE,73.75,73.75,0.01,470,10,100,286,154,127,1.29,101253,24.96,  1.43 m/s,201°
695295.6464,5912805.805,12-12-22 10:19,1600,53.32836914,5.932882309,8.95,FALSE,FALSE,FALSE,73.85,73.85,0.01,470,10,100,286,155,127,1.3,101252,24.96,  1.43 m/s,201°
695300.5147,5912807.279,12-12-22 10:19,1601,53.32838058,5.932956219,9.05,FALSE,FALSE,FALSE,73.59,73.59,0.01,476,11,100,285,154,127,1.32,101256,24.96,  1.43 m/s,201°
695305.302,5912809.176,12-12-22 10:19,1602,53.32839584,5.933029175,9.17,FALSE,FALSE,FALSE,73.51,73.51,0.01,481,12,99,284,154,127,1.35,101255,24.96,  1.43 m/s,201°
695309.948,5912810.642,12-12-22 10:19,1603,53.32840729,5.933099747,9.29,FALSE,FALSE,FALSE,73.36,73.36,0.01,470,10,99,285,154,126,1.38,101255,24.96,  1.43 m/s,201°
695314.8163,5912812.117,12-12-22 10:19,1604,53.32841873,5.933173657,9.41,FALSE,FALSE,FALSE,73.46,73.46,0.01,476,11,100,285,154,127,1.4,101253,24.96,  1.43 m/s,201°
695319.5719,5912814.012,12-12-22 10:19,1605,53.32843399,5.933246136,9.52,FALSE,FALSE,FALSE,73.76,73.76,0.01,481,12,99,284,154,127,1.44,101245,24.96,  1.43 m/s,201°
695324.3449,5912815.483,12-12-22 10:19,1606,53.32844543,5.933318615,9.65,FALSE,FALSE,FALSE,73.63,73.63,0.01,481,12,100,285,154,127,1.45,101247,24.96,  1.43 m/s,201°
695329.1178,5912816.954,12-12-22 10:19,1607,53.32845688,5.933391094,9.75,FALSE,FALSE,FALSE,73.45,73.45,0.01,485,12,99,284,153,127,1.46,101248,24.96,  1.43 m/s,201°
695333.7956,5912818.421,12-12-22 10:19,1608,53.32846832,5.933462143,9.85,FALSE,FALSE,FALSE,73.55,73.55,0.01,481,12,99,285,153,127,1.48,101244,24.96,  1.43 m/s,201°
695338.6147,5912820.319,12-12-22 10:19,1609,53.32848358,5.933535576,9.97,FALSE,FALSE,FALSE,73.32,73.32,0.01,481,12,98,285,154,127,1.5,101245,24.96,  1.43 m/s,201°
695343.3559,5912821.789,12-12-22 10:19,1610,53.32849503,5.933607578,10.07,FALSE,FALSE,FALSE,73.73,73.73,0.01,476,11,98,285,154,127,1.49,101236,24.96,  1.43 m/s,201°
695348.0337,5912823.256,12-12-22 10:19,1611,53.32850647,5.933678627,10.18,FALSE,FALSE,FALSE,73.59,73.59,0.01,485,12,100,284,154,126,1.51,101240,24.96,  2.56 m/s,177°
695352.9162,5912825.156,12-12-22 10:19,1612,53.32852173,5.933753014,10.3,FALSE,FALSE,FALSE,73.5,73.5,0.01,491,13,99,284,154,127,1.5,101232,24.96,  2.56 m/s,177°
695357.721,5912826.628,12-12-22 10:19,1613,53.32853317,5.93382597,10.42,FALSE,FALSE,FALSE,74.27,74.27,0.01,470,10,99,284,153,127,1.51,101232,24.96,  2.56 m/s,177°
695362.5257,5912828.101,12-12-22 10:19,1614,53.32854462,5.933898926,10.52,FALSE,FALSE,FALSE,73.3,73.3,0.01,481,12,98,284,153,127,1.52,101232,24.96,  2.56 m/s,177°
695366.2193,5912829.527,12-12-22 10:19,1615,53.32855606,5.933955193,10.58,FALSE,FALSE,FALSE,74.71,74.71,0.01,485,12,98,284,153,127,1.54,101233,24.96,  2.56 m/s,177°
695367.013,5912829.56,12-12-22 10:19,1616,53.32855606,5.933967114,10.54,FALSE,FALSE,FALSE,40.36,40.36,0.01,485,12,99,284,153,127,1.55,101232,24.96,  3.19 m/s,175°
695366.0114,5912829.944,12-12-22 10:19,1617,53.32855988,5.933952332,10.6,FALSE,FALSE,FALSE,343.17,343.17,0.01,496,14,98,284,153,127,1.59,101228,24.96,  3.19 m/s,175°
695364.7354,5912831.59,12-12-22 10:19,1618,53.32857513,5.933934212,10.64,FALSE,FALSE,FALSE,342.11,342.11,0.01,481,12,98,284,153,127,1.62,101230,24.96,  3.19 m/s,175°
695364.1291,5912832.415,12-12-22 10:19,1619,53.32858276,5.933925629,10.63,FALSE,FALSE,FALSE,318.4,318.4,0.01,485,12,99,284,153,127,1.63,101226,24.96,  3.19 m/s,175°
695363.4481,5912831.963,12-12-22 10:19,1620,53.32857895,5.933915138,10.61,FALSE,FALSE,FALSE,255.28,255.28,0.01,485,12,99,284,152,127,1.68,101219,24.96,  3.19 m/s,175°
695361.3242,5912831.026,12-12-22 10:19,1621,53.32857132,5.933882713,10.57,FALSE,FALSE,FALSE,252.88,252.88,0.01,464,9,99,284,153,127,1.63,101215,24.96,  2.17 m/s,191°
695358.4069,5912830.056,12-12-22 10:19,1622,53.32856369,5.933838368,10.51,FALSE,FALSE,FALSE,252.64,252.64,0.01,476,11,98,285,153,127,1.6,101212,24.96,  2.17 m/s,191°
695354.8402,5912828.635,12-12-22 10:19,1623,53.32855225,5.933784008,10.45,FALSE,FALSE,FALSE,252.3,252.3,0.01,464,9,99,285,153,127,1.55,101205,24.96,  2.17 m/s,191°
695350.7021,5912827.189,12-12-22 10:19,1624,53.3285408,5.933721066,10.33,FALSE,FALSE,FALSE,253.13,253.13,0.01,459,8,98,284,153,127,1.51,101209,24.96,  2.17 m/s,191°
695346.0561,5912825.724,12-12-22 10:19,1625,53.32852936,5.933650494,10.22,FALSE,FALSE,FALSE,253.09,253.09,0.01,454,8,98,284,153,127,1.48,101205,24.96,  2.17 m/s,191°
695341.1879,5912824.249,12-12-22 10:20,1626,53.32851791,5.933576584,10.1,FALSE,FALSE,FALSE,252.99,252.99,0.01,464,9,98,284,153,127,1.42,101205,24.96,  2.17 m/s,191°
695336.1927,5912822.769,12-12-22 10:20,1627,53.32850647,5.933500767,9.98,FALSE,FALSE,FALSE,253.01,253.01,0.01,454,8,98,284,152,127,1.36,101207,24.96,  2.17 m/s,191°
695331.3736,5912820.871,12-12-22 10:20,1628,53.32849121,5.933427334,9.87,FALSE,FALSE,FALSE,253.07,253.07,0.01,445,6,98,284,152,127,1.33,101211,24.96,  2.17 m/s,191°
695326.6641,5912819.403,12-12-22 10:20,1629,53.32847977,5.933355808,9.74,FALSE,FALSE,FALSE,253.1,253.1,0.01,450,7,97,283,152,127,1.3,101210,24.96,  2.17 m/s,191°
695321.7641,5912817.926,12-12-22 10:20,1630,53.32846832,5.933281422,9.63,FALSE,FALSE,FALSE,252.87,252.87,0.01,439,5,97,284,152,127,1.28,101207,24.96,  2.17 m/s,191°
695316.9768,5912816.03,12-12-22 10:20,1631,53.32845306,5.933208466,9.53,FALSE,FALSE,FALSE,252.93,252.93,0.01,435,5,97,284,152,127,1.24,101211,24.96,  2.17 m/s,191°
695312.299,5912814.563,12-12-22 10:20,1632,53.32844162,5.933137417,9.42,FALSE,FALSE,FALSE,252.86,252.86,0.01,450,7,97,284,153,126,1.21,101211,24.96,  2.17 m/s,191°
695307.4308,5912813.089,12-12-22 10:20,1633,53.32843018,5.933063507,9.3,FALSE,FALSE,FALSE,253.1,253.1,0.01,439,5,97,285,153,127,1.17,101216,24.96,  2.17 m/s,191°
695302.8022,5912811.199,12-12-22 10:20,1634,53.32841492,5.932992935,9.18,FALSE,FALSE,FALSE,252.87,252.87,0.01,428,4,97,285,153,126,1.15,101217,24.96,  2.17 m/s,191°
695297.9657,5912809.724,12-12-22 10:20,1635,53.32840347,5.932919502,9.07,FALSE,FALSE,FALSE,252.78,252.78,0.01,439,5,97,285,153,127,1.11,101219,24.96,  2.17 m/s,191°
695293.2562,5912808.257,12-12-22 10:20,1636,53.32839203,5.932847977,8.95,FALSE,FALSE,FALSE,252.84,252.84,0.01,428,4,97,285,152,127,1.07,101220,24.96,  1.17 m/s,204°
695288.6102,5912806.79,12-12-22 10:20,1637,53.32838058,5.932777405,8.83,FALSE,FALSE,FALSE,252.97,252.97,0.01,445,6,97,284,152,127,1.04,101215,24.96,  1.17 m/s,204°
695283.7593,5912804.892,12-12-22 10:20,1638,53.32836533,5.932703495,8.7,FALSE,FALSE,FALSE,253.03,253.03,0.01,439,5,97,285,151,127,1.02,101224,24.96,  1.17 m/s,204°
695279.0498,5912803.423,12-12-22 10:20,1639,53.32835388,5.93263197,8.59,FALSE,FALSE,FALSE,253.02,253.02,0.01,435,5,96,285,151,127,1,101220,24.96,  1.17 m/s,204°
695274.2449,5912801.951,12-12-22 10:20,1640,53.32834244,5.932559013,8.46,FALSE,FALSE,FALSE,252.9,252.9,0.01,420,3,96,284,151,127,0.98,101216,24.96,  1.17 m/s,204°
695270.0116,5912800.502,12-12-22 10:20,1641,53.32833099,5.93249464,8.38,FALSE,FALSE,FALSE,252.13,252.13,0.01,426,3,96,285,152,127,0.97,101223,24.96,  1.44 m/s,198°
695268.1878,5912800.003,12-12-22 10:20,1642,53.32832718,5.932466984,8.29,FALSE,FALSE,FALSE,260.57,260.57,0.01,435,5,96,285,152,127,0.99,101235,24.96,  1.44 m/s,198°
695268.4244,5912800.437,12-12-22 10:20,1643,53.32833099,5.932470799,8.28,FALSE,FALSE,FALSE,334.52,334.52,0.01,445,6,97,284,151,128,1.07,101249,24.96,  1.44 m/s,198°
695268.5134,5912802.14,12-12-22 10:20,1644,53.32834625,5.932473183,8.28,FALSE,FALSE,FALSE,339.17,339.17,0.01,439,5,96,285,152,127,1.12,101252,24.96,  1.44 m/s,198°
695268.4928,5912803.415,12-12-22 10:20,1645,53.3283577,5.93247366,8.29,FALSE,FALSE,FALSE,339.78,339.78,0.01,464,9,97,285,152,127,1.15,101248,24.96,  1.44 m/s,198°
695268.8564,5912803.854,12-12-22 10:20,1646,53.32836151,5.932479382,8.31,FALSE,FALSE,FALSE,58.54,58.54,0.01,454,8,97,285,152,127,1.18,101262,24.96,  1.68 m/s,164°
695270.7436,5912804.357,12-12-22 10:20,1647,53.32836533,5.932507992,8.37,FALSE,FALSE,FALSE,73.58,73.58,0.01,454,8,97,285,152,127,1.24,101260,24.96,  1.68 m/s,164°
695273.4246,5912804.892,12-12-22 10:20,1648,53.32836914,5.932548523,8.45,FALSE,FALSE,FALSE,73.09,73.09,0.01,454,8,97,285,151,127,1.28,101262,24.96,  1.68 m/s,164°
695276.8817,5912805.884,12-12-22 10:20,1649,53.32837677,5.932600975,8.55,FALSE,FALSE,FALSE,73.21,73.21,0.01,459,8,97,286,151,127,1.26,101255,24.96,  1.68 m/s,164°
695280.8294,5912807.32,12-12-22 10:20,1650,53.32838821,5.932661057,8.65,FALSE,FALSE,FALSE,73.31,73.31,0.01,481,12,97,286,151,127,1.25,101255,24.96,  1.68 m/s,164°
695285.3484,5912808.782,12-12-22 10:20,1651,53.32839966,5.932729721,8.76,FALSE,FALSE,FALSE,73.52,73.52,0.01,476,11,98,286,152,127,1.25,101250,24.96,  1.68 m/s,164°
695290.2167,5912810.256,12-12-22 10:20,1652,53.3284111,5.932803631,8.89,FALSE,FALSE,FALSE,73.79,73.79,0.01,470,10,98,286,152,127,1.27,101253,24.96,  1.68 m/s,164°
695295.004,5912812.152,12-12-22 10:20,1653,53.32842636,5.932876587,9,FALSE,FALSE,FALSE,73.69,73.69,0.01,464,9,98,285,151,127,1.3,101252,24.96,  1.68 m/s,164°
695299.9675,5912813.632,12-12-22 10:20,1654,53.32843781,5.932951927,9.12,FALSE,FALSE,FALSE,73.52,73.52,0.01,464,9,97,285,152,127,1.36,101252,24.96,  1.68 m/s,164°
695304.7722,5912815.104,12-12-22 10:20,1655,53.32844925,5.933024883,9.25,FALSE,FALSE,FALSE,73.8,73.8,0.01,481,12,97,285,151,127,1.37,101249,24.96,  1.68 m/s,164°
695309.5453,5912816.574,12-12-22 10:20,1656,53.32846069,5.933097363,9.38,FALSE,FALSE,FALSE,73.63,73.63,0.01,485,12,97,286,152,127,1.38,101248,24.96,  2.04 m/s,193°
695314.3008,5912818.469,12-12-22 10:20,1657,53.32847595,5.933169842,9.51,FALSE,FALSE,FALSE,73.7,73.7,0.01,470,10,97,286,151,127,1.38,101243,24.96,  2.04 m/s,193°
695319.1056,5912819.942,12-12-22 10:20,1658,53.3284874,5.933242798,9.63,FALSE,FALSE,FALSE,73.46,73.46,0.01,476,11,98,286,151,127,1.41,101244,24.96,  2.04 m/s,193°
695323.8786,5912821.413,12-12-22 10:20,1659,53.32849884,5.933315277,9.75,FALSE,FALSE,FALSE,73.68,73.68,0.01,476,11,97,285,151,127,1.42,101245,24.96,  2.04 m/s,193°
695328.6024,5912823.307,12-12-22 10:20,1660,53.3285141,5.93338728,9.86,FALSE,FALSE,FALSE,73.68,73.68,0.01,481,12,97,285,151,127,1.45,101242,24.96,  2.04 m/s,193°
695333.4389,5912824.78,12-12-22 10:20,1661,53.32852554,5.933460712,9.98,FALSE,FALSE,FALSE,73.56,73.56,0.01,485,12,98,284,151,127,1.46,101241,24.96,  2.04 m/s,193°
695338.0848,5912826.246,12-12-22 10:20,1662,53.32853699,5.933531284,10.11,FALSE,FALSE,FALSE,73.5,73.5,0.01,476,11,97,285,151,127,1.48,101240,24.96,  2.04 m/s,193°
695342.9039,5912828.144,12-12-22 10:20,1663,53.32855225,5.933604717,10.23,FALSE,FALSE,FALSE,73.57,73.57,0.01,481,12,98,285,151,127,1.51,101240,24.96,  2.04 m/s,193°
695347.6769,5912829.615,12-12-22 10:20,1664,53.32856369,5.933677197,10.36,FALSE,FALSE,FALSE,73.79,73.79,0.01,485,12,97,285,150,127,1.52,101235,24.96,  2.04 m/s,193°
695352.4817,5912831.087,12-12-22 10:20,1665,53.32857513,5.933750153,10.47,FALSE,FALSE,FALSE,73.7,73.7,0.01,491,13,98,285,151,127,1.53,101236,24.96,  2.04 m/s,193°
695357.2546,5912832.558,12-12-22 10:20,1666,53.32858658,5.933822632,10.62,FALSE,FALSE,FALSE,73.54,73.54,0.01,496,14,98,285,150,127,1.54,101229,24.96,  2.04 m/s,193°
695361.8197,5912834.446,12-12-22 10:20,1667,53.32860184,5.93389225,10.74,FALSE,FALSE,FALSE,75.49,75.49,0.01,485,12,97,285,151,127,1.57,101217,24.96,  2.04 m/s,193°
695364.7228,5912834.99,12-12-22 10:20,1668,53.32860565,5.933936119,10.75,FALSE,FALSE,FALSE,74.27,74.27,0.01,491,13,97,285,151,127,1.58,101231,24.96,  2.04 m/s,193°
695364.9593,5912835.425,12-12-22 10:20,1669,53.32860947,5.933939934,10.74,FALSE,FALSE,FALSE,12.82,12.82,0.01,485,12,98,284,151,127,1.61,101229,24.96,  2.04 m/s,193°
695363.7499,5912836.225,12-12-22 10:20,1670,53.3286171,5.933922291,10.77,FALSE,FALSE,FALSE,342.36,342.36,0.01,485,12,98,285,150,127,1.65,101226,24.96,  2.04 m/s,193°
695362.523,5912837.449,12-12-22 10:20,1671,53.32862854,5.933904648,10.76,FALSE,FALSE,FALSE,342.22,342.22,0.01,496,14,98,284,151,128,1.69,101230,24.96,  2.04 m/s,193°
695361.9976,5912837.852,12-12-22 10:20,1672,53.32863235,5.933897018,10.76,FALSE,FALSE,FALSE,292.03,292.03,0.01,481,12,98,285,150,127,1.74,101220,24.96,  2.04 m/s,193°
695360.777,5912837.377,12-12-22 10:20,1673,53.32862854,5.933878422,10.73,FALSE,FALSE,FALSE,253.14,253.14,0.01,481,12,99,285,151,127,1.77,101212,24.96,  2.04 m/s,193°
695358.2723,5912836.424,12-12-22 10:20,1674,53.32862091,5.933840275,10.67,FALSE,FALSE,FALSE,252.88,252.88,0.01,485,12,98,285,150,128,1.73,101215,24.96,  2.04 m/s,193°
695354.9595,5912835.014,12-12-22 10:20,1675,53.32860947,5.93378973,10.57,FALSE,FALSE,FALSE,253.12,253.12,0.01,464,9,99,285,150,127,1.71,101214,24.96,  2.04 m/s,193°
695350.8993,5912833.997,12-12-22 10:20,1676,53.32860184,5.933728218,10.48,FALSE,FALSE,FALSE,253.05,253.05,0.01,481,12,98,284,151,127,1.67,101209,24.96,  2.04 m/s,193°
695346.4438,5912832.538,12-12-22 10:20,1677,53.32859039,5.933660507,10.37,FALSE,FALSE,FALSE,252.5,252.5,0.01,476,11,98,284,150,127,1.62,101213,24.96,  2.04 m/s,193°
695341.4025,5912830.631,12-12-22 10:20,1678,53.32857513,5.933583736,10.26,FALSE,FALSE,FALSE,252.44,252.44,0.01,464,9,98,284,150,127,1.56,101203,24.96,  2.04 m/s,193°
