X,Y,TimeStamp (UTC),"""TriggerID""","""Latitude""","""Longitude""","""Altitude (Meter AGL)""",Gimbal Roll,"""Gimbal Pitch""","""Gimbal Yaw""","""Drone Yaw""","""Combined Yaw""",HCHO (ppm),CO2 (ppm),TVOC (ppb),NO2 (ppm),C2H5OH (ppm),VOC (ppm),CO (ppm),Temp (Celcius),Pressure (pa),Altitude (meter),wind_speed,wind_direction
695195.4583,5912845.033,12-12-22 12:36,839,53.32875824,5.931404114,28.59,FALSE,FALSE,FALSE,256.53,256.53,0.01,403,0,65,293,112,133,1.37,100938,49.99,  5.26 m/s,192°
695190.6361,5912843.985,12-12-22 12:36,840,53.32875061,5.931331158,28.57,FALSE,FALSE,FALSE,256.53,256.53,0.01,403,0,65,293,112,133,1.36,100939,49.99,  5.26 m/s,192°
695185.9583,5912842.518,12-12-22 12:36,841,53.32873917,5.931260109,28.55,FALSE,FALSE,FALSE,256.51,256.51,0.01,403,0,65,294,111,133,1.35,100939,49.99,  4.11 m/s,193°
695180.8821,5912841.46,12-12-22 12:36,842,53.32873154,5.931183338,28.52,FALSE,FALSE,FALSE,256.49,256.49,0.01,420,3,65,293,112,133,1.35,100937,49.99,  4.11 m/s,193°
695176.0139,5912839.984,12-12-22 12:36,843,53.32872009,5.931109428,28.49,FALSE,FALSE,FALSE,256.53,256.53,0.01,405,0,65,293,111,133,1.33,100940,49.99,  4.11 m/s,193°
695171.1774,5912838.511,12-12-22 12:36,844,53.32870865,5.931035996,28.46,FALSE,FALSE,FALSE,256.62,256.62,0.01,403,0,65,293,111,132,1.33,100939,49.99,  4.11 m/s,193°
695166.5774,5912837.473,12-12-22 12:36,845,53.32870102,5.930966377,28.43,FALSE,FALSE,FALSE,256.56,256.56,0.01,405,0,64,294,112,133,1.33,100946,49.99,  4.11 m/s,193°
695161.9775,5912836.434,12-12-22 12:36,846,53.32869339,5.930896759,28.41,FALSE,FALSE,FALSE,259.01,259.01,0.01,405,0,64,293,112,132,1.32,100945,49.99,  4.11 m/s,193°
695157.611,5912836.679,12-12-22 12:36,847,53.3286972,5.930831432,28.34,FALSE,FALSE,FALSE,289.06,289.06,0.01,420,3,65,293,111,133,1.33,100945,49.99,  4.00 m/s,193°
695154.2336,5912839.94,12-12-22 12:36,848,53.32872772,5.930782795,28.2,FALSE,FALSE,FALSE,323.87,323.87,0.01,415,2,65,293,112,133,1.35,100960,49.99,  4.00 m/s,193°
695152.55,5912844.545,12-12-22 12:36,849,53.32876968,5.930760384,28.08,FALSE,FALSE,FALSE,347.32,347.32,0.01,417,2,65,293,111,133,1.38,100964,49.99,  4.00 m/s,193°
695152.0901,5912848.776,12-12-22 12:36,850,53.32880783,5.930756092,28.09,FALSE,FALSE,FALSE,358.77,358.77,0.01,423,3,65,293,111,133,1.44,100969,49.99,  4.00 m/s,193°
695153.6301,5912853.089,12-12-22 12:36,851,53.32884598,5.930781841,28.07,FALSE,FALSE,FALSE,32.25,32.25,0.01,428,4,65,293,111,133,1.49,100971,49.99,  4.09 m/s,195°
695156.8414,5912856.195,12-12-22 12:36,852,53.32887268,5.930831909,28.04,FALSE,FALSE,FALSE,61.36,61.36,0.01,444,6,66,293,111,133,1.53,100973,49.99,  4.09 m/s,195°
695161.043,5912857.641,12-12-22 12:36,853,53.32888412,5.930895805,28.09,FALSE,FALSE,FALSE,76.46,76.46,0.01,439,5,66,293,110,133,1.58,100977,49.99,  4.09 m/s,195°
695165.5334,5912858.251,12-12-22 12:36,854,53.32888794,5.930963516,28.17,FALSE,FALSE,FALSE,76.94,76.94,0.01,439,5,66,293,111,134,1.59,100971,49.99,  4.09 m/s,195°
695170.3873,5912859.301,12-12-22 12:36,855,53.32889557,5.931036949,28.17,FALSE,FALSE,FALSE,77.28,77.28,0.01,435,5,66,293,110,133,1.63,100971,49.99,  4.09 m/s,195°
695175.2238,5912860.774,12-12-22 12:36,856,53.32890701,5.931110382,28.14,FALSE,FALSE,FALSE,77.41,77.41,0.01,443,6,67,293,111,133,1.68,100972,49.99,  3.88 m/s,195°
695180.4904,5912861.84,12-12-22 12:36,857,53.32891464,5.931190014,28.14,FALSE,FALSE,FALSE,77.34,77.34,0.01,444,6,66,293,111,133,1.74,100973,49.99,  3.88 m/s,195°
695185.3269,5912863.314,12-12-22 12:36,858,53.32892609,5.931263447,28.16,FALSE,FALSE,FALSE,77.3,77.3,0.01,444,6,67,293,111,133,1.8,100975,49.99,  3.88 m/s,195°
695190.0855,5912864.359,12-12-22 12:36,859,53.32893372,5.931335449,28.19,FALSE,FALSE,FALSE,77.33,77.33,0.01,450,7,66,293,111,133,1.85,100974,49.99,  3.88 m/s,195°
695194.8268,5912865.828,12-12-22 12:36,860,53.32894516,5.931407452,28.19,FALSE,FALSE,FALSE,77.25,77.25,0.01,460,9,66,293,111,133,1.88,100974,49.99,  3.88 m/s,195°
695199.8394,5912866.884,12-12-22 12:36,861,53.32895279,5.931483269,28.2,FALSE,FALSE,FALSE,77.25,77.25,0.01,450,7,66,294,111,134,1.94,100972,49.99,  3.88 m/s,195°
695204.6759,5912868.357,12-12-22 12:36,862,53.32896423,5.931556702,28.21,FALSE,FALSE,FALSE,77.23,77.23,0.01,450,7,66,292,111,133,2,100973,49.99,  3.95 m/s,196°
695209.3393,5912869.399,12-12-22 12:36,863,53.32897186,5.931627274,28.22,FALSE,FALSE,FALSE,77.27,77.27,0.01,450,7,66,293,111,133,2.06,100974,49.99,  3.95 m/s,196°
695214.3662,5912870.881,12-12-22 12:36,864,53.32898331,5.931703568,28.23,FALSE,FALSE,FALSE,77.39,77.39,0.01,455,8,66,293,110,133,2.09,100971,49.99,  3.95 m/s,196°
695219.2344,5912872.355,12-12-22 12:36,865,53.32899475,5.931777477,28.26,FALSE,FALSE,FALSE,77.19,77.19,0.01,466,10,66,293,110,133,2.12,100975,49.99,  3.95 m/s,196°
695224.12,5912873.405,12-12-22 12:36,866,53.32900238,5.931851387,28.29,FALSE,FALSE,FALSE,77.34,77.34,0.01,450,7,67,294,110,133,2.14,100969,49.99,  3.73 m/s,190°
695228.7661,5912874.871,12-12-22 12:36,867,53.32901382,5.931921959,28.3,FALSE,FALSE,FALSE,77.3,77.3,0.01,450,7,67,293,110,134,2.17,100969,49.99,  3.73 m/s,190°
695233.8422,5912875.929,12-12-22 12:36,868,53.32902145,5.93199873,28.3,FALSE,FALSE,FALSE,77.27,77.27,0.01,450,7,67,293,110,133,2.2,100971,49.99,  3.73 m/s,190°
695238.6786,5912877.403,12-12-22 12:36,869,53.3290329,5.932072163,28.32,FALSE,FALSE,FALSE,77.24,77.24,0.01,450,7,67,293,110,133,2.21,100971,49.99,  3.73 m/s,190°
695243.5642,5912878.454,12-12-22 12:36,870,53.32904053,5.932146072,28.36,FALSE,FALSE,FALSE,77.33,77.33,0.01,466,10,67,293,111,133,2.23,100970,49.99,  3.73 m/s,190°
695248.1467,5912879.916,12-12-22 12:36,871,53.32905197,5.932215691,28.36,FALSE,FALSE,FALSE,77.25,77.25,0.01,450,7,67,294,110,133,2.23,100969,49.99,  3.87 m/s,191°
695253.2228,5912880.975,12-12-22 12:36,872,53.3290596,5.932292461,28.35,FALSE,FALSE,FALSE,77.31,77.31,0.01,455,8,66,293,110,133,2.25,100967,49.99,  3.87 m/s,191°
695258.0592,5912882.448,12-12-22 12:36,873,53.32907104,5.932365894,28.37,FALSE,FALSE,FALSE,77.13,77.13,0.01,450,7,67,293,110,133,2.26,100972,49.99,  3.87 m/s,191°
695262.8956,5912883.922,12-12-22 12:36,874,53.32908249,5.932439327,28.4,FALSE,FALSE,FALSE,77.24,77.24,0.01,455,8,67,293,110,134,2.28,100965,49.99,  3.87 m/s,191°
695267.6543,5912884.968,12-12-22 12:36,875,53.32909012,5.93251133,28.43,FALSE,FALSE,FALSE,77.4,77.4,0.01,466,10,67,294,110,133,2.3,100966,49.99,  3.87 m/s,191°
695272.5542,5912886.443,12-12-22 12:36,876,53.32910156,5.932585716,28.45,FALSE,FALSE,FALSE,77.18,77.18,0.01,455,8,67,293,110,133,2.32,100969,49.99,  3.87 m/s,191°
695277.4081,5912887.493,12-12-22 12:36,877,53.32910919,5.932659149,28.47,FALSE,FALSE,FALSE,77.27,77.27,0.01,455,8,67,293,111,133,2.34,100965,49.99,  3.33 m/s,186°
695282.181,5912888.964,12-12-22 12:36,878,53.32912064,5.932731628,28.47,FALSE,FALSE,FALSE,77.18,77.18,0.01,450,7,67,293,109,133,2.38,100969,49.99,  3.33 m/s,186°
695287.1619,5912890.019,12-12-22 12:36,879,53.32912827,5.932806969,28.46,FALSE,FALSE,FALSE,77.14,77.14,0.01,459,8,67,292,110,134,2.39,100971,49.99,  3.33 m/s,186°
695291.9983,5912891.492,12-12-22 12:36,880,53.32913971,5.932880402,28.46,FALSE,FALSE,FALSE,77.24,77.24,0.01,466,10,67,293,110,133,2.45,100972,49.99,  3.33 m/s,186°
695296.803,5912892.964,12-12-22 12:36,881,53.32915115,5.932953358,28.47,FALSE,FALSE,FALSE,77.34,77.34,0.01,459,8,66,292,110,133,2.47,100970,49.99,  3.40 m/s,194°
695301.5616,5912894.009,12-12-22 12:36,882,53.32915878,5.93302536,28.51,FALSE,FALSE,FALSE,77.21,77.21,0.01,459,8,67,292,110,134,2.5,100969,49.99,  3.40 m/s,194°
695306.5249,5912895.489,12-12-22 12:36,883,53.32917023,5.9331007,28.54,FALSE,FALSE,FALSE,77.22,77.22,0.01,459,8,67,292,110,133,2.54,100970,49.99,  3.40 m/s,194°
695311.3471,5912896.537,12-12-22 12:36,884,53.32917786,5.933173657,28.55,FALSE,FALSE,FALSE,77.11,77.11,0.01,459,8,67,292,110,134,2.57,100971,49.99,  3.40 m/s,194°
695315.993,5912898.002,12-12-22 12:36,885,53.3291893,5.933244228,28.55,FALSE,FALSE,FALSE,77.26,77.26,0.01,466,10,67,292,110,133,2.59,100973,49.99,  3.40 m/s,194°
695321.0373,5912899.059,12-12-22 12:36,886,53.32919693,5.933320522,28.57,FALSE,FALSE,FALSE,77.31,77.31,0.01,460,9,67,292,109,134,2.58,100970,49.99,  3.44 m/s,195°
695325.8737,5912900.532,12-12-22 12:36,887,53.32920837,5.933393955,28.62,FALSE,FALSE,FALSE,77.2,77.2,0.01,455,8,67,292,109,133,2.58,100971,49.99,  3.44 m/s,195°
695330.7276,5912901.582,12-12-22 12:36,888,53.329216,5.933467388,28.62,FALSE,FALSE,FALSE,77.42,77.42,0.01,459,8,66,292,110,133,2.57,100970,49.99,  3.44 m/s,195°
695335.437,5912903.051,12-12-22 12:36,889,53.32922745,5.933538914,28.62,FALSE,FALSE,FALSE,77.28,77.28,0.01,455,8,66,292,109,134,2.57,100967,49.99,  3.44 m/s,195°
695340.4004,5912904.529,12-12-22 12:36,890,53.32923889,5.933614254,28.64,FALSE,FALSE,FALSE,77.25,77.25,0.01,463,9,67,291,109,134,2.58,100971,49.99,  3.44 m/s,195°
695345.2225,5912905.577,12-12-22 12:36,891,53.32924652,5.93368721,28.67,FALSE,FALSE,FALSE,77.28,77.28,0.01,460,9,67,291,110,133,2.56,100966,49.99,  2.21 m/s,204°
695350.0588,5912907.051,12-12-22 12:36,892,53.32925797,5.933760643,28.69,FALSE,FALSE,FALSE,77.25,77.25,0.01,455,8,67,292,109,133,2.55,100968,49.99,  2.21 m/s,204°
695354.7222,5912908.092,12-12-22 12:36,893,53.32926559,5.933831215,28.72,FALSE,FALSE,FALSE,77.11,77.11,0.01,450,7,67,292,110,133,2.57,100964,49.99,  2.21 m/s,204°
695359.7173,5912909.573,12-12-22 12:36,894,53.32927704,5.933907032,28.76,FALSE,FALSE,FALSE,77.27,77.27,0.01,455,8,66,292,109,134,2.58,100966,49.99,  2.21 m/s,204°
695364.5537,5912911.046,12-12-22 12:36,895,53.32928848,5.933980465,28.78,FALSE,FALSE,FALSE,77.65,77.65,0.01,463,9,67,293,108,134,2.58,100965,49.99,  2.21 m/s,204°
695369.4393,5912912.097,12-12-22 12:36,896,53.32929611,5.934054375,28.78,FALSE,FALSE,FALSE,77.38,77.38,0.01,459,8,67,293,109,133,2.6,100965,49.99,  2.21 m/s,204°
695374.3391,5912913.574,12-12-22 12:37,897,53.32930756,5.934128761,28.77,FALSE,FALSE,FALSE,77.12,77.12,0.01,459,8,67,293,109,134,2.62,100968,49.99,  2.21 m/s,204°
695379.2247,5912914.624,12-12-22 12:37,898,53.32931519,5.934202671,28.77,FALSE,FALSE,FALSE,77.15,77.15,0.01,455,8,67,292,109,134,2.61,100965,49.99,  2.21 m/s,204°
695383.9976,5912916.095,12-12-22 12:37,899,53.32932663,5.93427515,28.8,FALSE,FALSE,FALSE,77.16,77.16,0.01,455,8,67,292,109,133,2.61,100964,49.99,  2.21 m/s,204°
695388.8514,5912917.144,12-12-22 12:37,900,53.32933426,5.934348583,28.84,FALSE,FALSE,FALSE,77.19,77.19,0.01,460,9,67,292,109,133,2.61,100967,49.99,  2.21 m/s,204°
695393.7195,5912918.619,12-12-22 12:37,901,53.3293457,5.934422493,28.85,FALSE,FALSE,FALSE,77.21,77.21,0.01,459,8,67,291,109,134,2.6,100965,49.99,  2.21 m/s,204°
695398.5416,5912919.667,12-12-22 12:37,902,53.32935333,5.934495449,28.86,FALSE,FALSE,FALSE,77.3,77.3,0.01,450,7,67,292,109,133,2.61,100964,49.99,  2.21 m/s,204°
695403.3779,5912921.141,12-12-22 12:37,903,53.32936478,5.934568882,28.86,FALSE,FALSE,FALSE,77.21,77.21,0.01,455,8,67,292,109,133,2.64,100964,49.99,  2.21 m/s,204°
695408.1191,5912922.611,12-12-22 12:37,904,53.32937622,5.934640884,28.89,FALSE,FALSE,FALSE,77.57,77.57,0.01,455,8,66,292,109,133,2.63,100964,49.99,  2.21 m/s,204°
695413.0681,5912923.664,12-12-22 12:37,905,53.32938385,5.934715748,28.92,FALSE,FALSE,FALSE,77.35,77.35,0.01,460,9,66,292,109,133,2.67,100964,49.99,  2.21 m/s,204°
695417.9363,5912925.139,12-12-22 12:37,906,53.32939529,5.934789658,28.91,FALSE,FALSE,FALSE,77.32,77.32,0.01,463,9,67,292,109,133,2.71,100964,49.99,  2.29 m/s,190°
695422.7901,5912926.188,12-12-22 12:37,907,53.32940292,5.934863091,28.91,FALSE,FALSE,FALSE,77.15,77.15,0.01,459,8,67,292,109,134,2.73,100968,49.99,  2.29 m/s,190°
695427.5311,5912927.659,12-12-22 12:37,908,53.32941437,5.934935093,28.9,FALSE,FALSE,FALSE,77.24,77.24,0.01,455,8,67,292,108,134,2.73,100966,49.99,  2.29 m/s,190°
695432.5754,5912928.716,12-12-22 12:37,909,53.329422,5.935011387,28.91,FALSE,FALSE,FALSE,77.36,77.36,0.01,455,8,67,291,109,133,2.72,100967,49.99,  2.29 m/s,190°
695437.0943,5912930.176,12-12-22 12:37,910,53.32943344,5.935080051,28.93,FALSE,FALSE,FALSE,76.64,76.64,0.01,459,8,66,292,109,133,2.72,100968,49.99,  2.29 m/s,190°
695440.8165,5912932.453,12-12-22 12:37,911,53.32945251,5.935137272,28.95,FALSE,FALSE,FALSE,51.84,51.84,0.01,460,9,67,292,109,134,2.7,100968,49.99,  2.29 m/s,190°
695442.9133,5912936.365,12-12-22 12:37,912,53.32948685,5.935171127,28.83,FALSE,FALSE,FALSE,17.72,17.72,0.01,455,8,68,292,109,133,2.71,100962,49.99,  2.52 m/s,193°
695442.5944,5912941.026,12-12-22 12:37,913,53.32952881,5.93516922,28.69,FALSE,FALSE,FALSE,349.34,349.34,0.01,459,8,67,292,108,133,2.72,100959,49.99,  2.52 m/s,193°
695441.0232,5912945.211,12-12-22 12:37,914,53.32956696,5.935148239,28.56,FALSE,FALSE,FALSE,341.23,341.23,0.01,450,7,67,292,108,134,2.71,100953,49.99,  2.52 m/s,193°
695437.9949,5912948.485,12-12-22 12:37,915,53.32959747,5.935104847,28.47,FALSE,FALSE,FALSE,310.47,310.47,0.01,450,7,67,291,108,133,2.72,100951,49.99,  2.52 m/s,193°
695433.9888,5912950.02,12-12-22 12:37,916,53.32961273,5.935045719,28.38,FALSE,FALSE,FALSE,281.12,281.12,0.01,444,6,67,291,108,134,2.7,100947,49.99,  2.43 m/s,201°
695429.8477,5912949.426,12-12-22 12:37,917,53.32960892,5.934983254,28.37,FALSE,FALSE,FALSE,258.72,258.72,0.01,428,4,67,293,108,133,2.62,100940,49.99,  2.43 m/s,201°
695425.5828,5912947.975,12-12-22 12:37,918,53.32959747,5.934918404,28.35,FALSE,FALSE,FALSE,256.26,256.26,0.01,428,4,67,292,108,133,2.54,100938,49.99,  2.43 m/s,201°
695421.0321,5912946.513,12-12-22 12:37,919,53.32958603,5.934849262,28.32,FALSE,FALSE,FALSE,256.4,256.4,0.01,423,3,66,291,108,133,2.48,100943,49.99,  2.43 m/s,201°
695416.2419,5912945.466,12-12-22 12:37,920,53.3295784,5.934776783,28.31,FALSE,FALSE,FALSE,256.38,256.38,0.01,420,3,66,292,108,133,2.42,100944,49.99,  2.43 m/s,201°
695411.2468,5912943.987,12-12-22 12:37,921,53.32956696,5.934700966,28.31,FALSE,FALSE,FALSE,256.43,256.43,0.01,428,4,66,291,108,132,2.36,100944,49.99,  2.32 m/s,200°
695406.2518,5912942.506,12-12-22 12:37,922,53.32955551,5.934625149,28.29,FALSE,FALSE,FALSE,256.49,256.49,0.01,415,2,65,292,108,132,2.29,100943,49.99,  2.32 m/s,200°
695401.3345,5912941.454,12-12-22 12:37,923,53.32954788,5.934550762,28.27,FALSE,FALSE,FALSE,256.57,256.57,0.01,410,1,65,292,107,133,2.22,100939,49.99,  2.32 m/s,200°
695396.5616,5912939.983,12-12-22 12:37,924,53.32953644,5.934478283,28.25,FALSE,FALSE,FALSE,256.49,256.49,0.01,408,1,65,292,107,133,2.16,100945,49.99,  2.32 m/s,200°
695391.6443,5912938.931,12-12-22 12:37,925,53.32952881,5.934403896,28.22,FALSE,FALSE,FALSE,256.65,256.65,0.01,408,1,65,292,108,133,2.1,100942,49.99,  2.32 m/s,200°
695386.7128,5912937.453,12-12-22 12:37,926,53.32951736,5.934329033,28.19,FALSE,FALSE,FALSE,256.61,256.61,0.01,420,3,64,292,107,133,2.05,100942,49.99,  2.45 m/s,200°
695381.8589,5912936.404,12-12-22 12:37,927,53.32950974,5.9342556,28.18,FALSE,FALSE,FALSE,256.49,256.49,0.01,405,0,64,292,107,133,2,100941,49.99,  2.45 m/s,200°
695377.1179,5912934.934,12-12-22 12:37,928,53.32949829,5.934183598,28.17,FALSE,FALSE,FALSE,256.63,256.63,0.01,403,0,64,291,107,133,1.94,100938,49.99,  2.45 m/s,200°
695372.218,5912933.458,12-12-22 12:37,929,53.32948685,5.934109211,28.17,FALSE,FALSE,FALSE,256.55,256.55,0.01,403,0,64,291,107,133,1.89,100941,49.99,  2.45 m/s,200°
695367.269,5912932.405,12-12-22 12:37,930,53.32947922,5.934034348,28.16,FALSE,FALSE,FALSE,256.49,256.49,0.01,400,0,64,292,107,132,1.86,100941,49.99,  2.45 m/s,200°
695362.4643,5912930.932,12-12-22 12:37,931,53.32946777,5.933961391,28.16,FALSE,FALSE,FALSE,256.46,256.46,0.01,414,2,64,292,106,132,1.83,100941,49.99,  2.41 m/s,203°
695357.7375,5912929.888,12-12-22 12:37,932,53.32946014,5.933889866,28.14,FALSE,FALSE,FALSE,256.71,256.71,0.01,400,0,64,292,107,132,1.79,100940,49.99,  2.41 m/s,203°
695352.9011,5912928.414,12-12-22 12:37,933,53.3294487,5.933816433,28.12,FALSE,FALSE,FALSE,256.62,256.62,0.01,403,0,64,292,107,132,1.76,100940,49.99,  2.41 m/s,203°
695347.9521,5912927.361,12-12-22 12:37,934,53.32944107,5.93374157,28.12,FALSE,FALSE,FALSE,256.53,256.53,0.01,403,0,63,292,107,132,1.72,100940,49.99,  2.41 m/s,203°
695343.0522,5912925.885,12-12-22 12:37,935,53.32942963,5.933667183,28.09,FALSE,FALSE,FALSE,256.61,256.61,0.01,403,0,64,292,107,132,1.7,100940,49.99,  2.41 m/s,203°
695338.3746,5912924.418,12-12-22 12:37,936,53.32941818,5.933596134,28.06,FALSE,FALSE,FALSE,256.65,256.65,0.01,414,2,63,292,107,132,1.66,100946,49.99,  2.78 m/s,199°
