X,Y,TimeStamp (UTC),"""TriggerID""","""Latitude""","""Longitude""","""Altitude (Meter AGL)""",Gimbal Roll,"""Gimbal Pitch""","""Gimbal Yaw""","""Drone Yaw""","""Combined Yaw""",HCHO (ppm),CO2 (ppm),TVOC (ppb),NO2 (ppm),C2H5OH (ppm),VOC (ppm),CO (ppm),Temp (Celcius),Pressure (pa),Altitude (meter),wind_speed,wind_direction
695392.8518,5912757.958,12/21/2022 11:34,1,53.32790375,5.934310436,0.87,FALSE,FALSE,FALSE,348.57,348.57,0.01,416,2,153,306,268,146,9.85,100864,58.34,  9.45 m/s,210°
695392.8518,5912757.958,12/21/2022 11:34,2,53.32790375,5.934310436,1.22,FALSE,FALSE,FALSE,348.44,348.44,0.01,413,1,151,307,267,146,9.82,100854,58.34,  9.45 m/s,210°
695392.8518,5912757.958,12/21/2022 11:34,3,53.32790375,5.934310436,3.09,FALSE,FALSE,FALSE,348.7,348.7,0.01,402,0,152,307,267,146,9.78,100838,58.34,  9.45 m/s,210°
695392.8518,5912757.958,12/21/2022 11:34,4,53.32790375,5.934310436,6.24,FALSE,FALSE,FALSE,348.27,348.27,0.01,400,0,150,306,267,146,9.74,100799,66.7,  9.45 m/s,210°
695392.7883,5912757.956,12/21/2022 11:34,5,53.32790375,5.934309483,9.12,FALSE,FALSE,FALSE,348.68,348.68,0.01,400,0,149,301,266,145,9.69,100770,66.7,  9.45 m/s,210°
695392.82,5912757.957,12/21/2022 11:34,6,53.32790375,5.934309959,9.92,FALSE,FALSE,FALSE,344.02,344.02,0.01,409,1,149,307,266,146,9.65,100744,66.7,  9.45 m/s,210°
695392.9153,5912757.961,12/21/2022 11:34,7,53.32790375,5.93431139,9.78,FALSE,FALSE,FALSE,338.07,338.07,0.01,409,1,148,306,264,145,9.66,100736,66.7,  9.45 m/s,210°
695392.6582,5912758.8,12/21/2022 11:34,8,53.32791138,5.934308052,9.69,FALSE,FALSE,FALSE,338.77,338.77,0.01,400,0,147,305,264,145,9.65,100733,66.7,  9.45 m/s,210°
695391.5059,5912761.303,12/21/2022 11:34,9,53.32793427,5.934292316,9.59,FALSE,FALSE,FALSE,338.23,338.23,0.01,406,0,147,305,264,145,9.59,100748,66.7,  9.45 m/s,210°
695389.8569,5912765.059,12/21/2022 11:34,10,53.3279686,5.934269905,9.55,FALSE,FALSE,FALSE,338.15,338.15,0.01,409,1,146,305,263,145,9.56,100755,66.7,  9.45 m/s,210°
695388.0635,5912769.234,12/21/2022 11:34,11,53.32800674,5.934245586,9.55,FALSE,FALSE,FALSE,338.18,338.18,0.01,413,1,146,305,262,145,9.54,100754,66.7,  9.45 m/s,210°
695385.9495,5912774.247,12/21/2022 11:34,12,53.32805252,5.934216976,9.54,FALSE,FALSE,FALSE,338.24,338.24,0.01,428,4,146,306,263,145,9.52,100759,66.7,  9.45 m/s,210°
695383.8672,5912779.261,12/21/2022 11:34,13,53.3280983,5.934188843,9.53,FALSE,FALSE,FALSE,338.47,338.47,0.01,415,2,147,306,262,146,9.52,100756,66.7,  9.45 m/s,210°
695381.8341,5912783.851,12/21/2022 11:34,14,53.32814026,5.934161186,9.52,FALSE,FALSE,FALSE,338.36,338.36,0.01,413,1,147,306,262,145,9.51,100761,66.7,  9.45 m/s,210°
695379.7693,5912788.441,12/21/2022 11:34,15,53.32818222,5.934133053,9.51,FALSE,FALSE,FALSE,338.36,338.36,0.01,413,1,147,306,261,145,9.49,100752,66.7,  9.45 m/s,210°
695378.0077,5912792.618,12/21/2022 11:34,16,53.32822037,5.934109211,9.52,FALSE,FALSE,FALSE,337.58,337.58,0.01,413,1,147,306,261,145,9.51,100756,66.7,  9.45 m/s,210°
695377.303,5912794.289,12/21/2022 11:34,17,53.32823563,5.934099674,9.5,FALSE,FALSE,FALSE,335.5,335.5,0.01,418,2,147,306,261,145,9.51,100749,66.7,  9.45 m/s,210°
695377.4791,5912793.87,12/21/2022 11:34,18,53.32823181,5.934102058,9.51,FALSE,FALSE,FALSE,256.49,256.49,0.01,413,1,145,306,261,145,9.54,100747,66.7,  9.45 m/s,210°
695377.8776,5912793.462,12/21/2022 11:34,19,53.328228,5.934107781,9.52,FALSE,FALSE,FALSE,253.46,253.46,0.01,409,1,145,305,260,146,9.43,100729,66.7,  9.45 m/s,210°
695377.2458,5912792.586,12/21/2022 11:34,20,53.32822037,5.934097767,9.49,FALSE,FALSE,FALSE,254.33,254.33,0.01,400,0,144,305,260,144,9.31,100725,66.7,  9.45 m/s,210°
695375.1855,5912791.652,12/21/2022 11:34,21,53.32821274,5.934066296,9.47,FALSE,FALSE,FALSE,253.82,253.82,0.01,400,0,143,305,259,144,9.18,100721,66.7,  9.45 m/s,210°
695372.2045,5912790.679,12/21/2022 11:34,22,53.32820511,5.934020996,9.45,FALSE,FALSE,FALSE,253.36,253.36,0.01,408,1,141,305,258,144,9.03,100720,66.7,  9.45 m/s,210°
695368.8283,5912789.265,12/21/2022 11:34,23,53.32819366,5.933969498,9.4,FALSE,FALSE,FALSE,253.44,253.44,0.01,403,0,141,304,258,144,8.88,100716,66.7,  9.45 m/s,210°
695364.9584,5912788.257,12/21/2022 11:34,24,53.32818604,5.933910847,9.37,FALSE,FALSE,FALSE,253.3,253.3,0.01,405,0,140,305,258,144,8.71,100715,66.7,  9.45 m/s,210°
695360.6298,5912786.804,12/21/2022 11:34,25,53.32817459,5.933845043,9.34,FALSE,FALSE,FALSE,253.46,253.46,0.01,400,0,138,305,257,144,8.56,100712,66.7,  9.45 m/s,210°
695355.9378,5912784.911,12/21/2022 11:34,26,53.32815933,5.933773518,9.29,FALSE,FALSE,FALSE,253.17,253.17,0.01,400,0,139,304,256,144,8.42,100717,66.7,  9.45 m/s,210°
695351.006,5912783.434,12/21/2022 11:34,27,53.32814789,5.933698654,9.27,FALSE,FALSE,FALSE,253.1,253.1,0.01,408,1,138,305,256,144,8.31,100711,66.7,  9.45 m/s,210°
695346.1869,5912781.536,12/21/2022 11:34,28,53.32813263,5.933625221,9.24,FALSE,FALSE,FALSE,252.83,252.83,0.01,416,2,137,305,256,143,8.18,100717,66.7,  9.45 m/s,210°
695341.2869,5912780.06,12/21/2022 11:34,29,53.32812119,5.933550835,9.18,FALSE,FALSE,FALSE,253.19,253.19,0.01,405,0,137,305,255,143,8.08,100721,66.7,  9.45 m/s,210°
695336.4996,5912778.164,12/21/2022 11:34,30,53.32810593,5.933477879,9.18,FALSE,FALSE,FALSE,253.29,253.29,0.01,400,0,137,306,255,143,8.02,100721,66.7,  9.45 m/s,210°
695331.7582,5912776.693,12/21/2022 11:34,31,53.32809448,5.933405876,9.13,FALSE,FALSE,FALSE,254.03,254.03,0.01,405,0,136,306,254,143,7.92,100731,66.7,  9.45 m/s,210°
695326.8408,5912775.641,12/21/2022 11:35,32,53.32808685,5.93333149,9.04,FALSE,FALSE,FALSE,255.01,255.01,0.01,408,1,135,305,254,143,7.84,100731,66.7,  9.45 m/s,210°
695322.0995,5912774.172,12/21/2022 11:35,33,53.32807541,5.933259487,8.99,FALSE,FALSE,FALSE,255.47,255.47,0.01,416,2,135,305,253,143,7.77,100727,66.7,  9.45 m/s,210°
695317.1995,5912772.695,12/21/2022 11:35,34,53.32806396,5.933185101,8.93,FALSE,FALSE,FALSE,256.13,256.13,0.01,402,0,135,306,253,142,7.69,100723,66.7,  9.45 m/s,210°
695312.4407,5912771.651,12/21/2022 11:35,35,53.32805634,5.933113098,8.87,FALSE,FALSE,FALSE,256.83,256.83,0.01,400,0,134,305,252,143,7.6,100729,66.7,  9.45 m/s,210°
695307.6359,5912770.178,12/21/2022 11:35,36,53.32804489,5.933040142,8.83,FALSE,FALSE,FALSE,257.37,257.37,0.01,403,0,133,305,252,143,7.54,100723,66.7,  9.45 m/s,210°
695303.3216,5912769.151,12/21/2022 11:35,37,53.32803726,5.932974815,8.83,FALSE,FALSE,FALSE,256.31,256.31,0.01,400,0,132,305,252,143,7.49,100726,66.7,  9.45 m/s,210°
695300.3724,5912768.18,12/21/2022 11:35,38,53.32802963,5.932929993,8.75,FALSE,FALSE,FALSE,246.26,246.26,0.01,414,2,132,305,251,142,7.47,100732,66.7,  9.45 m/s,210°
695297.158,5912765.923,12/21/2022 11:35,39,53.32801056,5.932880402,8.74,FALSE,FALSE,FALSE,241.7,241.7,0.01,406,0,132,305,251,142,7.45,100733,66.7,  9.45 m/s,210°
695294.0326,5912765.369,12/21/2022 11:35,40,53.32800674,5.932833195,8.76,FALSE,FALSE,FALSE,304.62,304.62,0.01,406,0,133,306,251,143,7.41,100752,66.7,  9.45 m/s,210°
695293.3248,5912767.89,12/21/2022 11:35,41,53.32802963,5.932824135,8.55,FALSE,FALSE,FALSE,3.84,3.84,0.01,414,2,133,306,250,142,7.49,100762,66.7,  9.45 m/s,210°
695295.1424,5912770.09,12/21/2022 11:35,42,53.32804871,5.932852745,8.56,FALSE,FALSE,FALSE,72.92,72.92,0.01,422,3,132,306,250,143,7.56,100794,66.7,  9.45 m/s,210°
695297.6646,5912770.618,12/21/2022 11:35,43,53.32805252,5.932890892,8.61,FALSE,FALSE,FALSE,91.18,91.18,0.01,435,5,133,306,249,143,7.62,100789,66.7,  9.45 m/s,210°
695300.7296,5912770.32,12/21/2022 11:35,44,53.32804871,5.932936668,8.69,FALSE,FALSE,FALSE,90.33,90.33,0.01,439,5,132,306,249,142,7.67,100791,66.7,  9.45 m/s,210°
695304.3313,5912770.892,12/21/2022 11:35,45,53.32805252,5.932991028,8.75,FALSE,FALSE,FALSE,75.23,75.23,0.01,435,5,132,306,249,142,7.72,100784,66.7,  9.45 m/s,210°
695307.6615,5912771.879,12/21/2022 11:35,46,53.32806015,5.933041573,8.77,FALSE,FALSE,FALSE,73,73,0.01,439,5,131,307,249,142,7.78,100784,66.7,  9.45 m/s,210°
695311.6726,5912773.318,12/21/2022 11:35,47,53.32807159,5.933102608,8.83,FALSE,FALSE,FALSE,73.62,73.62,0.01,443,6,132,307,248,143,7.82,100786,66.7,  9.45 m/s,210°
695316.1599,5912774.778,12/21/2022 11:35,48,53.32808304,5.933170795,8.86,FALSE,FALSE,FALSE,73.39,73.39,0.01,450,7,131,307,248,142,7.88,100788,66.7,  9.45 m/s,210°
695321.1235,5912776.256,12/21/2022 11:35,49,53.32809448,5.933246136,8.92,FALSE,FALSE,FALSE,73.47,73.47,0.01,454,8,131,306,247,142,7.92,100785,66.7,  9.45 m/s,210°
695325.9108,5912778.153,12/21/2022 11:35,50,53.32810974,5.933319092,8.98,FALSE,FALSE,FALSE,73.24,73.24,0.01,443,6,131,306,248,143,7.94,100783,66.7,  9.45 m/s,210°
695330.5569,5912779.619,12/21/2022 11:35,51,53.32812119,5.933389664,9.02,FALSE,FALSE,FALSE,73.49,73.49,0.01,445,6,130,306,247,142,7.98,100783,66.7,  9.45 m/s,210°
695335.4886,5912781.096,12/21/2022 11:35,52,53.32813263,5.933464527,9.08,FALSE,FALSE,FALSE,73.64,73.64,0.01,450,7,130,307,247,143,7.99,100783,66.7,  9.45 m/s,210°
695340.403,5912782.998,12/21/2022 11:35,53,53.32814789,5.933539391,9.13,FALSE,FALSE,FALSE,73.66,73.66,0.01,450,7,130,306,246,142,8.03,100779,66.7,  9.45 m/s,210°
695345.1442,5912784.467,12/21/2022 11:35,54,53.32815933,5.933611393,9.19,FALSE,FALSE,FALSE,73.67,73.67,0.01,459,8,130,307,246,142,8.05,100779,66.7,  9.45 m/s,210°
695349.949,5912785.94,12/21/2022 11:35,55,53.32817078,5.933684349,9.25,FALSE,FALSE,FALSE,73.58,73.58,0.01,450,7,129,306,245,142,8.08,100778,66.7,  9.45 m/s,210°
695354.5776,5912787.831,12/21/2022 11:35,56,53.32818604,5.933754921,9.3,FALSE,FALSE,FALSE,73.72,73.72,0.01,450,7,129,306,245,142,8.1,100780,66.7,  9.45 m/s,210°
695359.3506,5912789.301,12/21/2022 11:35,57,53.32819748,5.9338274,9.34,FALSE,FALSE,FALSE,73.42,73.42,0.01,445,6,129,306,244,142,8.11,100781,66.7,  9.45 m/s,210°
695364.2189,5912790.776,12/21/2022 11:35,58,53.32820892,5.93390131,9.38,FALSE,FALSE,FALSE,73.65,73.65,0.01,445,6,128,306,244,142,8.14,100781,66.7,  9.45 m/s,210°
695368.8793,5912792.667,12/21/2022 11:35,59,53.32822418,5.933972359,9.44,FALSE,FALSE,FALSE,73.56,73.56,0.01,459,8,128,307,244,142,8.15,100777,66.7,  9.45 m/s,210°
695373.5887,5912794.136,12/21/2022 11:35,60,53.32823563,5.934043884,9.48,FALSE,FALSE,FALSE,74.73,74.73,0.01,455,8,127,306,243,141,8.17,100772,66.7,  9.45 m/s,210°
695376.9189,5912795.123,12/21/2022 11:35,61,53.32824326,5.934094429,9.5,FALSE,FALSE,FALSE,74.75,74.75,0.01,454,8,127,306,242,141,8.2,100773,66.7,  9.45 m/s,210°
695377.8681,5912796.012,12/21/2022 11:35,62,53.32825089,5.934109211,9.5,FALSE,FALSE,FALSE,32.78,32.78,0.01,454,8,127,305,242,142,8.23,100766,66.7,  5.77 m/s,202°
695377.2127,5912797.259,12/21/2022 11:35,63,53.32826233,5.934100151,9.51,FALSE,FALSE,FALSE,338.93,338.93,0.01,443,6,127,306,242,142,8.24,100740,66.7,  5.77 m/s,202°
695375.6397,5912797.619,12/21/2022 11:35,64,53.32826614,5.934076786,9.52,FALSE,FALSE,FALSE,273.7,273.7,0.01,454,8,127,306,242,142,8.28,100731,66.7,  5.77 m/s,202°
695373.7842,5912797.118,12/21/2022 11:35,65,53.32826233,5.934048653,9.54,FALSE,FALSE,FALSE,254.44,254.44,0.01,450,7,127,307,241,142,8.18,100730,66.7,  7.19 m/s,189°
695371.135,5912796.584,12/21/2022 11:35,66,53.32825851,5.934008598,9.51,FALSE,FALSE,FALSE,253.8,253.8,0.01,439,5,127,307,241,142,8.07,100719,66.7,  7.19 m/s,189°
695367.4096,5912795.156,12/21/2022 11:35,67,53.32824707,5.933951855,9.47,FALSE,FALSE,FALSE,253.23,253.23,0.01,443,6,126,307,241,142,8,100730,66.7,  7.19 m/s,189°
695363.208,5912793.709,12/21/2022 11:35,68,53.32823563,5.933887959,9.4,FALSE,FALSE,FALSE,253.36,253.36,0.01,424,3,126,306,241,142,7.9,100722,66.7,  7.19 m/s,189°
695358.5937,5912792.244,12/21/2022 11:35,69,53.32822418,5.933817864,9.35,FALSE,FALSE,FALSE,253.05,253.05,0.01,418,2,126,307,240,143,7.81,100721,66.7,  7.19 m/s,189°
695353.7111,5912790.344,12/21/2022 11:35,70,53.32820892,5.933743477,9.32,FALSE,FALSE,FALSE,252.78,252.78,0.01,415,2,126,306,241,143,7.72,100724,66.7,  7.19 m/s,189°
695348.8111,5912788.868,12/21/2022 11:35,71,53.32819748,5.93366909,9.25,FALSE,FALSE,FALSE,253.21,253.21,0.01,415,2,126,307,240,141,7.64,100719,66.7,  7.19 m/s,189°
695344.1968,5912787.404,12/21/2022 11:35,72,53.32818604,5.933598995,9.2,FALSE,FALSE,FALSE,252.98,252.98,0.01,418,2,126,307,240,142,7.57,100730,66.7,  7.19 m/s,189°
695339.1554,5912785.497,12/21/2022 11:35,73,53.32817078,5.933522224,9.17,FALSE,FALSE,FALSE,252.98,252.98,0,415,2,125,307,240,142,7.51,100722,66.7,  7.19 m/s,189°
695334.5729,5912784.033,12/21/2022 11:35,74,53.32815933,5.933452606,9.14,FALSE,FALSE,FALSE,252.97,252.97,0,410,1,125,308,240,142,7.45,100724,66.7,  7.19 m/s,189°
695329.8317,5912782.564,12/21/2022 11:35,75,53.32814789,5.933380604,9.07,FALSE,FALSE,FALSE,253.52,253.52,0,406,0,125,306,239,142,7.38,100720,66.7,  7.19 m/s,189°
695325.0587,5912781.092,12/21/2022 11:35,76,53.32813644,5.933308125,9.01,FALSE,FALSE,FALSE,253.76,253.76,0,403,0,123,305,238,141,7.32,100719,66.7,  7.19 m/s,189°
695320.3808,5912779.626,12/21/2022 11:35,77,53.328125,5.933237076,8.97,FALSE,FALSE,FALSE,253.63,253.63,0,414,2,123,306,238,141,7.27,100718,66.7,  7.19 m/s,189°
695315.3395,5912777.719,12/21/2022 11:35,78,53.32810974,5.933160305,8.92,FALSE,FALSE,FALSE,253.58,253.58,0,410,1,122,306,237,142,7.23,100723,66.7,  7.19 m/s,189°
695310.6934,5912776.253,12/21/2022 11:35,79,53.3280983,5.933089733,8.88,FALSE,FALSE,FALSE,253.5,253.5,0,406,0,123,307,236,141,7.2,100721,66.7,  7.19 m/s,189°
695305.8743,5912774.355,12/21/2022 11:35,80,53.32808304,5.9330163,8.83,FALSE,FALSE,FALSE,253.18,253.18,0,401,0,122,307,236,141,7.15,100725,66.7,  7.19 m/s,189°
695301.1013,5912772.884,12/21/2022 11:35,81,53.32807159,5.932943821,8.78,FALSE,FALSE,FALSE,252.73,252.73,0,401,0,122,307,236,142,7.12,100731,66.7,  7.19 m/s,189°
695296.36,5912771.415,12/21/2022 11:35,82,53.32806015,5.932871819,8.75,FALSE,FALSE,FALSE,252.4,252.4,0,407,1,122,307,237,141,7.1,100745,66.7,  7.19 m/s,189°
695291.5091,5912769.515,12/21/2022 11:35,83,53.32804489,5.932797909,8.7,FALSE,FALSE,FALSE,252.64,252.64,0,416,2,122,308,237,141,7.07,100747,66.7,  7.19 m/s,189°
695286.7677,5912768.046,12/21/2022 11:35,84,53.32803345,5.932725906,8.66,FALSE,FALSE,FALSE,252.34,252.34,0,407,1,122,307,236,141,7.04,100739,66.7,  7.19 m/s,189°
695283.5646,5912767.065,12/21/2022 11:35,85,53.32802582,5.932677269,8.65,FALSE,FALSE,FALSE,252.82,252.82,0,411,1,122,308,236,142,7.03,100738,66.7,  7.93 m/s,193°
695282.3582,5912767.015,12/21/2022 11:35,86,53.32802582,5.932659149,8.57,FALSE,FALSE,FALSE,294.63,294.63,0.01,416,2,122,307,235,141,7.06,100751,66.7,  7.93 m/s,193°
695282.0663,5912768.703,12/21/2022 11:35,87,53.32804108,5.932655811,8.54,FALSE,FALSE,FALSE,344.5,344.5,0.01,420,3,122,308,235,142,7.14,100765,66.7,  7.93 m/s,193°
695283.1077,5912770.446,12/21/2022 11:35,88,53.32805634,5.932672501,8.59,FALSE,FALSE,FALSE,58.82,58.82,0.01,441,6,123,307,235,141,7.22,100792,66.7,  7.93 m/s,193°
695284.8363,5912770.941,12/21/2022 11:35,89,53.32806015,5.932698727,8.62,FALSE,FALSE,FALSE,72.53,72.53,0.01,435,5,122,307,235,141,7.3,100784,66.7,  7.93 m/s,193°
695287.6267,5912771.906,12/21/2022 11:35,90,53.32806778,5.932741165,8.65,FALSE,FALSE,FALSE,73.27,73.27,0.01,436,5,122,307,234,141,7.36,100788,66.7,  7.23 m/s,200°
695291.0839,5912772.898,12/21/2022 11:35,91,53.32807541,5.932793617,8.68,FALSE,FALSE,FALSE,73.43,73.43,0.01,436,5,122,307,234,141,7.41,100789,66.7,  7.23 m/s,200°
695295.2395,5912773.918,12/21/2022 11:36,92,53.32808304,5.93285656,8.72,FALSE,FALSE,FALSE,73.54,73.54,0.01,444,6,123,308,234,141,7.45,100782,66.7,  7.23 m/s,200°
695299.8364,5912775.807,12/21/2022 11:36,93,53.3280983,5.932926655,8.78,FALSE,FALSE,FALSE,73.39,73.39,0.01,455,8,122,308,234,141,7.48,100785,66.7,  7.23 m/s,200°
695304.7364,5912777.283,12/21/2022 11:36,94,53.32810974,5.933001041,8.85,FALSE,FALSE,FALSE,73.22,73.22,0.01,446,7,122,308,234,141,7.51,100784,66.7,  7.23 m/s,200°
695309.6364,5912778.76,12/21/2022 11:36,95,53.32812119,5.933075428,8.88,FALSE,FALSE,FALSE,73.49,73.49,0.01,444,6,122,308,233,142,7.56,100786,66.7,  7.23 m/s,200°
695314.4873,5912780.658,12/21/2022 11:36,96,53.32813644,5.933149338,8.94,FALSE,FALSE,FALSE,73.34,73.34,0.01,444,6,122,308,232,141,7.59,100784,66.7,  7.23 m/s,200°
695319.1968,5912782.127,12/21/2022 11:36,97,53.32814789,5.933220863,9,FALSE,FALSE,FALSE,73.54,73.54,0.01,444,6,121,308,233,141,7.62,100791,66.7,  7.23 m/s,200°
695324.1112,5912784.029,12/21/2022 11:36,98,53.32816315,5.933295727,9.04,FALSE,FALSE,FALSE,73.88,73.88,0.01,455,8,122,308,232,141,7.65,100787,66.7,  7.23 m/s,200°
695328.916,5912785.5,12/21/2022 11:36,99,53.32817459,5.933368683,9.09,FALSE,FALSE,FALSE,73.73,73.73,0.01,455,8,122,307,232,141,7.67,100782,66.7,  7.23 m/s,200°
