X,Y,TimeStamp (UTC),"""TriggerID""","""Latitude""","""Longitude""","""Altitude (Meter AGL)""",Gimbal Roll,"""Gimbal Pitch""","""Gimbal Yaw""","""Drone Yaw""","""Combined Yaw""",HCHO (ppm),CO2 (ppm),TVOC (ppb),NO2 (ppm),C2H5OH (ppm),VOC (ppm),CO (ppm),Temp (Celcius),Pressure (pa),Altitude (meter),wind_speed,wind_direction
695344.7394,5912838.418,12-12-22 11:04,529,53.3286438,5.933638573,20.34,FALSE,FALSE,FALSE,255.29,255.29,0.01,551,23,82,296,124,136,1.49,101074,41.64,  3.13 m/s,180°
695340.4426,5912836.966,12-12-22 11:04,530,53.32863235,5.933573246,20.23,FALSE,FALSE,FALSE,255.03,255.03,0.01,527,19,82,295,124,136,1.49,101073,41.64,  3.13 m/s,180°
695335.8601,5912835.503,12-12-22 11:04,531,53.32862091,5.933503628,20.12,FALSE,FALSE,FALSE,254.96,254.96,0.01,518,17,82,296,123,136,1.45,101078,41.64,  2.87 m/s,162°
695331.1967,5912834.462,12-12-22 11:04,532,53.32861328,5.933433056,20.01,FALSE,FALSE,FALSE,254.85,254.85,0.01,527,19,82,295,123,136,1.43,101080,41.64,  2.87 m/s,162°
695326.3919,5912832.99,12-12-22 11:04,533,53.32860184,5.9333601,19.88,FALSE,FALSE,FALSE,255.01,255.01,0.01,518,17,81,296,123,136,1.4,101078,41.64,  2.87 m/s,162°
695321.4602,5912831.512,12-12-22 11:04,534,53.32859039,5.933285236,19.76,FALSE,FALSE,FALSE,255.12,255.12,0.01,542,21,81,295,123,136,1.35,101083,41.64,  2.87 m/s,162°
695316.5602,5912830.036,12-12-22 11:04,535,53.32857895,5.93321085,19.63,FALSE,FALSE,FALSE,255.13,255.13,0.01,508,16,81,296,124,136,1.33,101082,41.64,  2.87 m/s,162°
695311.692,5912828.56,12-12-22 11:04,536,53.3285675,5.93313694,19.48,FALSE,FALSE,FALSE,254.97,254.97,0.01,508,16,81,296,122,136,1.31,101088,41.64,  2.56 m/s,178°
695306.9825,5912827.093,12-12-22 11:04,537,53.32855606,5.933065414,19.37,FALSE,FALSE,FALSE,255.32,255.32,0.01,508,16,80,296,123,136,1.29,101093,41.64,  2.56 m/s,178°
695302.019,5912825.614,12-12-22 11:04,538,53.32854462,5.932990074,19.25,FALSE,FALSE,FALSE,255.03,255.03,0.01,508,16,81,296,123,136,1.28,101092,41.64,  2.56 m/s,178°
695297.2143,5912824.141,12-12-22 11:04,539,53.32853317,5.932917118,19.12,FALSE,FALSE,FALSE,255.06,255.06,0.01,530,19,81,295,123,136,1.25,101096,41.64,  2.56 m/s,178°
695292.4874,5912823.097,12-12-22 11:04,540,53.32852554,5.932845593,19,FALSE,FALSE,FALSE,254.76,254.76,0.01,518,17,80,296,123,136,1.24,101095,41.64,  2.56 m/s,178°
695287.6191,5912821.623,12-12-22 11:04,541,53.3285141,5.932771683,18.87,FALSE,FALSE,FALSE,254.64,254.64,0.01,508,16,81,295,123,135,1.23,101099,41.64,  2.56 m/s,178°
695282.8461,5912820.152,12-12-22 11:04,542,53.32850266,5.932699204,18.72,FALSE,FALSE,FALSE,255.08,255.08,0.01,518,17,81,296,123,135,1.22,101098,41.64,  2.94 m/s,182°
695278.0413,5912818.679,12-12-22 11:04,543,53.32849121,5.932626247,18.59,FALSE,FALSE,FALSE,255.02,255.02,0.01,527,19,81,297,123,135,1.22,101103,33.3,  2.94 m/s,182°
695273.3318,5912817.212,12-12-22 11:04,544,53.32847977,5.932554722,18.45,FALSE,FALSE,FALSE,255.13,255.13,0.01,527,19,81,296,123,135,1.2,101104,33.3,  2.94 m/s,182°
695268.4001,5912815.733,12-12-22 11:04,545,53.32846832,5.932479858,18.32,FALSE,FALSE,FALSE,255.2,255.2,0.01,527,19,80,297,123,135,1.17,101104,33.3,  2.94 m/s,182°
695263.5953,5912814.262,12-12-22 11:04,546,53.32845688,5.932406902,18.18,FALSE,FALSE,FALSE,255.28,255.28,0.01,518,17,81,296,123,136,1.15,101106,33.3,  2.94 m/s,182°
695258.9001,5912813.219,12-12-22 11:04,547,53.32844925,5.932335854,18.06,FALSE,FALSE,FALSE,254.51,254.51,0.01,508,16,80,296,123,135,1.14,101105,33.3,  2.94 m/s,182°
695256.2683,5912812.261,12-12-22 11:04,548,53.32844162,5.932295799,17.98,FALSE,FALSE,FALSE,254.84,254.84,0.01,508,16,80,295,122,135,1.13,101111,33.3,  2.94 m/s,182°
695256.1557,5912812.681,12-12-22 11:04,549,53.32844543,5.932294369,17.95,FALSE,FALSE,FALSE,324.04,324.04,0.01,527,19,80,295,122,135,1.2,101114,33.3,  2.94 m/s,182°
695256.2908,5912814.812,12-12-22 11:04,550,53.32846451,5.932297707,17.96,FALSE,FALSE,FALSE,343.56,343.56,0.01,530,19,80,295,122,135,1.28,101130,33.3,  2.94 m/s,182°
695255.7704,5912818.19,12-12-22 11:04,551,53.32849503,5.932291985,17.95,FALSE,FALSE,FALSE,343.5,343.5,0.01,530,19,80,296,122,135,1.34,101133,33.3,  2.94 m/s,182°
695254.9786,5912821.982,12-12-22 11:04,552,53.32852936,5.932282448,17.91,FALSE,FALSE,FALSE,343.05,343.05,0.01,542,21,80,296,122,135,1.4,101133,33.3,  2.94 m/s,182°
695254.528,5912823.663,12-12-22 11:04,553,53.32854462,5.932276726,17.89,FALSE,FALSE,FALSE,344.52,344.52,0.01,542,21,80,295,122,135,1.46,101128,33.3,  2.94 m/s,182°
695254.9089,5912823.679,12-12-22 11:04,554,53.32854462,5.932282448,17.92,FALSE,FALSE,FALSE,64.3,64.3,0.01,553,21,81,296,123,135,1.51,101139,33.3,  2.94 m/s,182°
695256.9406,5912823.762,12-12-22 11:04,555,53.32854462,5.932312965,18.01,FALSE,FALSE,FALSE,75.9,75.9,0.01,542,21,80,296,122,135,1.58,101139,33.3,  2.94 m/s,182°
695260.0025,5912824.312,12-12-22 11:04,556,53.32854843,5.932359219,18.1,FALSE,FALSE,FALSE,75.32,75.32,0.01,551,23,80,296,123,135,1.63,101130,33.3,  2.94 m/s,182°
695263.7136,5912825.315,12-12-22 11:04,557,53.32855606,5.932415485,18.22,FALSE,FALSE,FALSE,75.61,75.61,0.01,567,25,81,296,122,135,1.63,101130,33.3,  2.94 m/s,182°
695267.9643,5912826.339,12-12-22 11:04,558,53.32856369,5.932479858,18.33,FALSE,FALSE,FALSE,75.66,75.66,0.01,542,21,80,296,122,135,1.64,101132,33.3,  2.94 m/s,182°
695272.6104,5912827.804,12-12-22 11:04,559,53.32857513,5.93255043,18.45,FALSE,FALSE,FALSE,76.1,76.1,0.01,542,21,80,296,122,136,1.65,101128,33.3,  2.94 m/s,182°
695277.7818,5912828.867,12-12-22 11:04,560,53.32858276,5.932628632,18.58,FALSE,FALSE,FALSE,76.11,76.11,0.01,551,23,81,295,121,135,1.67,101119,33.3,  2.94 m/s,182°
695282.7135,5912830.345,12-12-22 11:04,561,53.32859421,5.932703495,18.71,FALSE,FALSE,FALSE,75.85,75.85,0.01,551,23,80,295,121,135,1.67,101117,33.3,  3.64 m/s,176°
695287.55,5912831.818,12-12-22 11:04,562,53.32860565,5.932776928,18.84,FALSE,FALSE,FALSE,75.93,75.93,0.01,567,25,80,296,122,135,1.68,101117,33.3,  3.64 m/s,176°
695292.3547,5912833.291,12-12-22 11:04,563,53.3286171,5.932849884,18.97,FALSE,FALSE,FALSE,75.89,75.89,0.01,561,24,80,296,122,135,1.7,101116,33.3,  3.64 m/s,176°
695297.1912,5912834.764,12-12-22 11:04,564,53.32862854,5.932923317,19.11,FALSE,FALSE,FALSE,76.06,76.06,0.01,553,23,81,297,122,135,1.7,101105,33.3,  3.64 m/s,176°
695301.9959,5912836.236,12-12-22 11:04,565,53.32863998,5.932996273,19.25,FALSE,FALSE,FALSE,75.96,75.96,0.01,551,23,80,297,122,134,1.71,101105,33.3,  3.64 m/s,176°
695306.9134,5912837.288,12-12-22 11:04,566,53.32864761,5.93307066,19.39,FALSE,FALSE,FALSE,76.19,76.19,0.01,553,23,80,297,122,136,1.73,101103,33.3,  3.83 m/s,175°
695311.6228,5912838.757,12-12-22 11:04,567,53.32865906,5.933142185,19.51,FALSE,FALSE,FALSE,75.62,75.62,0.01,567,25,81,297,122,135,1.75,101108,33.3,  3.83 m/s,175°
695316.4275,5912840.229,12-12-22 11:04,568,53.3286705,5.933215141,19.65,FALSE,FALSE,FALSE,75.69,75.69,0.01,567,25,80,296,122,135,1.76,101108,33.3,  3.83 m/s,175°
695321.2005,5912841.7,12-12-22 11:04,569,53.32868195,5.933287621,19.78,FALSE,FALSE,FALSE,75.46,75.46,0.01,561,24,80,295,121,135,1.76,101106,33.3,  3.83 m/s,175°
695325.8782,5912843.167,12-12-22 11:04,570,53.32869339,5.933358669,19.91,FALSE,FALSE,FALSE,75.46,75.46,0.01,553,23,81,295,122,135,1.79,101108,33.3,  3.83 m/s,175°
695330.81,5912844.644,12-12-22 11:04,571,53.32870483,5.933433533,20.04,FALSE,FALSE,FALSE,75.62,75.62,0.01,561,24,80,296,122,135,1.84,101100,33.3,  1.98 m/s,151°
695335.6464,5912846.118,12-12-22 11:04,572,53.32871628,5.933506966,20.17,FALSE,FALSE,FALSE,75.76,75.76,0.01,577,26,80,295,122,135,1.87,101102,33.3,  1.98 m/s,151°
695340.5146,5912847.592,12-12-22 11:04,573,53.32872772,5.933580875,20.29,FALSE,FALSE,FALSE,75.83,75.83,0.01,567,25,81,295,122,135,1.89,101099,41.64,  1.98 m/s,151°
695345.4002,5912848.643,12-12-22 11:04,574,53.32873535,5.933654785,20.43,FALSE,FALSE,FALSE,75.81,75.81,0.01,561,24,80,296,122,135,1.89,101093,41.64,  1.98 m/s,151°
695350.2367,5912850.117,12-12-22 11:04,575,53.3287468,5.933728218,20.56,FALSE,FALSE,FALSE,75.79,75.79,0.01,567,25,81,296,121,135,1.93,101098,41.64,  1.98 m/s,151°
695355.0096,5912851.588,12-12-22 11:05,576,53.32875824,5.933800697,20.7,FALSE,FALSE,FALSE,76.95,76.95,0.01,561,24,81,296,121,135,1.95,101093,41.64,  1.98 m/s,151°
695357.7049,5912852.549,12-12-22 11:05,577,53.32876587,5.933841705,20.69,FALSE,FALSE,FALSE,76.26,76.26,0.01,567,25,81,296,121,135,1.99,101097,41.64,  1.98 m/s,151°
695358.0223,5912852.562,12-12-22 11:05,578,53.32876587,5.933846474,20.66,FALSE,FALSE,FALSE,75.11,75.11,0.01,588,28,81,296,121,135,2.04,101095,41.64,  1.98 m/s,151°
695359.5922,5912853.051,12-12-22 11:05,579,53.32876968,5.933870316,20.67,FALSE,FALSE,FALSE,74.75,74.75,0.01,577,26,81,295,122,136,2.07,101097,41.64,  1.98 m/s,151°
695363.2398,5912854.051,12-12-22 11:05,580,53.32877731,5.933925629,20.72,FALSE,FALSE,FALSE,76.12,76.12,0.01,567,25,81,295,121,134,2.06,101097,41.64,  1.98 m/s,151°
695367.1095,5912855.06,12-12-22 11:05,581,53.32878494,5.93398428,20.7,FALSE,FALSE,FALSE,76.05,76.05,0.01,567,25,81,296,121,135,2.07,101092,41.64,  2.50 m/s,202°
695371.3428,5912856.509,12-12-22 11:05,582,53.32879639,5.934048653,20.71,FALSE,FALSE,FALSE,75.88,75.88,0.01,580,27,80,296,121,135,2.07,101089,41.64,  2.50 m/s,202°
695375.9109,5912857.547,12-12-22 11:05,583,53.32880402,5.934117794,20.73,FALSE,FALSE,FALSE,75.81,75.81,0.01,588,28,81,296,121,135,2.07,101089,41.64,  2.50 m/s,202°
695380.5252,5912859.011,12-12-22 11:05,584,53.32881546,5.934187889,20.73,FALSE,FALSE,FALSE,75.72,75.72,0.01,561,24,81,296,120,136,2.05,101088,41.64,  2.50 m/s,202°
695385.5203,5912860.491,12-12-22 11:05,585,53.3288269,5.934263706,20.74,FALSE,FALSE,FALSE,75.99,75.99,0.01,561,24,81,296,121,135,2.03,101090,41.64,  2.50 m/s,202°
695390.452,5912861.969,12-12-22 11:05,586,53.32883835,5.93433857,20.74,FALSE,FALSE,FALSE,76.14,76.14,0.01,561,24,81,296,121,135,2.02,101086,41.64,  2.50 m/s,202°
695395.3202,5912863.443,12-12-22 11:05,587,53.32884979,5.934412479,20.74,FALSE,FALSE,FALSE,76.06,76.06,0.01,561,24,81,296,121,135,2.01,101086,41.64,  3.03 m/s,178°
695400.1566,5912864.918,12-12-22 11:05,588,53.32886124,5.934485912,20.75,FALSE,FALSE,FALSE,75.99,75.99,0.01,588,28,81,296,121,136,2,101087,41.64,  3.03 m/s,178°
695405.0104,5912865.967,12-12-22 11:05,589,53.32886887,5.934559345,20.75,FALSE,FALSE,FALSE,75.98,75.98,0.01,561,24,81,296,121,136,1.98,101087,41.64,  3.03 m/s,178°
695409.8469,5912867.44,12-12-22 11:05,590,53.32888031,5.934632778,20.75,FALSE,FALSE,FALSE,75.64,75.64,0.01,553,23,80,297,120,136,1.98,101094,41.64,  3.03 m/s,178°
695414.5881,5912868.91,12-12-22 11:05,591,53.32889175,5.934704781,20.76,FALSE,FALSE,FALSE,76.01,76.01,0.01,561,24,81,296,120,136,1.97,101090,41.64,  2.32 m/s,175°
695419.3292,5912870.38,12-12-22 11:05,592,53.3289032,5.934776783,20.8,FALSE,FALSE,FALSE,76.67,76.67,0.01,561,24,81,296,121,135,1.96,101080,41.64,  2.32 m/s,175°
695424.1657,5912871.853,12-12-22 11:05,593,53.32891464,5.934850216,20.79,FALSE,FALSE,FALSE,76.66,76.66,0.01,577,26,80,296,121,136,1.95,101089,41.64,  2.32 m/s,175°
695428.8751,5912873.322,12-12-22 11:05,594,53.32892609,5.934921742,20.74,FALSE,FALSE,FALSE,75.1,75.1,0.01,561,24,80,296,121,135,1.95,101093,41.64,  2.32 m/s,175°
695433.7432,5912874.797,12-12-22 11:05,595,53.32893753,5.934995651,20.72,FALSE,FALSE,FALSE,75.22,75.22,0.01,561,24,80,295,121,135,1.97,101097,41.64,  2.32 m/s,175°
695438.4527,5912876.265,12-12-22 11:05,596,53.32894897,5.935067177,20.74,FALSE,FALSE,FALSE,75.43,75.43,0.01,561,24,81,295,120,136,1.98,101096,41.64,  2.32 m/s,175°
695443.3208,5912877.74,12-12-22 11:05,597,53.32896042,5.935141087,20.74,FALSE,FALSE,FALSE,75.19,75.19,0.01,561,24,80,295,120,135,2.01,101096,41.64,  2.32 m/s,175°
695447.762,5912878.773,12-12-22 11:05,598,53.32896805,5.935208321,20.76,FALSE,FALSE,FALSE,76.98,76.98,0.01,577,26,80,295,121,135,2.03,101091,41.64,  2.32 m/s,175°
695449.727,5912879.704,12-12-22 11:05,599,53.32897568,5.935238361,20.71,FALSE,FALSE,FALSE,74.05,74.05,0.01,567,25,80,295,120,136,2.05,101097,41.64,  2.32 m/s,175°
695449.3778,5912879.689,12-12-22 11:05,600,53.32897568,5.935233116,20.68,FALSE,FALSE,FALSE,353.61,353.61,0.01,561,24,80,294,120,136,2.1,101088,41.64,  2.32 m/s,175°
695447.9891,5912881.757,12-12-22 11:05,601,53.32899475,5.935213566,20.69,FALSE,FALSE,FALSE,343.92,343.92,0.01,561,24,80,295,120,135,2.14,101093,41.64,  2.32 m/s,175°
695446.5511,5912884.247,12-12-22 11:05,602,53.32901764,5.935193539,20.68,FALSE,FALSE,FALSE,343.88,343.88,0.01,561,24,80,295,120,135,2.17,101095,41.64,  2.32 m/s,175°
695445.2687,5912887.594,12-12-22 11:05,603,53.32904816,5.935176373,20.66,FALSE,FALSE,FALSE,343.93,343.93,0.01,588,28,81,295,120,136,2.23,101092,41.64,  2.32 m/s,175°
695444.6418,5912889.693,12-12-22 11:05,604,53.32906723,5.935168266,20.62,FALSE,FALSE,FALSE,343.38,343.38,0.01,580,27,80,294,120,136,2.3,101091,41.64,  2.32 m/s,175°
695444.437,5912889.26,12-12-22 11:05,605,53.32906342,5.935164928,20.62,FALSE,FALSE,FALSE,267.72,267.72,0.01,567,25,80,295,120,136,2.36,101080,41.64,  2.32 m/s,175°
695442.599,5912888.334,12-12-22 11:05,606,53.32905579,5.935136795,20.64,FALSE,FALSE,FALSE,255.3,255.3,0.01,553,23,80,295,120,135,2.34,101077,41.64,  2.32 m/s,175°
695439.8577,5912886.946,12-12-22 11:05,607,53.32904434,5.935094833,20.64,FALSE,FALSE,FALSE,255.02,255.02,0.01,551,23,81,295,120,135,2.3,101074,41.64,  2.32 m/s,175°
695436.496,5912885.958,12-12-22 11:05,608,53.32903671,5.935043812,20.65,FALSE,FALSE,FALSE,255.04,255.04,0.01,561,24,80,295,120,135,2.24,101073,41.64,  2.32 m/s,175°
695432.404,5912884.94,12-12-22 11:05,609,53.32902908,5.934981823,20.65,FALSE,FALSE,FALSE,255.17,255.17,0.01,551,23,80,295,119,135,2.17,101070,41.64,  2.32 m/s,175°
695427.7263,5912883.473,12-12-22 11:05,610,53.32901764,5.934910774,20.65,FALSE,FALSE,FALSE,255.16,255.16,0.01,527,19,80,295,120,135,2.09,101067,41.64,  2.32 m/s,175°
695422.6994,5912881.992,12-12-22 11:05,611,53.3290062,5.93483448,20.66,FALSE,FALSE,FALSE,254.86,254.86,0.01,530,19,79,294,120,135,2.03,101069,41.64,  2.05 m/s,175°
695417.863,5912880.518,12-12-22 11:05,612,53.32899475,5.934761047,20.66,FALSE,FALSE,FALSE,254.9,254.9,0.01,536,20,79,294,120,135,1.99,101067,41.64,  2.05 m/s,175°
695412.8679,5912879.038,12-12-22 11:05,613,53.32898331,5.93468523,20.66,FALSE,FALSE,FALSE,254.92,254.92,0.01,530,19,78,295,119,134,1.93,101068,41.64,  2.05 m/s,175°
695408.0632,5912877.565,12-12-22 11:05,614,53.32897186,5.934612274,20.67,FALSE,FALSE,FALSE,255,255,0.01,542,21,79,295,119,135,1.89,101064,41.64,  2.05 m/s,175°
695403.2903,5912876.094,12-12-22 11:05,615,53.32896042,5.934539795,20.67,FALSE,FALSE,FALSE,255.36,255.36,0.01,527,19,78,295,120,134,1.84,101070,41.64,  2.05 m/s,175°
695398.5174,5912874.623,12-12-22 11:05,616,53.32894897,5.934467316,20.66,FALSE,FALSE,FALSE,254.96,254.96,0.01,530,19,79,296,119,135,1.82,101069,41.64,  2.05 m/s,175°
695393.727,5912873.577,12-12-22 11:05,617,53.32894135,5.934394836,20.68,FALSE,FALSE,FALSE,254.75,254.75,0.01,530,19,79,296,119,135,1.77,101071,41.64,  3.15 m/s,193°
695388.8589,5912872.101,12-12-22 11:05,618,53.3289299,5.934320927,20.7,FALSE,FALSE,FALSE,254.91,254.91,0.01,530,19,79,296,119,135,1.74,101073,41.64,  3.15 m/s,193°
695383.9907,5912870.627,12-12-22 11:05,619,53.32891846,5.934247017,20.69,FALSE,FALSE,FALSE,254.95,254.95,0.01,551,23,79,296,119,136,1.7,101073,41.64,  3.15 m/s,193°
695379.1543,5912869.153,12-12-22 11:05,620,53.32890701,5.934173584,20.7,FALSE,FALSE,FALSE,255.04,255.04,0.01,530,19,79,296,119,135,1.68,101075,41.64,  3.15 m/s,193°
695374.2543,5912867.677,12-12-22 11:05,621,53.32889557,5.934099197,20.69,FALSE,FALSE,FALSE,255.14,255.14,0.01,530,19,79,296,119,135,1.66,101077,41.64,  3.15 m/s,193°
695369.5767,5912866.209,12-12-22 11:05,622,53.32888412,5.934028149,20.72,FALSE,FALSE,FALSE,254.82,254.82,0.01,530,19,79,296,120,136,1.64,101067,41.64,  3.15 m/s,193°
695364.645,5912864.732,12-12-22 11:05,623,53.32887268,5.933953285,20.72,FALSE,FALSE,FALSE,254.72,254.72,0.01,527,19,79,296,119,135,1.59,101069,41.64,  3.15 m/s,193°
695360.0133,5912863.692,12-12-22 11:05,624,53.32886505,5.93388319,20.69,FALSE,FALSE,FALSE,255.53,255.53,0.01,542,21,79,297,119,136,1.54,101066,41.64,  3.15 m/s,193°
695355.4309,5912862.229,12-12-22 11:05,625,53.32885361,5.933813572,20.71,FALSE,FALSE,FALSE,254.01,254.01,0.01,518,17,79,296,119,136,1.52,101066,41.64,  3.15 m/s,193°
695353.6388,5912861.73,12-12-22 11:05,626,53.32884979,5.933786392,20.64,FALSE,FALSE,FALSE,255.58,255.58,0.01,527,19,78,296,119,135,1.55,101076,41.64,  3.15 m/s,193°
