X,Y,TimeStamp (UTC),"""TriggerID""","""Latitude""","""Longitude""","""Altitude (Meter AGL)""",Gimbal Roll,"""Gimbal Pitch""","""Gimbal Yaw""","""Drone Yaw""","""Combined Yaw""",HCHO (ppm),CO2 (ppm),TVOC (ppb),NO2 (ppm),C2H5OH (ppm),VOC (ppm),CO (ppm),Temp (Celcius),Pressure (pa),Altitude (meter),wind_speed,wind_direction
695392.9328,5912757.536,12/21/2022 12:12,1,53.32789993,5.93431139,0.26,FALSE,FALSE,FALSE,346.25,346.25,0.01,466,10,99,321,153,150,10.67,100825,58.34,  7.07 m/s,201°
695392.9328,5912757.536,12/21/2022 12:12,2,53.32789993,5.93431139,0.84,FALSE,FALSE,FALSE,345.32,345.32,0.01,466,10,99,321,152,150,10.62,100796,66.7,  7.07 m/s,201°
695392.9788,5912757.964,12/21/2022 12:12,3,53.32790375,5.934312344,1.18,FALSE,FALSE,FALSE,345.4,345.4,0.01,463,9,98,321,152,150,10.62,100790,66.7,  7.07 m/s,201°
695393.0423,5912757.966,12/21/2022 12:12,4,53.32790375,5.934313297,2.81,FALSE,FALSE,FALSE,345.08,345.08,0.01,451,7,98,320,152,150,10.6,100772,66.7,  7.07 m/s,201°
695393.0423,5912757.966,12/21/2022 12:12,5,53.32790375,5.934313297,6.05,FALSE,FALSE,FALSE,345.12,345.12,0.01,444,6,96,316,151,149,10.57,100736,66.7,  7.07 m/s,201°
695392.9471,5912757.962,12/21/2022 12:12,6,53.32790375,5.934311867,9.19,FALSE,FALSE,FALSE,345.39,345.39,0.01,442,6,95,315,151,149,10.49,100696,75.07,  7.07 m/s,201°
695392.9153,5912757.961,12/21/2022 12:12,7,53.32790375,5.93431139,12.14,FALSE,FALSE,FALSE,345.72,345.72,0.01,438,5,94,322,150,149,10.45,100661,75.07,  7.07 m/s,201°
695392.9153,5912757.961,12/21/2022 12:12,8,53.32790375,5.93431139,15.26,FALSE,FALSE,FALSE,345.45,345.45,0.01,433,5,94,323,151,148,10.38,100620,75.07,  7.07 m/s,201°
695392.9788,5912757.964,12/21/2022 12:12,9,53.32790375,5.934312344,18.23,FALSE,FALSE,FALSE,345.67,345.67,0.01,433,5,93,322,151,149,10.35,100583,83.45,  7.07 m/s,201°
695393.0423,5912757.966,12/21/2022 12:12,10,53.32790375,5.934313297,19.37,FALSE,FALSE,FALSE,347.02,347.02,0.01,423,3,93,322,150,149,10.34,100577,83.45,  7.07 m/s,201°
695392.9471,5912757.962,12/21/2022 12:12,11,53.32790375,5.934311867,19.21,FALSE,FALSE,FALSE,63.18,63.18,0.01,425,3,92,322,149,149,10.32,100597,83.45,  8.08 m/s,214°
695392.8518,5912757.958,12/21/2022 12:12,12,53.32790375,5.934310436,19.07,FALSE,FALSE,FALSE,69.08,69.08,0.01,433,5,92,322,149,148,10.32,100600,75.07,  8.08 m/s,214°
695393.7233,5912758.419,12/21/2022 12:12,13,53.32790756,5.934323788,19,FALSE,FALSE,FALSE,68.62,68.62,0.01,438,5,91,321,149,149,10.31,100600,75.07,  8.08 m/s,214°
695396.2598,5912759.373,12/21/2022 12:13,14,53.32791519,5.934362412,18.91,FALSE,FALSE,FALSE,69.47,69.47,0.01,451,7,91,321,149,148,10.3,100600,75.07,  8.08 m/s,214°
695399.8265,5912760.795,12/21/2022 12:13,15,53.32792664,5.934416771,18.88,FALSE,FALSE,FALSE,69.09,69.09,0.01,442,6,91,321,148,148,10.3,100599,83.45,  8.08 m/s,214°
695403.8202,5912762.658,12/21/2022 12:13,16,53.32794189,5.934477806,18.88,FALSE,FALSE,FALSE,69.1,69.1,0.01,442,6,90,320,148,149,10.28,100600,75.07,  8.08 m/s,214°
695408.3219,5912764.543,12/21/2022 12:13,17,53.32795715,5.934546471,18.87,FALSE,FALSE,FALSE,69.06,69.06,0.01,442,6,89,321,149,148,10.26,100602,75.07,  8.08 m/s,214°
695413.0774,5912766.438,12/21/2022 12:13,18,53.32797241,5.93461895,18.85,FALSE,FALSE,FALSE,69.68,69.68,0.01,444,6,89,321,148,148,10.25,100608,75.07,  8.08 m/s,214°
695417.9742,5912768.765,12/21/2022 12:13,19,53.32799149,5.934693813,18.84,FALSE,FALSE,FALSE,69.45,69.45,0.01,451,7,88,321,148,148,10.25,100606,75.07,  8.08 m/s,214°
695422.7934,5912770.662,12/21/2022 12:13,20,53.32800674,5.934767246,18.82,FALSE,FALSE,FALSE,69.54,69.54,0.01,447,7,88,320,148,147,10.25,100605,75.07,  8.08 m/s,214°
695427.422,5912772.552,12/21/2022 12:13,21,53.328022,5.934837818,18.83,FALSE,FALSE,FALSE,69.39,69.39,0.01,444,6,88,321,147,147,10.27,100602,75.07,  8.08 m/s,214°
695432.0188,5912774.441,12/21/2022 12:13,22,53.32803726,5.934907913,18.83,FALSE,FALSE,FALSE,69.63,69.63,0.01,444,6,87,321,147,147,10.28,100603,75.07,  8.08 m/s,214°
695436.5522,5912776.327,12/21/2022 12:13,23,53.32805252,5.934977055,18.84,FALSE,FALSE,FALSE,69.51,69.51,0.01,444,6,88,320,147,147,10.26,100605,75.07,  8.08 m/s,214°
695440.7681,5912778.201,12/21/2022 12:13,24,53.32806778,5.935041428,18.85,FALSE,FALSE,FALSE,69.12,69.12,0.01,451,7,87,321,147,147,10.24,100602,75.07,  8.08 m/s,214°
695445.4745,5912780.518,12/21/2022 12:13,25,53.32808685,5.93511343,18.84,FALSE,FALSE,FALSE,69.2,69.2,0.01,447,7,86,320,147,147,10.22,100607,75.07,  8.08 m/s,214°
695449.9126,5912782.401,12/21/2022 12:13,26,53.32810211,5.935181141,18.83,FALSE,FALSE,FALSE,69.68,69.68,0.01,442,6,87,320,147,147,10.2,100604,75.07,  5.50 m/s,192°
695454.6681,5912784.296,12/21/2022 12:13,27,53.32811737,5.93525362,18.86,FALSE,FALSE,FALSE,69.62,69.62,0.01,442,6,86,321,147,147,10.13,100604,75.07,  5.50 m/s,192°
695459.3919,5912786.19,12/21/2022 12:13,28,53.32813263,5.935325623,18.85,FALSE,FALSE,FALSE,69.73,69.73,0.01,442,6,86,321,146,147,10.11,100603,75.07,  5.50 m/s,192°
695464.1475,5912788.086,12/21/2022 12:13,29,53.32814789,5.935398102,18.81,FALSE,FALSE,FALSE,69.1,69.1,0.01,444,6,86,320,146,148,10.09,100604,75.07,  5.50 m/s,192°
695468.9491,5912790.408,12/21/2022 12:13,30,53.32816696,5.935471535,18.81,FALSE,FALSE,FALSE,69.45,69.45,0.01,451,7,86,321,146,148,10.06,100610,75.07,  5.50 m/s,192°
695473.4824,5912792.294,12/21/2022 12:13,31,53.32818222,5.935540676,18.82,FALSE,FALSE,FALSE,69.98,69.98,0.01,444,6,85,320,145,148,10.1,100608,75.07,  8.83 m/s,195°
695476.6998,5912793.701,12/21/2022 12:13,32,53.32819366,5.93558979,18.81,FALSE,FALSE,FALSE,70.12,70.12,0.01,442,6,86,321,145,147,10.07,100608,75.07,  8.83 m/s,195°
695477.1443,5912793.719,12/21/2022 12:13,33,53.32819366,5.935596466,18.79,FALSE,FALSE,FALSE,21.67,21.67,0.01,438,5,85,317,145,148,10.05,100583,83.45,  8.83 m/s,195°
695476.6682,5912793.699,12/21/2022 12:13,34,53.32819366,5.935589314,18.8,FALSE,FALSE,FALSE,293.91,293.91,0.01,433,5,85,321,145,148,10.03,100576,83.45,  8.83 m/s,195°
695476.3507,5912793.686,12/21/2022 12:13,35,53.32819366,5.935584545,18.81,FALSE,FALSE,FALSE,256.73,256.73,0.01,442,6,85,321,145,147,9.99,100566,83.45,  8.83 m/s,195°
695475.5427,5912793.229,12/21/2022 12:13,36,53.32818985,5.935572147,18.82,FALSE,FALSE,FALSE,256.07,256.07,0.01,423,3,85,321,145,147,9.86,100565,83.45,  8.83 m/s,195°
695473.5919,5912792.724,12/21/2022 12:13,37,53.32818604,5.935542584,18.84,FALSE,FALSE,FALSE,255.93,255.93,0.01,421,3,84,321,145,147,9.74,100559,83.45,  8.83 m/s,195°
695470.484,5912791.746,12/21/2022 12:13,38,53.32817841,5.935495377,18.81,FALSE,FALSE,FALSE,254.96,254.96,0.01,421,3,84,320,145,147,9.63,100565,83.45,  8.83 m/s,195°
695466.9491,5912790.325,12/21/2022 12:13,39,53.32816696,5.935441494,18.83,FALSE,FALSE,FALSE,254.87,254.87,0.01,413,1,83,321,144,147,9.52,100561,83.45,  8.83 m/s,195°
695462.8888,5912789.308,12/21/2022 12:13,40,53.32815933,5.935379982,18.8,FALSE,FALSE,FALSE,255.18,255.18,0.01,421,3,83,321,144,146,9.42,100557,83.45,  8.83 m/s,195°
695458.1793,5912787.84,12/21/2022 12:13,41,53.32814789,5.935308456,18.77,FALSE,FALSE,FALSE,255.4,255.4,0.01,407,1,82,321,144,147,9.26,100550,83.45,  8.83 m/s,195°
695453.1032,5912786.782,12/21/2022 12:13,42,53.32814026,5.935231686,18.71,FALSE,FALSE,FALSE,256.2,256.2,0.01,400,0,82,321,143,147,9.1,100531,83.45,  8.83 m/s,195°
695448.0127,5912785.297,12/21/2022 12:13,43,53.32812881,5.935154438,18.69,FALSE,FALSE,FALSE,256.38,256.38,0.01,403,0,82,320,143,146,8.97,100532,83.45,  8.83 m/s,195°
695443.2222,5912784.251,12/21/2022 12:13,44,53.32812119,5.935081959,18.69,FALSE,FALSE,FALSE,256.28,256.28,0.01,400,0,81,321,143,146,8.84,100530,83.45,  8.83 m/s,195°
695438.4493,5912782.779,12/21/2022 12:13,45,53.32810974,5.93500948,18.7,FALSE,FALSE,FALSE,255.94,255.94,0.01,400,0,81,321,143,147,8.73,100542,83.45,  8.83 m/s,195°
695433.5492,5912781.303,12/21/2022 12:13,46,53.3280983,5.934935093,18.71,FALSE,FALSE,FALSE,255.34,255.34,0.01,408,1,81,322,143,146,8.66,100546,83.45,  8.83 m/s,195°
695428.681,5912779.828,12/21/2022 12:13,47,53.32808685,5.934861183,18.7,FALSE,FALSE,FALSE,255.54,255.54,0.01,403,0,80,322,143,147,8.59,100546,83.45,  8.83 m/s,195°
695423.5905,5912778.344,12/21/2022 12:13,48,53.32807541,5.934783936,18.65,FALSE,FALSE,FALSE,255.26,255.26,0.01,403,0,80,322,143,146,8.53,100545,83.45,  8.83 m/s,195°
695419.008,5912776.88,12/21/2022 12:13,49,53.32806396,5.934714317,18.65,FALSE,FALSE,FALSE,255.32,255.32,0.01,408,1,80,321,143,146,8.47,100544,83.45,  8.83 m/s,195°
695414.2032,5912775.408,12/21/2022 12:13,50,53.32805252,5.934641361,18.61,FALSE,FALSE,FALSE,255.44,255.44,0.01,405,0,80,322,142,146,8.38,100529,83.45,  8.83 m/s,195°
695409.4301,5912773.938,12/21/2022 12:13,51,53.32804108,5.934568882,18.58,FALSE,FALSE,FALSE,255.98,255.98,0.01,413,1,79,321,142,147,8.33,100534,83.45,  9.20 m/s,196°
695404.5936,5912772.463,12/21/2022 12:13,52,53.32802963,5.934495449,18.56,FALSE,FALSE,FALSE,255.94,255.94,0.01,400,0,79,321,141,146,8.28,100542,83.45,  9.20 m/s,196°
695399.7714,5912771.415,12/21/2022 12:13,53,53.328022,5.934422493,18.54,FALSE,FALSE,FALSE,255.96,255.96,0.01,400,0,78,323,141,146,8.23,100537,83.45,  9.20 m/s,196°
695394.9031,5912769.941,12/21/2022 12:13,54,53.32801056,5.934348583,18.51,FALSE,FALSE,FALSE,255.2,255.2,0.01,400,0,78,322,141,146,8.19,100547,83.45,  9.20 m/s,196°
695390.084,5912768.043,12/21/2022 12:13,55,53.3279953,5.93427515,18.49,FALSE,FALSE,FALSE,255.15,255.15,0.01,400,0,77,322,141,146,8.14,100544,83.45,  9.20 m/s,196°
695385.2475,5912766.57,12/21/2022 12:13,56,53.32798386,5.934201717,18.48,FALSE,FALSE,FALSE,255.23,255.23,0.01,411,1,76,321,141,146,8.1,100543,83.45,  7.67 m/s,196°
695380.457,5912765.523,12/21/2022 12:13,57,53.32797623,5.934129238,18.46,FALSE,FALSE,FALSE,255.09,255.09,0.01,400,0,76,323,141,146,8.07,100544,83.45,  7.67 m/s,196°
695375.4792,5912763.618,12/21/2022 12:13,58,53.32796097,5.934053421,18.45,FALSE,FALSE,FALSE,255.22,255.22,0.01,402,0,76,323,141,146,8.03,100540,83.45,  7.67 m/s,196°
695370.784,5912762.575,12/21/2022 12:13,59,53.32795334,5.933982372,18.4,FALSE,FALSE,FALSE,255.95,255.95,0.01,400,0,77,322,140,145,7.98,100539,83.45,  7.67 m/s,196°
695365.9474,5912761.101,12/21/2022 12:13,60,53.32794189,5.933908939,18.39,FALSE,FALSE,FALSE,256.51,256.51,0.01,400,0,76,322,140,146,7.94,100528,83.45,  7.67 m/s,196°
695361.284,5912760.061,12/21/2022 12:13,61,53.32793427,5.933838368,18.35,FALSE,FALSE,FALSE,256.84,256.84,0.01,410,1,76,322,140,145,7.92,100528,83.45,  10.95 m/s,194°
695356.4157,5912758.585,12/21/2022 12:13,62,53.32792282,5.933764458,18.34,FALSE,FALSE,FALSE,256.31,256.31,0.01,406,0,75,323,140,146,7.9,100532,83.45,  10.95 m/s,194°
695351.3886,5912757.104,12/21/2022 12:13,63,53.32791138,5.933688164,18.32,FALSE,FALSE,FALSE,256.12,256.12,0.01,403,0,75,322,140,146,7.89,100533,83.45,  10.95 m/s,194°
695346.6791,5912755.635,12/21/2022 12:13,64,53.32789993,5.933616638,18.29,FALSE,FALSE,FALSE,256.08,256.08,0.01,400,0,74,322,140,145,7.86,100531,83.45,  10.95 m/s,194°
695342.033,5912754.17,12/21/2022 12:13,65,53.32788849,5.933546066,18.3,FALSE,FALSE,FALSE,255.95,255.95,0.01,403,0,75,323,140,145,7.84,100528,83.45,  10.95 m/s,194°
695337.2599,5912752.698,12/21/2022 12:13,66,53.32787704,5.933473587,18.31,FALSE,FALSE,FALSE,254.9,254.9,0.01,406,0,74,323,139,145,7.83,100545,83.45,  9.87 m/s,197°
695332.4551,5912751.226,12/21/2022 12:13,67,53.3278656,5.933400631,18.27,FALSE,FALSE,FALSE,255.14,255.14,0.01,414,2,74,323,139,145,7.79,100532,83.45,  9.87 m/s,197°
695327.4916,5912749.748,12/21/2022 12:13,68,53.32785416,5.933325291,18.21,FALSE,FALSE,FALSE,255.51,255.51,0.01,403,0,74,323,139,145,7.76,100540,83.45,  9.87 m/s,197°
695322.955,5912748.712,12/21/2022 12:13,69,53.32784653,5.933256626,18.18,FALSE,FALSE,FALSE,256.29,256.29,0.01,400,0,73,322,139,145,7.74,100523,83.45,  9.87 m/s,197°
695318.0867,5912747.236,12/21/2022 12:13,70,53.32783508,5.933182716,18.17,FALSE,FALSE,FALSE,256.33,256.33,0.01,400,0,73,323,139,146,7.72,100528,83.45,  9.87 m/s,197°
695313.3136,5912745.765,12/21/2022 12:13,71,53.32782364,5.933110237,18.17,FALSE,FALSE,FALSE,255.97,255.97,0.01,400,0,74,322,138,145,7.7,100533,83.45,  11.56 m/s,199°
695308.5088,5912744.293,12/21/2022 12:13,72,53.32781219,5.933037281,18.16,FALSE,FALSE,FALSE,256.12,256.12,0.01,416,2,73,322,138,145,7.69,100526,83.45,  11.56 m/s,199°
695303.6087,5912742.817,12/21/2022 12:13,73,53.32780075,5.932962894,18.15,FALSE,FALSE,FALSE,255.69,255.69,0.01,400,0,73,322,138,145,7.67,100534,83.45,  11.56 m/s,199°
695298.7722,5912741.344,12/21/2022 12:13,74,53.32778931,5.932889462,18.14,FALSE,FALSE,FALSE,256.02,256.02,0.01,402,0,73,323,138,145,7.66,100529,83.45,  11.56 m/s,199°
695293.8404,5912739.866,12/21/2022 12:14,75,53.32777786,5.932814598,18.12,FALSE,FALSE,FALSE,255.96,255.96,0.01,400,0,72,323,138,145,7.64,100532,83.45,  11.56 m/s,199°
695289.0499,5912738.819,12/21/2022 12:14,76,53.32777023,5.932742119,18.09,FALSE,FALSE,FALSE,255.18,255.18,0.01,402,0,72,323,137,144,7.63,100534,83.45,  11.56 m/s,199°
695285.1656,5912737.385,12/21/2022 12:14,77,53.32775879,5.932682991,18.1,FALSE,FALSE,FALSE,255.23,255.23,0.01,416,2,73,324,138,145,7.63,100541,83.45,  11.56 m/s,199°
695282.4816,5912737.699,12/21/2022 12:14,78,53.3277626,5.932642937,18.07,FALSE,FALSE,FALSE,286.54,286.54,0.01,416,2,72,324,138,145,7.65,100565,83.45,  11.56 m/s,199°
695280.377,5912740.162,12/21/2022 12:14,79,53.32778549,5.932612896,18.06,FALSE,FALSE,FALSE,331.89,331.89,0.01,432,4,73,324,137,145,7.72,100575,83.45,  11.56 m/s,199°
695279.62,5912743.106,12/21/2022 12:14,80,53.32781219,5.932603359,18,FALSE,FALSE,FALSE,348.91,348.91,0.01,424,3,73,324,138,145,7.8,100571,83.45,  11.56 m/s,199°
695280.8313,5912746.131,12/21/2022 12:14,81,53.3278389,5.932623386,18.01,FALSE,FALSE,FALSE,36.4,36.4,0.01,424,3,73,324,136,145,7.87,100603,75.07,  9.74 m/s,200°
695283.841,5912747.954,12/21/2022 12:14,82,53.32785416,5.93266964,18.01,FALSE,FALSE,FALSE,74.1,74.1,0.01,432,4,72,324,137,144,7.94,100623,75.07,  9.74 m/s,200°
695287.0442,5912748.936,12/21/2022 12:14,83,53.32786179,5.932718277,18.05,FALSE,FALSE,FALSE,74.65,74.65,0.01,436,5,73,324,137,145,8.01,100624,75.07,  9.74 m/s,200°
695291.0268,5912749.524,12/21/2022 12:14,84,53.3278656,5.932778359,18.08,FALSE,FALSE,FALSE,75.74,75.74,0.01,444,6,73,323,136,145,8.08,100617,75.07,  9.74 m/s,200°
695295.7046,5912750.99,12/21/2022 12:14,85,53.32787704,5.932849407,18.06,FALSE,FALSE,FALSE,75.42,75.42,0.01,450,7,73,324,137,144,8.14,100619,75.07,  9.74 m/s,200°
695300.4459,5912752.461,12/21/2022 12:14,86,53.32788849,5.93292141,18.07,FALSE,FALSE,FALSE,75.9,75.9,0.01,444,6,72,324,136,144,8.19,100622,75.07,  9.74 m/s,200°
695305.6635,5912753.949,12/21/2022 12:14,87,53.32789993,5.933000565,18.09,FALSE,FALSE,FALSE,75.94,75.94,0.01,446,7,73,324,136,144,8.23,100616,75.07,  9.74 m/s,200°
695310.5635,5912755.426,12/21/2022 12:14,88,53.32791138,5.933074951,18.12,FALSE,FALSE,FALSE,75.97,75.97,0.01,446,7,72,324,136,144,8.28,100618,75.07,  9.74 m/s,200°
695315.3223,5912756.472,12/21/2022 12:14,89,53.32791901,5.933146954,18.13,FALSE,FALSE,FALSE,75.79,75.79,0.01,446,7,73,324,136,144,8.32,100615,75.07,  9.74 m/s,200°
695320.254,5912757.949,12/21/2022 12:14,90,53.32793045,5.933221817,18.16,FALSE,FALSE,FALSE,76.07,76.07,0.01,463,9,72,323,136,144,8.36,100613,75.07,  9.74 m/s,200°
695325.0271,5912759.419,12/21/2022 12:14,91,53.32794189,5.933294296,18.21,FALSE,FALSE,FALSE,75.92,75.92,0.01,450,7,72,324,136,144,8.41,100613,75.07,  9.82 m/s,206°
695329.8319,5912760.892,12/21/2022 12:14,92,53.32795334,5.933367252,18.23,FALSE,FALSE,FALSE,76.01,76.01,0.01,455,8,72,323,136,144,8.44,100609,75.07,  9.82 m/s,206°
695334.6367,5912762.364,12/21/2022 12:14,93,53.32796478,5.933440208,18.23,FALSE,FALSE,FALSE,76.19,76.19,0.01,455,8,72,323,136,144,8.48,100617,75.07,  9.82 m/s,206°
695339.2368,5912763.403,12/21/2022 12:14,94,53.32797241,5.933509827,18.26,FALSE,FALSE,FALSE,75.79,75.79,0.01,455,8,71,323,135,144,8.51,100621,75.07,  9.82 m/s,206°
695343.978,5912764.873,12/21/2022 12:14,95,53.32798386,5.933581829,18.28,FALSE,FALSE,FALSE,75.84,75.84,0.01,463,9,72,323,135,144,8.53,100620,75.07,  9.82 m/s,206°
695348.9733,5912766.353,12/21/2022 12:14,96,53.3279953,5.933657646,18.3,FALSE,FALSE,FALSE,75.94,75.94,0.01,461,9,73,324,135,144,8.57,100618,75.07,  8.74 m/s,197°
695353.5559,5912767.816,12/21/2022 12:14,97,53.32800674,5.933727264,18.33,FALSE,FALSE,FALSE,75.89,75.89,0.01,459,8,73,324,135,143,8.57,100614,75.07,  8.74 m/s,197°
695358.5512,5912769.296,12/21/2022 12:14,98,53.32801819,5.933803082,18.35,FALSE,FALSE,FALSE,75.92,75.92,0.01,459,8,73,323,135,144,8.59,100618,75.07,  8.74 m/s,197°
695363.4194,5912770.771,12/21/2022 12:14,99,53.32802963,5.933876991,18.38,FALSE,FALSE,FALSE,75.97,75.97,0.01,459,8,72,324,135,144,8.61,100612,75.07,  8.74 m/s,197°
