TimeStamp (UTC)," ""TriggerID"""," ""Latitude"""," ""Longitude"""," ""Altitude (Meter AGL)""",Gimbal Roll," ""Gimbal Pitch"""," ""Gimbal Yaw"""," ""Drone Yaw"""," ""Combined Yaw""",HCHO (ppm),CO2 (ppm),TVOC (ppb),NO2 (ppm),C2H5OH (ppm),VOC (ppm),CO (ppm),Temp (Celcius),Pressure (pa),Altitude (meter)
UTC 221222 100344 5 9 ,1,53.32782364,5.934483051,0.07,0,0,0,79.59,79.59,0.01,406,0,149,300,267,146,11.63,100413,91.83
UTC 221222 100345 5 9 ,2,53.32782745,5.934480667,0.68,0,0,0,78.92,78.92,0.01,402,0,148,299,266,146,11.59,100410,91.83
UTC 221222 100346 5 9 ,3,53.32782745,5.934480667,2.67,0,0,0,79.61,79.61,0.01,406,0,149,300,266,146,11.59,100381,100.22
UTC 221222 100347 5 9 ,4,53.32782745,5.934481144,5.04,0,0,0,80.07,80.07,0.01,409,1,148,299,266,145,11.55,100356,100.22
UTC 221222 100347 5 9 ,5,53.32782745,5.934483051,6.67,0,0,0,79.96,79.96,0.01,403,0,147,300,266,145,11.53,100343,100.22
UTC 221222 100347 5 9 ,6,53.32782745,5.934484959,6.85,0,0,0,79.84,79.84,0.01,400,0,146,298,265,144,11.55,100337,100.22
UTC 221222 100350 5 9 ,7,53.32783127,5.934484959,6.82,0,0,0,80.1,80.1,0.01,400,0,146,299,264,145,11.55,100334,100.22
UTC 221222 100351 5 9 ,8,53.32783127,5.93448782,6.8,0,0,0,79.35,79.35,0.01,400,0,145,299,264,144,11.54,100332,100.22
UTC 221222 100352 5 9 ,9,53.32783127,5.93448925,6.79,0,0,0,59.93,59.93,0.01,407,1,143,297,263,144,11.49,100323,100.22
UTC 221222 100353 5 9 ,10,53.32783127,5.934489727,6.82,0,0,0,81.93,81.93,0.01,400,0,142,299,263,144,11.42,100333,100.22
UTC 221222 100354 5 9 ,11,53.32783127,5.934492111,6.84,0,0,0,81.71,81.71,0.01,400,0,141,298,263,144,11.45,100332,100.22
UTC 221222 100355 5 9 ,12,53.32783127,5.934492111,6.86,0,0,0,81.44,81.44,0.01,403,0,140,299,263,144,11.47,100334,100.22
UTC 221222 100356 5 9 ,13,53.32783127,5.934493065,6.86,0,0,0,81.59,81.59,0.01,403,0,140,299,262,143,11.48,100337,100.22
UTC 221222 100356 5 9 ,14,53.32783127,5.934493542,6.86,0,0,0,81.64,81.64,0.01,411,1,139,299,261,143,11.49,100333,100.22
UTC 221222 100358 5 9 ,15,53.32783127,5.934493542,6.84,0,0,0,81.51,81.51,0.01,403,0,138,299,260,143,11.5,100330,100.22
UTC 221222 100359 5 9 ,16,53.32783127,5.934493542,6.84,0,0,0,81.39,81.39,0.01,400,0,137,300,261,143,11.45,100332,100.22
UTC 221222 100400 5 9 ,17,53.32783127,5.934493065,6.82,0,0,0,81.53,81.53,0.01,403,0,137,300,260,143,11.45,100332,100.22
UTC 221222 100401 5 9 ,18,53.32783127,5.934493065,6.82,0,0,0,81.35,81.35,0.01,400,0,136,299,259,143,11.44,100333,100.22
UTC 221222 100402 5 9 ,19,53.32783127,5.934493065,6.81,0,0,0,81.78,81.78,0.01,406,0,136,299,259,142,11.44,100332,100.22
UTC 221222 100403 5 9 ,20,53.32783127,5.934493065,6.82,0,0,0,81.53,81.53,0.01,403,0,136,300,259,142,11.42,100330,100.22
UTC 221222 100404 5 9 ,21,53.32783127,5.934492588,6.81,0,0,0,81.01,81.01,0.01,405,0,135,300,258,143,11.41,100330,100.22
UTC 221222 100404 5 9 ,22,53.32783127,5.934493065,7.21,0,0,0,81.61,81.61,0.01,408,1,134,300,258,142,11.41,100326,100.22
UTC 221222 100404 5 9 ,23,53.32783127,5.934494019,8.55,0,0,0,81.63,81.63,0.01,411,1,134,299,258,142,11.37,100317,100.22
UTC 221222 100407 5 9 ,24,53.32783127,5.934494972,9.11,0,0,0,68.16,68.16,0.01,408,1,133,300,257,143,11.33,100304,100.22
UTC 221222 100408 5 9 ,25,53.32783127,5.934494972,9.04,0,0,0,340.76,340.76,0.01,410,1,133,300,257,142,11.23,100282,108.61
UTC 221222 100409 5 9 ,26,53.32783127,5.934495926,8.99,0,0,0,328.12,328.12,0.01,407,1,133,300,257,143,11.17,100282,108.61
UTC 221222 100410 5 9 ,27,53.32783508,5.934489727,8.97,0,0,0,328.62,328.62,0.01,407,1,132,301,257,143,11.16,100284,108.61
UTC 221222 100411 5 9 ,28,53.32785416,5.934470654,8.96,0,0,0,328.31,328.31,0.01,407,1,133,300,257,143,11.09,100282,108.61
UTC 221222 100412 5 9 ,29,53.32787704,5.934446335,8.96,0,0,0,328.54,328.54,0.01,407,1,133,300,256,143,10.97,100278,108.61
UTC 221222 100413 5 9 ,30,53.32790756,5.934418201,8.95,0,0,0,328.51,328.51,0.01,410,1,133,300,256,143,10.87,100279,108.61
UTC 221222 100414 5 9 ,31,53.32794189,5.934384346,8.96,0,0,0,328.42,328.42,0.01,401,0,132,300,255,143,10.75,100277,108.61
UTC 221222 100415 5 9 ,32,53.32798004,5.934346199,8.97,0,0,0,328.42,328.42,0.01,400,0,132,300,255,143,10.64,100278,108.61
UTC 221222 100416 5 9 ,33,53.328022,5.934306145,8.98,0,0,0,327.97,327.97,0.01,400,0,131,301,255,143,10.53,100275,108.61
UTC 221222 100417 5 9 ,34,53.32806015,5.934265614,8.97,0,0,0,328.53,328.53,0.01,400,0,131,301,255,143,10.4,100271,108.61
UTC 221222 100418 5 9 ,35,53.32810211,5.934227467,8.96,0,0,0,328.43,328.43,0.01,406,0,131,301,254,143,10.32,100274,108.61
UTC 221222 100419 5 9 ,36,53.32814026,5.934189796,8.97,0,0,0,328.59,328.59,0.01,403,0,130,300,254,143,10.23,100277,108.61
UTC 221222 100420 5 9 ,37,53.32817841,5.93415165,8.97,0,0,0,328.41,328.41,0.01,400,0,130,301,253,143,10.14,100274,108.61
UTC 221222 100421 5 9 ,38,53.32821655,5.93411541,8.98,0,0,0,327.44,327.44,0.01,400,0,130,300,253,143,10.05,100277,108.61
UTC 221222 100422 5 9 ,39,53.32823563,5.93409729,8.94,0,0,0,327.19,327.19,0.01,406,0,130,300,253,143,10.07,100283,108.61
UTC 221222 100423 5 9 ,40,53.32823181,5.934098244,8.93,0,0,0,257.23,257.23,0.01,413,1,130,300,253,143,10.09,100284,108.61
UTC 221222 100424 5 9 ,41,53.32822418,5.934105396,8.93,0,0,0,252.35,252.35,0.01,409,1,130,301,252,143,9.92,100279,108.61
UTC 221222 100424 5 9 ,42,53.32822037,5.93409729,8.92,0,0,0,252.78,252.78,0.01,400,0,129,300,252,143,9.74,100278,108.61
UTC 221222 100426 5 9 ,43,53.32821274,5.934062004,8.91,0,0,0,253.03,253.03,0.01,400,0,128,301,251,142,9.6,100270,108.61
UTC 221222 100426 5 9 ,44,53.32820129,5.934015274,8.88,0,0,0,253.01,253.01,0.01,400,0,127,300,251,142,9.44,100269,108.61
UTC 221222 100428 5 9 ,45,53.32819366,5.933959007,8.84,0,0,0,253.06,253.06,0.01,400,0,127,300,250,142,9.29,100267,108.61
UTC 221222 100429 5 9 ,46,53.32818222,5.933895588,8.81,0,0,0,252.94,252.94,0.01,411,1,126,301,251,142,9.16,100263,108.61
UTC 221222 100430 5 9 ,47,53.32817078,5.933825493,8.77,0,0,0,252.86,252.86,0.01,400,0,125,300,249,142,9.06,100263,108.61
UTC 221222 100431 5 9 ,48,53.32815552,5.933750629,8.74,0,0,0,252.92,252.92,0.01,400,0,125,300,250,141,8.93,100271,108.61
UTC 221222 100432 5 9 ,49,53.32814407,5.933675766,8.71,0,0,0,252.43,252.43,0.01,400,0,125,301,249,140,8.82,100276,108.61
UTC 221222 100433 5 9 ,50,53.32812881,5.93360281,8.66,0,0,0,252.51,252.51,0.01,401,0,124,302,249,141,8.72,100275,108.61
UTC 221222 100434 5 9 ,51,53.32811737,5.933529854,8.63,0,0,0,253.22,253.22,0.01,415,2,124,301,249,141,8.62,100283,108.61
UTC 221222 100435 5 9 ,52,53.32810593,5.933456421,8.58,0,0,0,253.77,253.77,0.01,400,0,124,300,248,141,8.55,100279,108.61
UTC 221222 100436 5 9 ,53,53.32809448,5.933382511,8.53,0,0,0,254.63,254.63,0.01,401,0,123,302,247,141,8.46,100280,108.61
UTC 221222 100437 5 9 ,54,53.32808304,5.933309555,8.48,0,0,0,254.73,254.73,0.01,400,0,123,302,247,140,8.38,100285,108.61
UTC 221222 100438 5 9 ,55,53.32807159,5.933237553,8.42,0,0,0,255.56,255.56,0.01,405,0,122,302,247,140,8.3,100284,108.61
UTC 221222 100439 5 9 ,56,53.32806015,5.93316412,8.37,0,0,0,255.91,255.91,0.01,408,1,122,302,246,140,8.22,100280,108.61
UTC 221222 100440 5 9 ,57,53.32805252,5.933092117,8.31,0,0,0,256.7,256.7,0.01,408,1,121,301,246,140,8.15,100274,108.61
UTC 221222 100441 5 9 ,58,53.32804108,5.933020115,8.25,0,0,0,256.65,256.65,0.01,400,0,121,301,245,141,8.1,100276,108.61
UTC 221222 100442 5 9 ,59,53.32803345,5.93296051,8.24,0,0,0,255.21,255.21,0.01,400,0,120,302,245,140,8.03,100292,108.61
UTC 221222 100443 5 9 ,60,53.328022,5.932918549,8.15,0,0,0,240.3,240.3,0.01,405,0,120,301,244,140,7.99,100294,108.61
UTC 221222 100444 5 9 ,61,53.32800293,5.932863712,8.2,0,0,0,254.86,254.86,0.01,409,1,119,302,245,141,7.96,100287,108.61
UTC 221222 100445 5 9 ,62,53.32801056,5.932828426,8.1,0,0,0,323.08,323.08,0.01,416,2,119,303,244,141,7.92,100306,100.22
UTC 221222 100446 5 9 ,63,53.32803726,5.932832718,7.93,0,0,0,26.52,26.52,0.01,413,1,119,301,244,141,7.96,100317,100.22
UTC 221222 100447 5 9 ,64,53.32805252,5.932868958,7.98,0,0,0,83.6,83.6,0.01,418,2,119,303,244,141,8.01,100328,100.22
UTC 221222 100447 5 9 ,65,53.32805252,5.932915211,8.05,0,0,0,93.13,93.13,0.01,426,3,119,302,243,140,8.06,100327,100.22
UTC 221222 100449 5 9 ,66,53.32805252,5.932970524,8.12,0,0,0,80.52,80.52,0.01,433,5,119,303,243,141,8.13,100329,100.22
UTC 221222 100449 5 9 ,67,53.32805634,5.933022976,8.17,0,0,0,73.54,73.54,0.01,436,5,118,303,243,141,8.16,100324,100.22
UTC 221222 100451 5 9 ,68,53.32806778,5.93308115,8.23,0,0,0,73.91,73.91,0.01,439,5,119,303,243,141,8.18,100325,100.22
UTC 221222 100452 5 9 ,69,53.32807922,5.933150291,8.3,0,0,0,73.96,73.96,0.01,452,7,119,303,243,141,8.25,100327,100.22
UTC 221222 100453 5 9 ,70,53.32809067,5.933222771,8.35,0,0,0,73.75,73.75,0.01,448,7,119,303,243,141,8.26,100325,100.22
UTC 221222 100454 5 9 ,71,53.32810211,5.933295727,8.39,0,0,0,73.74,73.74,0.01,446,7,119,303,243,141,8.26,100320,100.22
UTC 221222 100455 5 9 ,72,53.32811737,5.933368206,8.43,0,0,0,73.45,73.45,0.01,448,7,120,303,242,142,8.26,100323,100.22
UTC 221222 100456 5 9 ,73,53.32812881,5.933441162,8.48,0,0,0,73.75,73.75,0.01,452,7,120,303,242,141,8.27,100324,100.22
UTC 221222 100457 5 9 ,74,53.32814407,5.933515072,8.54,0,0,0,73.83,73.83,0,459,8,120,303,242,141,8.33,100323,100.22
UTC 221222 100458 5 9 ,75,53.32815552,5.933588028,8.6,0,0,0,73.61,73.61,0,459,8,119,303,242,141,8.37,100320,100.22
UTC 221222 100459 5 9 ,76,53.32816696,5.933660507,8.65,0,0,0,73.88,73.88,0,456,8,119,303,242,141,8.4,100319,100.22
UTC 221222 100500 5 9 ,77,53.32817841,5.93373394,8.7,0,0,0,73.7,73.7,0,456,8,118,302,242,142,8.44,100319,100.22
UTC 221222 100501 5 9 ,78,53.32819366,5.933806419,8.75,0,0,0,73.64,73.64,0,456,8,118,303,241,141,8.5,100321,100.22
UTC 221222 100502 5 9 ,79,53.32820511,5.933879376,8.8,0,0,0,73.53,73.53,0,463,9,118,303,240,142,8.53,100318,100.22
UTC 221222 100503 5 9 ,80,53.32821655,5.933951855,8.85,0,0,0,73.58,73.58,0,470,10,118,303,241,142,8.57,100316,100.22
UTC 221222 100504 5 9 ,81,53.32823181,5.934024334,8.91,0,0,0,74.43,74.43,0,459,8,117,302,241,142,8.61,100317,100.22
UTC 221222 100505 5 9 ,82,53.32823944,5.934082508,8.93,0,0,0,74.35,74.35,0,463,9,118,303,240,141,8.64,100317,100.22
UTC 221222 100505 5 9 ,83,53.32824707,5.934108734,8.94,0,0,0,54.64,54.64,0,459,8,117,301,239,141,8.64,100308,100.22
UTC 221222 100507 5 9 ,84,53.32825851,5.934104919,8.97,0,0,0,347.12,347.12,0,456,8,117,303,240,142,8.65,100290,108.61
UTC 221222 100508 5 9 ,85,53.32826614,5.934084415,8.99,0,0,0,295.36,295.36,0,466,10,118,303,240,142,8.67,100287,108.61
UTC 221222 100509 5 9 ,86,53.32826614,5.934055805,9,0,0,0,253.5,253.5,0,448,7,118,303,240,141,8.56,100291,108.61
UTC 221222 100510 5 9 ,87,53.32825851,5.934019566,8.97,0,0,0,253.02,253.02,0,446,7,117,302,239,141,8.5,100287,108.61
UTC 221222 100511 5 9 ,88,53.32825089,5.933968067,8.94,0,0,0,252.63,252.63,0,436,5,117,302,238,141,8.43,100285,108.61
UTC 221222 100512 5 9 ,89,53.32823944,5.933906078,8.89,0,0,0,253.15,253.15,0,436,5,116,303,239,141,8.35,100279,108.61
UTC 221222 100513 5 9 ,90,53.328228,5.933836937,8.83,0,0,0,253.1,253.1,0,439,5,116,303,238,141,8.27,100274,108.61
UTC 221222 100514 5 9 ,91,53.32821655,5.933764458,8.76,0,0,0,253.08,253.08,0,427,4,115,303,237,139,8.19,100274,108.61
UTC 221222 100515 5 9 ,92,53.32820129,5.933690548,8.72,0,0,0,252.69,252.69,0,418,2,115,303,237,141,8.12,100278,108.61
UTC 221222 100516 5 9 ,93,53.32818985,5.933616638,8.66,0,0,0,252.94,252.94,0,418,2,115,302,237,140,8.06,100280,108.61
UTC 221222 100517 5 9 ,94,53.32817459,5.933542728,8.61,0,0,0,252.9,252.9,0,416,2,114,303,237,140,7.99,100280,108.61
UTC 221222 100518 5 9 ,95,53.32816315,5.933470249,8.55,0,0,0,253.06,253.06,0.01,423,3,114,303,237,140,7.94,100283,108.61
UTC 221222 100519 5 9 ,96,53.3281517,5.93339777,8.51,0,0,0,252.79,252.79,0.01,418,2,114,302,236,139,7.88,100280,108.61
UTC 221222 100520 5 9 ,97,53.32813644,5.933325291,8.47,0,0,0,252.81,252.81,0.01,413,1,114,303,236,139,7.82,100286,108.61
UTC 221222 100521 5 9 ,98,53.328125,5.933252335,8.42,0,0,0,252.97,252.97,0.01,413,1,114,303,235,139,7.77,100284,108.61
UTC 221222 100522 5 9 ,99,53.32811356,5.933180809,8.37,0,0,0,252.81,252.81,0.01,413,1,113,303,236,140,7.73,100287,108.61
UTC 221222 100523 5 9 ,100,53.3280983,5.93310833,8.32,0,0,0,252.78,252.78,0.01,413,1,113,303,235,140,7.69,100286,108.61
UTC 221222 100524 5 9 ,101,53.32808685,5.933036327,8.26,0,0,0,252.99,252.99,0.01,418,2,113,303,234,140,7.64,100287,108.61
UTC 221222 100525 5 9 ,102,53.32807541,5.932964802,8.21,0,0,0,252.75,252.75,0.01,408,1,113,303,234,139,7.59,100289,108.61
UTC 221222 100526 5 9 ,103,53.32806396,5.932893753,8.17,0,0,0,252.96,252.96,0.01,409,1,113,304,234,139,7.56,100288,108.61
UTC 221222 100527 5 9 ,104,53.32804871,5.93282032,8.12,0,0,0,252.77,252.77,0.01,409,1,113,304,234,139,7.53,100289,108.61
UTC 221222 100528 5 9 ,105,53.32803726,5.932748795,8.09,0,0,0,252.61,252.61,0.01,413,1,113,304,233,139,7.5,100292,108.61
UTC 221222 100528 5 9 ,106,53.32802582,5.932692051,8.08,0,0,0,252.04,252.04,0.01,426,3,112,304,234,139,7.47,100298,108.61
UTC 221222 100528 5 9 ,107,53.32802582,5.932666779,8.03,0,0,0,274.63,274.63,0.01,416,2,112,304,233,140,7.45,100299,108.61
UTC 221222 100528 5 9 ,108,53.32803726,5.932659626,7.99,0,0,0,336.84,336.84,0.01,416,2,112,303,233,140,7.47,100302,100.22
UTC 221222 100528 5 9 ,109,53.32805252,5.932668209,8.03,0,0,0,36.93,36.93,0.01,418,2,112,303,233,139,7.55,100313,100.22
UTC 221222 100533 5 9 ,110,53.32806015,5.932693005,8.06,0,0,0,73.07,73.07,0.01,426,3,113,304,233,140,7.59,100327,100.22
UTC 221222 100534 5 9 ,111,53.32806396,5.932730198,8.09,0,0,0,73.53,73.53,0.01,446,7,113,303,233,140,7.64,100325,100.22
UTC 221222 100535 5 9 ,112,53.32807159,5.932783127,8.11,0,0,0,73.64,73.64,0.01,439,5,113,303,233,140,7.66,100321,100.22
UTC 221222 100536 5 9 ,113,53.32808304,5.932843685,8.16,0,0,0,73.76,73.76,0.01,443,6,113,304,233,140,7.7,100329,100.22
UTC 221222 100537 5 9 ,114,53.32809448,5.932909012,8.2,0,0,0,73.95,73.95,0.01,446,7,112,304,232,141,7.74,100327,100.22
UTC 221222 100538 5 9 ,115,53.32810593,5.932981014,8.26,0,0,0,73.59,73.59,0.01,448,7,113,304,232,141,7.75,100325,100.22
UTC 221222 100539 5 9 ,116,53.32811737,5.933055878,8.31,0,0,0,73.76,73.76,0.01,456,8,113,304,232,140,7.74,100325,100.22
UTC 221222 100540 5 9 ,117,53.32813263,5.933129787,8.36,0,0,0,73.41,73.41,0,456,8,113,304,232,141,7.75,100326,100.22
UTC 221222 100541 5 9 ,118,53.32814407,5.933202744,8.4,0,0,0,73.52,73.52,0,452,7,113,304,232,141,7.76,100322,100.22
UTC 221222 100542 5 9 ,119,53.32815552,5.933276653,8.45,0,0,0,73.84,73.84,0,456,8,112,304,232,141,7.81,100322,100.22
UTC 221222 100543 5 9 ,120,53.32817078,5.933349133,8.5,0,0,0,74.09,74.09,0,456,8,112,304,232,141,7.87,100324,100.22
UTC 221222 100544 5 9 ,121,53.32818222,5.933421612,8.56,0,0,0,73.56,73.56,0,466,10,112,304,232,141,7.9,100323,100.22
UTC 221222 100545 5 9 ,122,53.32819366,5.933494091,8.61,0,0,0,73.75,73.75,0,466,10,112,304,231,141,7.93,100321,100.22
UTC 221222 100546 5 9 ,123,53.32820511,5.933564663,8.66,0,0,0,73.45,73.45,0,459,8,112,304,231,140,7.97,100321,100.22
UTC 221222 100546 5 9 ,124,53.32822037,5.933638096,8.71,0,0,0,73.71,73.71,0,459,8,112,304,230,141,8.01,100321,100.22
UTC 221222 100546 5 9 ,125,53.32823181,5.933708191,8.77,0,0,0,73.91,73.91,0,459,8,111,304,231,140,8.05,100321,100.22
UTC 221222 100546 5 9 ,126,53.32824326,5.933779717,8.82,0,0,0,73.75,73.75,0,466,10,112,304,231,141,8.06,100320,100.22
UTC 221222 100550 5 9 ,127,53.32825851,5.933851242,8.86,0,0,0,73.63,73.63,0,478,11,111,304,230,141,8.09,100320,100.22
UTC 221222 100551 5 9 ,128,53.32826996,5.933923721,8.91,0,0,0,73.64,73.64,0,459,8,111,304,230,141,8.11,100316,100.22
UTC 221222 100552 5 9 ,129,53.3282814,5.933994293,8.97,0,0,0,73.96,73.96,0,459,8,111,304,230,140,8.1,100317,100.22
UTC 221222 100553 5 9 ,130,53.32829285,5.934053898,8.99,0,0,0,74.25,74.25,0,459,8,111,304,230,140,8.1,100315,100.22
UTC 221222 100554 5 9 ,131,53.32829666,5.934080124,8.98,0,0,0,54.35,54.35,0,463,9,111,304,229,140,8.13,100312,100.22
UTC 221222 100555 5 9 ,132,53.32830811,5.934075832,9.03,0,0,0,346.69,346.69,0,475,11,111,304,230,140,8.15,100295,108.61
UTC 221222 100556 5 9 ,133,53.32831573,5.934056759,9.06,0,0,0,293.85,293.85,0,459,8,111,304,230,140,8.18,100288,108.61
UTC 221222 100557 5 9 ,134,53.32831573,5.934030056,9.07,0,0,0,253.49,253.49,0,452,7,111,304,230,141,8.11,100287,108.61
UTC 221222 100558 5 9 ,135,53.32831192,5.933995247,9.03,0,0,0,253.4,253.4,0.01,446,7,111,303,229,140,8.04,100283,108.61
UTC 221222 100559 5 9 ,136,53.32830048,5.93394661,8.99,0,0,0,253.21,253.21,0.01,443,6,111,303,229,140,7.98,100282,108.61
UTC 221222 100600 5 9 ,137,53.32829285,5.933889389,8.95,0,0,0,252.65,252.65,0.01,443,6,110,303,228,141,7.93,100282,108.61
UTC 221222 100601 5 9 ,138,53.3282814,5.933825016,8.91,0,0,0,252.8,252.8,0.01,433,5,110,303,228,139,7.87,100277,108.61
UTC 221222 100602 5 9 ,139,53.32826996,5.933755875,8.85,0,0,0,253.09,253.09,0.01,426,3,110,303,227,139,7.83,100274,108.61
UTC 221222 100603 5 9 ,140,53.3282547,5.933681965,8.8,0,0,0,252.77,252.77,0.01,418,2,109,304,228,140,7.76,100274,108.61
UTC 221222 100604 5 9 ,141,53.32824326,5.933608055,8.76,0,0,0,252.51,252.51,0.01,423,3,109,304,227,139,7.71,100284,108.61
UTC 221222 100605 5 9 ,142,53.32823181,5.933535099,8.69,0,0,0,252.89,252.89,0.01,426,3,109,303,226,139,7.67,100282,108.61
UTC 221222 100606 5 9 ,143,53.32821655,5.93346262,8.64,0,0,0,252.77,252.77,0.01,426,3,109,303,226,139,7.62,100284,108.61
UTC 221222 100607 5 9 ,144,53.32820511,5.933389187,8.59,0,0,0,252.72,252.72,0.01,416,2,108,304,226,139,7.58,100284,108.61
UTC 221222 100608 5 9 ,145,53.32819366,5.933316231,8.54,0,0,0,252.8,252.8,0.01,426,3,108,304,226,139,7.54,100286,108.61
UTC 221222 100608 5 9 ,146,53.32817841,5.933244705,8.49,0,0,0,252.75,252.75,0.01,416,2,108,304,226,138,7.5,100286,108.61
UTC 221222 100608 5 9 ,147,53.32816696,5.933170795,8.42,0,0,0,252.99,252.99,0.01,416,2,108,304,225,139,7.46,100286,108.61
UTC 221222 100608 5 9 ,148,53.32815552,5.93309927,8.38,0,0,0,252.9,252.9,0.01,413,1,107,304,226,139,7.42,100284,108.61
UTC 221222 100608 5 9 ,149,53.32814026,5.933025837,8.33,0,0,0,252.68,252.68,0.01,413,1,107,304,225,139,7.38,100283,108.61
UTC 221222 100613 5 9 ,150,53.32812881,5.932955742,8.27,0,0,0,253.1,253.1,0.01,426,3,106,304,225,138,7.35,100284,108.61
UTC 221222 100614 5 9 ,151,53.32811737,5.932882309,8.21,0,0,0,253.11,253.11,0.01,408,1,106,304,224,139,7.32,100278,108.61
UTC 221222 100615 5 9 ,152,53.32810593,5.932811737,8.17,0,0,0,253.18,253.18,0.01,408,1,106,304,224,138,7.29,100279,108.61
UTC 221222 100616 5 9 ,153,53.32809448,5.932738304,8.12,0,0,0,253.13,253.13,0.01,408,1,105,304,224,139,7.25,100277,108.61
UTC 221222 100617 5 9 ,154,53.32808304,5.932673454,8.11,0,0,0,252.05,252.05,0.01,405,0,104,304,222,138,7.23,100284,108.61
UTC 221222 100618 5 9 ,155,53.32807541,5.932638645,8.06,0,0,0,259.37,259.37,0.01,418,2,105,304,224,139,7.21,100300,100.22
UTC 221222 100619 5 9 ,156,53.32808304,5.932627678,8,0,0,0,325.64,325.64,0.01,418,2,106,304,223,139,7.23,100310,100.22
UTC 221222 100620 5 9 ,157,53.3280983,5.932631493,8.01,0,0,0,15.42,15.42,0.01,418,2,105,304,223,139,7.3,100310,100.22
UTC 221222 100621 5 9 ,158,53.32810974,5.932654381,8.05,0,0,0,71.83,71.83,0.01,426,3,106,305,223,139,7.35,100331,100.22
UTC 221222 100622 5 9 ,159,53.32811356,5.932686806,8.09,0,0,0,73.26,73.26,0.01,427,4,105,304,223,139,7.41,100329,100.22
UTC 221222 100623 5 9 ,160,53.32812119,5.932737351,8.12,0,0,0,73.48,73.48,0.01,439,5,105,305,223,139,7.44,100331,100.22
UTC 221222 100624 5 9 ,161,53.32812881,5.932796478,8.16,0,0,0,73.49,73.49,0.01,443,6,104,304,222,139,7.5,100331,100.22
UTC 221222 100625 5 9 ,162,53.32814026,5.932863712,8.23,0,0,0,73.53,73.53,0.01,439,5,105,305,223,139,7.55,100328,100.22
UTC 221222 100626 5 9 ,163,53.32815552,5.932937145,8.28,0,0,0,73.88,73.88,0.01,443,6,104,304,223,139,7.61,100327,100.22
UTC 221222 100627 5 9 ,164,53.32816696,5.933012009,8.34,0,0,0,73.72,73.72,0.01,446,7,104,305,222,140,7.65,100325,100.22
UTC 221222 100628 5 9 ,165,53.32817841,5.933085442,8.4,0,0,0,73.65,73.65,0.01,448,7,105,304,222,139,7.69,100324,100.22
UTC 221222 100629 5 9 ,166,53.32819366,5.933157921,8.46,0,0,0,73.64,73.64,0.01,456,8,104,305,221,139,7.73,100329,100.22
UTC 221222 100629 5 9 ,167,53.32820511,5.933229446,8.52,0,0,0,73.8,73.8,0.01,448,7,104,304,222,139,7.78,100322,100.22
UTC 221222 100631 5 9 ,168,53.32821655,5.933301926,8.58,0,0,0,73.86,73.86,0,452,7,104,304,221,139,7.83,100326,100.22
UTC 221222 100631 5 9 ,169,53.32823181,5.933375835,8.65,0,0,0,73.83,73.83,0,452,7,104,304,222,140,7.86,100323,100.22
UTC 221222 100633 5 9 ,170,53.32824326,5.933446407,8.71,0,0,0,73.9,73.9,0,456,8,105,304,221,139,7.9,100323,100.22
UTC 221222 100634 5 9 ,171,53.3282547,5.933517456,8.78,0,0,0,73.71,73.71,0,470,10,104,304,221,140,7.92,100320,100.22
UTC 221222 100635 5 9 ,172,53.32826614,5.933589459,8.84,0,0,0,73.71,73.71,0,452,7,105,304,221,139,7.91,100321,100.22
UTC 221222 100636 5 9 ,173,53.3282814,5.933662891,8.89,0,0,0,73.75,73.75,0,452,7,104,304,221,140,7.88,100320,100.22
UTC 221222 100637 5 9 ,174,53.32829285,5.933736324,8.94,0,0,0,73.68,73.68,0,452,7,105,305,221,140,7.87,100318,100.22
UTC 221222 100638 5 9 ,175,53.32830429,5.933808804,9,0,0,0,73.71,73.71,0,456,8,104,305,220,140,7.87,100318,100.22
UTC 221222 100639 5 9 ,176,53.32831573,5.933881283,9.05,0,0,0,73.99,73.99,0.01,466,10,105,304,220,140,7.89,100317,100.22
UTC 221222 100640 5 9 ,177,53.32833099,5.933954239,9.11,0,0,0,73.77,73.77,0.01,459,8,104,305,220,140,7.9,100319,100.22
UTC 221222 100641 5 9 ,178,53.32834244,5.934019089,9.14,0,0,0,74.3,74.3,0.01,463,9,105,305,220,139,7.9,100316,100.22
UTC 221222 100642 5 9 ,179,53.32835007,5.934055328,9.14,0,0,0,67.82,67.82,0.01,463,9,105,304,220,140,7.94,100313,100.22
UTC 221222 100643 5 9 ,180,53.3283577,5.934055805,9.21,0,0,0,357.31,357.31,0.01,459,8,105,305,220,140,7.96,100295,108.61
UTC 221222 100644 5 9 ,181,53.32836914,5.934039116,9.26,0,0,0,312.98,312.98,0.01,466,10,105,305,220,140,7.99,100291,108.61
UTC 221222 100645 5 9 ,182,53.32836914,5.934010506,9.28,0,0,0,255.25,255.25,0.01,456,8,105,305,220,140,7.97,100288,108.61
UTC 221222 100646 5 9 ,183,53.32836533,5.933979034,9.25,0,0,0,252.9,252.9,0.01,446,7,105,305,219,139,7.88,100292,108.61
UTC 221222 100647 5 9 ,184,53.32835388,5.933930397,9.22,0,0,0,252.91,252.91,0.01,439,5,105,304,219,139,7.84,100281,108.61
UTC 221222 100647 5 9 ,185,53.32834625,5.933872223,9.17,0,0,0,253.02,253.02,0.01,436,5,105,305,218,139,7.79,100279,108.61
UTC 221222 100647 5 9 ,186,53.32833481,5.933805466,9.1,0,0,0,253.01,253.01,0.01,439,5,105,305,219,139,7.74,100277,108.61
UTC 221222 100647 5 9 ,187,53.32832336,5.933734417,9.04,0,0,0,252.77,252.77,0.01,436,5,104,305,219,139,7.7,100279,108.61
UTC 221222 100647 5 9 ,188,53.32830811,5.933659554,8.98,0,0,0,252.68,252.68,0.01,423,3,105,305,219,139,7.65,100276,108.61
UTC 221222 100647 5 9 ,189,53.32829666,5.93358469,8.92,0,0,0,252.45,252.45,0.01,423,3,104,305,218,139,7.59,100283,108.61
UTC 221222 100653 5 9 ,190,53.3282814,5.933512688,8.85,0,0,0,252.99,252.99,0.01,423,3,104,305,218,138,7.55,100279,108.61
UTC 221222 100654 5 9 ,191,53.32826996,5.933440685,8.8,0,0,0,252.96,252.96,0.01,423,3,103,304,217,138,7.51,100278,108.61
UTC 221222 100655 5 9 ,192,53.32825851,5.933368206,8.74,0,0,0,252.95,252.95,0.01,423,3,103,302,217,138,7.46,100282,108.61
UTC 221222 100656 5 9 ,193,53.32824326,5.933295727,8.66,0,0,0,252.95,252.95,0.01,416,2,102,304,217,138,7.43,100277,108.61
UTC 221222 100657 5 9 ,194,53.32823181,5.933222294,8.59,0,0,0,253.15,253.15,0.01,409,1,102,305,216,139,7.39,100278,108.61
UTC 221222 100658 5 9 ,195,53.32822037,5.933148861,8.53,0,0,0,253.07,253.07,0.01,413,1,101,304,216,139,7.35,100276,108.61
UTC 221222 100659 5 9 ,196,53.32820892,5.933077812,8.46,0,0,0,253.13,253.13,0.01,409,1,101,305,217,138,7.32,100278,108.61
UTC 221222 100700 5 9 ,197,53.32819366,5.933003902,8.39,0,0,0,253.09,253.09,0.01,423,3,101,304,217,138,7.3,100280,108.61
UTC 221222 100701 5 9 ,198,53.32818222,5.932930946,8.35,0,0,0,252.89,252.89,0.01,408,1,101,305,215,138,7.27,100281,108.61
UTC 221222 100702 5 9 ,199,53.32816696,5.932857513,8.29,0,0,0,252.62,252.62,0.01,408,1,101,304,215,138,7.24,100292,108.61
UTC 221222 100703 5 9 ,200,53.32815552,5.932785034,8.23,0,0,0,252.86,252.86,0.01,408,1,100,305,215,138,7.22,100288,108.61
UTC 221222 100704 5 9 ,201,53.32814407,5.932713032,8.17,0,0,0,252.85,252.85,0.01,409,1,100,304,215,138,7.2,100290,108.61
UTC 221222 100705 5 9 ,202,53.32813263,5.932645798,8.13,0,0,0,252.32,252.32,0.01,418,2,100,305,215,138,7.17,100295,108.61
UTC 221222 100706 5 9 ,203,53.328125,5.932608128,8.08,0,0,0,255.24,255.24,0.01,409,1,100,304,215,139,7.15,100298,108.61
UTC 221222 100707 5 9 ,204,53.32813263,5.93259573,8,0,0,0,319.19,319.19,0.01,413,1,100,305,215,139,7.15,100314,100.22
UTC 221222 100708 5 9 ,205,53.32814789,5.932599068,7.97,0,0,0,6.15,6.15,0.01,416,2,101,305,215,138,7.23,100314,100.22
UTC 221222 100709 5 9 ,206,53.32815933,5.932621479,8.02,0,0,0,70.8,70.8,0.01,423,3,101,305,215,139,7.3,100330,100.22
UTC 221222 100710 5 9 ,207,53.32816315,5.932651997,8.05,0,0,0,73.3,73.3,0.01,443,6,101,305,215,139,7.35,100327,100.22
UTC 221222 100711 5 9 ,208,53.32817078,5.932700634,8.1,0,0,0,73.56,73.56,0.01,443,6,102,305,215,139,7.38,100327,100.22
UTC 221222 100711 5 9 ,209,53.32817841,5.932758808,8.16,0,0,0,73.72,73.72,0.01,439,5,101,305,214,138,7.43,100328,100.22
UTC 221222 100711 5 9 ,210,53.32818985,5.932824135,8.23,0,0,0,73.47,73.47,0.01,443,6,102,305,214,139,7.48,100328,100.22
UTC 221222 100714 5 9 ,211,53.32820511,5.932896614,8.3,0,0,0,73.64,73.64,0.01,446,7,101,305,215,139,7.49,100329,100.22
UTC 221222 100715 5 9 ,212,53.32821655,5.932971478,8.38,0,0,0,73.69,73.69,0.01,448,7,101,305,214,139,7.49,100325,100.22
UTC 221222 100716 5 9 ,213,53.328228,5.933045387,8.45,0,0,0,73.72,73.72,0.01,452,7,101,305,214,140,7.5,100323,100.22
UTC 221222 100717 5 9 ,214,53.32824326,5.933120251,8.52,0,0,0,73.78,73.78,0.01,446,7,101,305,214,139,7.54,100325,100.22
UTC 221222 100718 5 9 ,215,53.3282547,5.933194161,8.59,0,0,0,73.93,73.93,0.01,448,7,101,305,214,139,7.57,100320,100.22
UTC 221222 100719 5 9 ,216,53.32826614,5.933265209,8.67,0,0,0,73.78,73.78,0.01,448,7,101,305,213,139,7.61,100320,100.22
UTC 221222 100720 5 9 ,217,53.3282814,5.933339119,8.73,0,0,0,73.87,73.87,0.01,456,8,101,305,214,139,7.64,100321,100.22
UTC 221222 100721 5 9 ,218,53.32829285,5.933411121,8.81,0,0,0,73.85,73.85,0.01,466,10,101,305,213,139,7.63,100319,100.22
UTC 221222 100722 5 9 ,219,53.32830429,5.933483601,8.87,0,0,0,73.61,73.61,0.01,452,7,100,305,213,139,7.64,100317,100.22
UTC 221222 100723 5 9 ,220,53.32831573,5.933555603,8.95,0,0,0,73.46,73.46,0.01,452,7,101,305,213,139,7.64,100321,100.22
UTC 221222 100724 5 9 ,221,53.32833099,5.933628559,9.01,0,0,0,73.85,73.85,0.01,452,7,100,305,213,140,7.65,100317,100.22
UTC 221222 100725 5 9 ,222,53.32834244,5.933701515,9.08,0,0,0,73.76,73.76,0.01,459,8,101,305,213,140,7.68,100318,100.22
UTC 221222 100726 5 9 ,223,53.32835388,5.933773994,9.15,0,0,0,73.7,73.7,0.01,470,10,101,305,213,139,7.71,100313,100.22
UTC 221222 100727 5 9 ,224,53.32836914,5.933846474,9.22,0,0,0,73.77,73.77,0.01,456,8,101,305,212,140,7.73,100313,100.22
UTC 221222 100728 5 9 ,225,53.32838058,5.933918476,9.31,0,0,0,73.73,73.73,0.01,463,9,101,305,213,140,7.71,100314,100.22
UTC 221222 100729 5 9 ,226,53.32839203,5.933984757,9.37,0,0,0,74.58,74.58,0.01,463,9,101,305,212,140,7.71,100313,100.22
UTC 221222 100729 5 9 ,227,53.32839966,5.934027195,9.37,0,0,0,72.1,72.1,0.01,459,8,101,305,212,140,7.73,100313,100.22
UTC 221222 100729 5 9 ,228,53.32840729,5.93403244,9.42,0,0,0,11.77,11.77,0.01,456,8,101,305,212,140,7.76,100296,108.61
UTC 221222 100732 5 9 ,229,53.32841873,5.934017181,9.47,0,0,0,326.12,326.12,0.01,456,8,101,305,212,140,7.79,100291,108.61
UTC 221222 100733 5 9 ,230,53.32842255,5.933987618,9.48,0,0,0,258.59,258.59,0.01,459,8,102,305,212,139,7.79,100284,108.61
UTC 221222 100734 5 9 ,231,53.32841492,5.93395853,9.44,0,0,0,253.05,253.05,0.01,456,8,102,304,211,139,7.74,100284,108.61
UTC 221222 100735 5 9 ,232,53.32840729,5.933912277,9.4,0,0,0,253.12,253.12,0.01,443,6,101,305,212,139,7.7,100278,108.61
UTC 221222 100736 5 9 ,233,53.32839966,5.933856964,9.35,0,0,0,253.02,253.02,0.01,436,5,101,304,211,138,7.66,100272,108.61
UTC 221222 100737 5 9 ,234,53.32838821,5.933792591,9.28,0,0,0,253.05,253.05,0.01,427,4,100,305,210,139,7.62,100272,108.61
UTC 221222 100738 5 9 ,235,53.32837677,5.933722019,9.22,0,0,0,253.28,253.28,0.01,426,3,100,304,210,138,7.57,100271,108.61
UTC 221222 100739 5 9 ,236,53.32836151,5.933646202,9.17,0,0,0,252.68,252.68,0.01,433,5,100,304,211,138,7.53,100273,108.61
UTC 221222 100740 5 9 ,237,53.32835007,5.933570385,9.1,0,0,0,252.53,252.53,0.01,418,2,98,304,210,139,7.49,100275,108.61
UTC 221222 100741 5 9 ,238,53.32833481,5.933498383,9.01,0,0,0,252.93,252.93,0.01,418,2,99,305,210,138,7.45,100270,108.61
UTC 221222 100742 5 9 ,239,53.32832336,5.933425427,8.92,0,0,0,252.85,252.85,0.01,416,2,99,304,210,138,7.41,100274,108.61
UTC 221222 100743 5 9 ,240,53.32831192,5.933353424,8.83,0,0,0,252.9,252.9,0.01,413,1,98,304,209,138,7.37,100276,108.61
UTC 221222 100744 5 9 ,241,53.32829666,5.933280945,8.75,0,0,0,253.19,253.19,0.01,426,3,98,304,209,138,7.33,100275,108.61
UTC 221222 100745 5 9 ,242,53.32828522,5.933208466,8.68,0,0,0,253.09,253.09,0.01,409,1,97,305,209,138,7.31,100269,108.61
UTC 221222 100746 5 9 ,243,53.32827377,5.933136463,8.6,0,0,0,253.02,253.02,0.01,409,1,97,305,209,138,7.27,100271,108.61
UTC 221222 100747 5 9 ,244,53.32826233,5.933063507,8.54,0,0,0,252.71,252.71,0.01,409,1,96,304,208,138,7.24,100288,108.61
UTC 221222 100748 5 9 ,245,53.32824707,5.932990551,8.44,0,0,0,253.03,253.03,0.01,408,1,97,305,208,137,7.22,100285,108.61
UTC 221222 100749 5 9 ,246,53.32823563,5.932918072,8.35,0,0,0,253.1,253.1,0.01,416,2,97,305,208,138,7.19,100286,108.61
UTC 221222 100750 5 9 ,247,53.32822418,5.932845593,8.28,0,0,0,253.09,253.09,0.01,409,1,96,306,208,138,7.16,100287,108.61
UTC 221222 100751 5 9 ,248,53.32820892,5.932772636,8.21,0,0,0,252.91,252.91,0.01,409,1,96,305,208,138,7.14,100285,108.61
UTC 221222 100752 5 9 ,249,53.32819748,5.93269968,8.13,0,0,0,252.89,252.89,0.01,408,1,96,306,208,138,7.12,100286,108.61
UTC 221222 100753 5 9 ,250,53.32818604,5.932629108,8.08,0,0,0,252.36,252.36,0.01,409,1,96,305,207,137,7.11,100291,108.61
UTC 221222 100754 5 9 ,251,53.32817459,5.932581425,8.05,0,0,0,251.76,251.76,0.01,418,2,96,306,208,138,7.11,100304,100.22
UTC 221222 100754 5 9 ,252,53.32817841,5.932564259,7.96,0,0,0,297.37,297.37,0.01,423,3,97,305,208,138,7.11,100309,100.22
UTC 221222 100754 5 9 ,253,53.32819366,5.932563782,7.9,0,0,0,347.7,347.7,0.01,423,3,97,305,207,138,7.17,100314,100.22
UTC 221222 100757 5 9 ,254,53.32820892,5.932583809,7.94,0,0,0,62.02,62.02,0.01,423,3,97,306,206,138,7.24,100330,100.22
UTC 221222 100758 5 9 ,255,53.32821274,5.932612419,7.99,0,0,0,73.83,73.83,0.01,433,5,97,306,207,138,7.28,100330,100.22
UTC 221222 100759 5 9 ,256,53.32822037,5.932655811,8.05,0,0,0,73.63,73.63,0.01,439,5,97,306,206,138,7.32,100331,100.22
UTC 221222 100800 5 9 ,257,53.328228,5.932711124,8.12,0,0,0,73.61,73.61,0.01,448,7,97,306,207,138,7.38,100330,100.22
UTC 221222 100801 5 9 ,258,53.32823944,5.932773113,8.19,0,0,0,73.68,73.68,0.01,443,6,97,306,207,138,7.43,100329,100.22
UTC 221222 100802 5 9 ,259,53.32825089,5.932843685,8.28,0,0,0,73.55,73.55,0.01,446,7,97,305,207,139,7.47,100327,100.22
UTC 221222 100803 5 9 ,260,53.32826233,5.932917118,8.38,0,0,0,73.83,73.83,0.01,448,7,96,306,207,138,7.46,100325,100.22
UTC 221222 100804 5 9 ,261,53.32827759,5.932991028,8.47,0,0,0,73.88,73.88,0.01,448,7,97,305,207,139,7.47,100327,100.22
UTC 221222 100805 5 9 ,262,53.32828903,5.933064461,8.56,0,0,0,73.6,73.6,0.01,463,9,98,306,207,138,7.47,100319,100.22
UTC 221222 100806 5 9 ,263,53.32830048,5.933136463,8.64,0,0,0,73.43,73.43,0.01,448,7,97,305,207,139,7.47,100323,100.22
UTC 221222 100807 5 9 ,264,53.32831573,5.933209896,8.72,0,0,0,73.66,73.66,0.01,456,8,97,306,207,139,7.49,100322,100.22
UTC 221222 100808 5 9 ,265,53.32832718,5.933283329,8.8,0,0,0,73.48,73.48,0.01,456,8,98,306,207,139,7.51,100321,100.22
UTC 221222 100809 5 9 ,266,53.32833862,5.933356285,8.89,0,0,0,73.73,73.73,0.01,456,8,97,306,207,139,7.54,100322,100.22
UTC 221222 100810 5 9 ,267,53.32835007,5.933429241,8.97,0,0,0,73.89,73.89,0.01,470,10,97,305,206,139,7.56,100319,100.22
UTC 221222 100811 5 9 ,268,53.32836533,5.93350172,9.06,0,0,0,73.61,73.61,0.01,463,9,97,305,207,139,7.58,100319,100.22
UTC 221222 100811 5 9 ,269,53.32837677,5.933572769,9.15,0,0,0,73.61,73.61,0.01,459,8,97,305,206,139,7.59,100320,100.22
UTC 221222 100811 5 9 ,270,53.32838821,5.933645248,9.22,0,0,0,73.79,73.79,0.01,459,8,97,305,206,139,7.62,100316,100.22
UTC 221222 100814 5 9 ,271,53.32840347,5.933718681,9.3,0,0,0,73.89,73.89,0.01,463,9,97,305,206,139,7.67,100315,100.22
UTC 221222 100815 5 9 ,272,53.32841492,5.933793068,9.38,0,0,0,73.62,73.62,0.01,470,10,97,305,205,139,7.68,100314,100.22
UTC 221222 100816 5 9 ,273,53.32843018,5.933865547,9.48,0,0,0,73.92,73.92,0.01,466,10,96,305,206,139,7.73,100315,100.22
UTC 221222 100817 5 9 ,274,53.32844162,5.933937073,9.56,0,0,0,74.26,74.26,0.01,466,10,97,305,205,139,7.76,100314,100.22
UTC 221222 100818 5 9 ,275,53.32844925,5.933990955,9.6,0,0,0,74.27,74.27,0.01,463,9,96,305,204,139,7.8,100315,100.22
UTC 221222 100819 5 9 ,276,53.32845688,5.934009552,9.63,0,0,0,39.16,39.16,0.01,463,9,96,304,205,139,7.82,100302,100.22
UTC 221222 100820 5 9 ,277,53.32846832,5.934000492,9.71,0,0,0,341.51,341.51,0.01,463,9,96,305,205,139,7.86,100294,108.61
UTC 221222 100821 5 9 ,278,53.32847214,5.933974266,9.73,0,0,0,277.31,277.31,0.01,463,9,96,305,205,139,7.88,100282,108.61
UTC 221222 100822 5 9 ,279,53.32847214,5.933944225,9.71,0,0,0,253.15,253.15,0.01,448,7,97,305,205,139,7.81,100285,108.61
UTC 221222 100823 5 9 ,280,53.32846451,5.933901787,9.65,0,0,0,253.04,253.04,0.01,443,6,96,305,205,139,7.76,100280,108.61
UTC 221222 100824 5 9 ,281,53.32845306,5.933842659,9.58,0,0,0,253.25,253.25,0.01,439,5,97,305,204,138,7.72,100274,108.61
UTC 221222 100825 5 9 ,282,53.32844162,5.933772087,9.48,0,0,0,253.32,253.32,0.01,433,5,96,305,204,138,7.67,100271,108.61
UTC 221222 100826 5 9 ,283,53.32842636,5.933695316,9.4,0,0,0,252.72,252.72,0.01,436,5,96,305,204,137,7.61,100270,108.61
UTC 221222 100827 5 9 ,284,53.32841492,5.933618546,9.31,0,0,0,252.59,252.59,0.01,423,3,95,305,203,138,7.57,100277,108.61
UTC 221222 100828 5 9 ,285,53.32839966,5.933544636,9.22,0,0,0,252.68,252.68,0.01,418,2,95,304,203,138,7.52,100282,108.61
UTC 221222 100829 5 9 ,286,53.32838821,5.933472633,9.14,0,0,0,252.65,252.65,0.01,416,2,95,305,202,138,7.47,100279,108.61
UTC 221222 100830 5 9 ,287,53.32837677,5.933400631,9.04,0,0,0,252.93,252.93,0.01,418,2,95,304,202,137,7.43,100280,108.61
UTC 221222 100831 5 9 ,288,53.32836151,5.933330059,8.94,0,0,0,252.96,252.96,0.01,427,4,94,305,202,137,7.39,100284,108.61
UTC 221222 100832 5 9 ,289,53.32835007,5.933256626,8.85,0,0,0,252.85,252.85,0.01,416,2,94,305,202,137,7.36,100282,108.61
UTC 221222 100833 5 9 ,290,53.32833862,5.933184624,8.75,0,0,0,252.96,252.96,0.01,413,1,94,305,202,137,7.32,100281,108.61
UTC 221222 100834 5 9 ,291,53.32832336,5.933112621,8.65,0,0,0,253.03,253.03,0.01,413,1,94,305,201,137,7.29,100288,108.61
UTC 221222 100834 5 9 ,292,53.32831192,5.933040142,8.57,0,0,0,252.73,252.73,0.01,413,1,94,305,202,136,7.26,100286,108.61
UTC 221222 100834 5 9 ,293,53.32830048,5.932969093,8.49,0,0,0,253.06,253.06,0.01,418,2,94,305,202,137,7.23,100283,108.61
UTC 221222 100834 5 9 ,294,53.32828903,5.932894707,8.39,0,0,0,253.14,253.14,0.01,413,1,94,305,202,137,7.19,100285,108.61
UTC 221222 100834 5 9 ,295,53.32827377,5.932824135,8.31,0,0,0,252.76,252.76,0.01,408,1,94,305,201,137,7.17,100288,108.61
UTC 221222 100839 5 9 ,296,53.32826233,5.932750702,8.22,0,0,0,252.9,252.9,0.01,408,1,93,305,201,137,7.15,100291,108.61
UTC 221222 100840 5 9 ,297,53.32825089,5.932679176,8.13,0,0,0,252.85,252.85,0.01,408,1,93,305,201,137,7.13,100297,108.61
UTC 221222 100841 5 9 ,298,53.32823563,5.93260622,8.04,0,0,0,252.4,252.4,0.01,416,2,93,306,201,137,7.11,100294,108.61
UTC 221222 100842 5 9 ,299,53.328228,5.932555199,8,0,0,0,252.23,252.23,0.01,416,2,92,305,201,136,7.09,100301,100.22
UTC 221222 100843 5 9 ,300,53.328228,5.932535648,7.92,0,0,0,287.98,287.98,0.01,413,1,93,306,201,138,7.1,100314,100.22
UTC 221222 100844 5 9 ,301,53.32824326,5.932533264,7.84,0,0,0,342.06,342.06,0.01,416,2,94,306,201,137,7.14,100316,100.22
UTC 221222 100845 5 9 ,302,53.32825851,5.932549477,7.89,0,0,0,54.76,54.76,0.01,418,2,94,306,200,138,7.21,100333,100.22
UTC 221222 100846 5 9 ,303,53.32826233,5.932576656,7.94,0,0,0,73.08,73.08,0.01,433,5,94,306,200,138,7.26,100335,100.22
UTC 221222 100847 5 9 ,304,53.32826996,5.932619095,8.01,0,0,0,73.51,73.51,0.01,433,5,94,306,200,137,7.31,100338,100.22
UTC 221222 100848 5 9 ,305,53.32827759,5.932674885,8.09,0,0,0,73.6,73.6,0.01,439,5,94,305,200,138,7.36,100337,100.22
UTC 221222 100849 5 9 ,306,53.32828903,5.932740212,8.18,0,0,0,73.46,73.46,0.01,448,7,93,305,199,138,7.42,100334,100.22
UTC 221222 100850 5 9 ,307,53.32830048,5.932812214,8.28,0,0,0,73.61,73.61,0.01,439,5,92,305,200,138,7.45,100331,100.22
UTC 221222 100851 5 9 ,308,53.32831573,5.932886601,8.39,0,0,0,73.82,73.82,0.01,443,6,92,306,200,137,7.48,100328,100.22
UTC 221222 100852 5 9 ,309,53.32832718,5.932962418,8.49,0,0,0,73.84,73.84,0.01,443,6,92,305,200,138,7.53,100330,100.22
UTC 221222 100853 5 9 ,310,53.32833862,5.933034897,8.59,0,0,0,73.78,73.78,0.01,446,7,92,306,200,138,7.57,100327,100.22
UTC 221222 100854 5 9 ,311,53.32835388,5.933107376,8.69,0,0,0,73.82,73.82,0.01,456,8,92,305,199,138,7.61,100324,100.22
UTC 221222 100855 5 9 ,312,53.32836533,5.933180332,8.8,0,0,0,73.87,73.87,0.01,452,7,92,306,200,138,7.63,100323,100.22
UTC 221222 100855 5 9 ,313,53.32837677,5.933251858,8.9,0,0,0,74.01,74.01,0.01,452,7,92,305,200,138,7.64,100320,100.22
UTC 221222 100855 5 9 ,314,53.32838821,5.933324337,9,0,0,0,73.32,73.32,0.01,452,7,92,305,199,138,7.65,100322,100.22
UTC 221222 100858 5 9 ,315,53.32840347,5.933396816,9.09,0,0,0,73.71,73.71,0.01,452,7,92,306,199,138,7.67,100321,100.22
UTC 221222 100859 5 9 ,316,53.32841492,5.933470726,9.19,0,0,0,73.52,73.52,0.01,463,9,92,305,199,138,7.69,100320,100.22
UTC 221222 100900 5 9 ,317,53.32842636,5.933541775,9.29,0,0,0,73.7,73.7,0.01,463,9,92,305,199,138,7.72,100317,100.22
UTC 221222 100901 5 9 ,318,53.32844162,5.9336133,9.4,0,0,0,73.66,73.66,0.01,456,8,92,305,199,138,7.73,100316,100.22
UTC 221222 100902 5 9 ,319,53.32845306,5.93368578,9.5,0,0,0,74.15,74.15,0.01,452,7,93,305,199,138,7.72,100315,100.22
UTC 221222 100903 5 9 ,320,53.32846451,5.933758259,9.6,0,0,0,73.82,73.82,0.01,456,8,93,306,199,138,7.71,100314,100.22
UTC 221222 100904 5 9 ,321,53.32847595,5.933830738,9.69,0,0,0,73.45,73.45,0.01,459,8,93,305,199,138,7.7,100316,100.22
UTC 221222 100905 5 9 ,322,53.32849121,5.933903694,9.77,0,0,0,73.65,73.65,0.01,466,10,93,305,199,139,7.73,100314,100.22
UTC 221222 100906 5 9 ,323,53.32849884,5.933960438,9.83,0,0,0,74.37,74.37,0.01,456,8,93,305,198,138,7.77,100315,100.22
UTC 221222 100907 5 9 ,324,53.32850647,5.933982372,9.86,0,0,0,45.28,45.28,0.01,459,8,92,304,198,138,7.79,100302,100.22
UTC 221222 100908 5 9 ,325,53.32851791,5.933974743,9.92,0,0,0,343.5,343.5,0.01,456,8,93,305,198,138,7.82,100286,108.61
UTC 221222 100909 5 9 ,326,53.32852554,5.933950901,9.94,0,0,0,283.76,283.76,0.01,452,7,93,304,198,138,7.84,100279,108.61
UTC 221222 100910 5 9 ,327,53.32852173,5.933922291,9.94,0,0,0,252.98,252.98,0.01,456,8,93,305,198,138,7.78,100283,108.61
UTC 221222 100911 5 9 ,328,53.3285141,5.933885098,9.88,0,0,0,252.99,252.99,0.01,443,6,93,305,198,138,7.74,100277,108.61
UTC 221222 100912 5 9 ,329,53.32850647,5.933835983,9.8,0,0,0,252.44,252.44,0.01,433,5,92,304,197,137,7.71,100280,108.61
UTC 221222 100913 5 9 ,330,53.32849884,5.933778286,9.75,0,0,0,252.66,252.66,0.01,433,5,92,305,197,138,7.68,100277,108.61
UTC 221222 100914 5 9 ,331,53.3284874,5.933713436,9.65,0,0,0,253.06,253.06,0.01,426,3,92,304,197,137,7.62,100273,108.61
UTC 221222 100914 5 9 ,332,53.32847595,5.933643341,9.55,0,0,0,252.97,252.97,0.01,436,5,91,305,197,137,7.58,100276,108.61
UTC 221222 100914 5 9 ,333,53.32846069,5.933571339,9.45,0,0,0,252.93,252.93,0.01,426,3,92,305,197,137,7.53,100275,108.61
UTC 221222 100914 5 9 ,334,53.32844925,5.933496952,9.35,0,0,0,253.08,253.08,0.01,418,2,92,305,196,136,7.48,100274,108.61
UTC 221222 100914 5 9 ,335,53.32843781,5.933425427,9.24,0,0,0,252.97,252.97,0.01,418,2,91,305,196,137,7.44,100272,108.61
UTC 221222 100919 5 9 ,336,53.32842255,5.933351517,9.13,0,0,0,253.13,253.13,0.01,413,1,90,305,195,137,7.38,100277,108.61
UTC 221222 100920 5 9 ,337,53.3284111,5.933279514,9.03,0,0,0,252.88,252.88,0.01,423,3,91,304,195,136,7.35,100276,108.61
UTC 221222 100921 5 9 ,338,53.32839584,5.933205605,8.93,0,0,0,253.03,253.03,0.01,416,2,91,305,196,137,7.32,100276,108.61
UTC 221222 100922 5 9 ,339,53.3283844,5.933135033,8.81,0,0,0,252.76,252.76,0.01,413,1,90,305,196,137,7.29,100281,108.61
UTC 221222 100923 5 9 ,340,53.32837296,5.9330616,8.7,0,0,0,253.15,253.15,0.01,409,1,91,305,195,136,7.26,100283,108.61
UTC 221222 100924 5 9 ,341,53.32836151,5.932989597,8.6,0,0,0,252.86,252.86,0.01,409,1,90,305,195,136,7.23,100285,108.61
UTC 221222 100925 5 9 ,342,53.32834625,5.932915688,8.49,0,0,0,253.11,253.11,0.01,413,1,90,305,195,136,7.2,100286,108.61
UTC 221222 100926 5 9 ,343,53.32833481,5.932843685,8.38,0,0,0,252.78,252.78,0.01,413,1,90,306,195,136,7.17,100285,108.61
UTC 221222 100927 5 9 ,344,53.32832336,5.932770729,8.27,0,0,0,252.94,252.94,0.01,405,0,90,304,194,136,7.14,100286,108.61
UTC 221222 100928 5 9 ,345,53.32830811,5.932699204,8.17,0,0,0,253.1,253.1,0.01,405,0,89,305,195,136,7.11,100291,108.61
UTC 221222 100929 5 9 ,346,53.32829666,5.932627201,8.07,0,0,0,253.06,253.06,0.01,405,0,89,305,194,136,7.09,100293,108.61
UTC 221222 100930 5 9 ,347,53.32828522,5.93255949,8.01,0,0,0,252.22,252.22,0.01,408,1,90,305,194,136,7.06,100291,108.61
UTC 221222 100931 5 9 ,348,53.32827759,5.93252039,7.93,0,0,0,255.04,255.04,0.01,413,1,89,306,194,136,7.03,100299,108.61
UTC 221222 100932 5 9 ,349,53.32828522,5.932506084,7.83,0,0,0,318.05,318.05,0.01,409,1,89,305,194,136,7.04,100309,100.22
UTC 221222 100933 5 9 ,350,53.32830048,5.932507992,7.83,0,0,0,4.78,4.78,0.01,413,1,90,304,194,137,7.12,100325,100.22
UTC 221222 100934 5 9 ,351,53.32831192,5.932528973,7.88,0,0,0,70.26,70.26,0.01,418,2,90,306,194,137,7.17,100337,100.22
UTC 221222 100935 5 9 ,352,53.32831573,5.932558537,7.93,0,0,0,73.32,73.32,0.01,427,4,91,306,194,137,7.21,100336,100.22
UTC 221222 100936 5 9 ,353,53.32832336,5.932606697,8.01,0,0,0,73.91,73.91,0.01,443,6,91,306,194,137,7.24,100336,100.22
UTC 221222 100937 5 9 ,354,53.32833099,5.932663918,8.09,0,0,0,73.58,73.58,0.01,433,5,91,306,194,136,7.28,100336,100.22
UTC 221222 100937 5 9 ,355,53.32834244,5.932727814,8.19,0,0,0,73.63,73.63,0.01,436,5,90,306,194,137,7.35,100334,100.22
UTC 221222 100937 5 9 ,356,53.32835388,5.932799816,8.3,0,0,0,73.49,73.49,0.01,439,5,90,306,193,137,7.39,100328,100.22
UTC 221222 100937 5 9 ,357,53.32836914,5.93287611,8.42,0,0,0,73.77,73.77,0.01,443,6,90,306,194,137,7.43,100328,100.22
UTC 221222 100941 5 9 ,358,53.32838058,5.93295002,8.53,0,0,0,73.61,73.61,0.01,456,8,90,305,193,137,7.46,100327,100.22
UTC 221222 100942 5 9 ,359,53.32839203,5.933021545,8.64,0,0,0,73.64,73.64,0.01,448,7,90,306,193,138,7.48,100325,100.22
UTC 221222 100943 5 9 ,360,53.32840729,5.933094025,8.76,0,0,0,73.82,73.82,0.01,446,7,91,306,193,137,7.5,100326,100.22
UTC 221222 100944 5 9 ,361,53.32841873,5.933166504,8.88,0,0,0,73.81,73.81,0.01,446,7,90,306,193,137,7.5,100322,100.22
UTC 221222 100945 5 9 ,362,53.32843018,5.933240891,8.99,0,0,0,73.73,73.73,0.01,446,7,90,305,193,137,7.51,100324,100.22
UTC 221222 100946 5 9 ,363,53.32844543,5.933312893,9.1,0,0,0,73.65,73.65,0.01,456,8,90,306,193,137,7.55,100320,100.22
UTC 221222 100947 5 9 ,364,53.32845688,5.93338728,9.21,0,0,0,73.8,73.8,0.01,456,8,90,305,193,137,7.57,100315,100.22
UTC 221222 100948 5 9 ,365,53.32846832,5.933459759,9.31,0,0,0,73.97,73.97,0.01,448,7,89,306,193,137,7.6,100317,100.22
UTC 221222 100949 5 9 ,366,53.32848358,5.933532238,9.43,0,0,0,73.57,73.57,0.01,452,7,90,305,192,137,7.63,100315,100.22
UTC 221222 100950 5 9 ,367,53.32849503,5.933603764,9.53,0,0,0,73.67,73.67,0.01,452,7,89,306,192,137,7.66,100315,100.22
UTC 221222 100951 5 9 ,368,53.32850647,5.93367672,9.65,0,0,0,74.17,74.17,0.01,456,8,89,305,193,137,7.68,100314,100.22
UTC 221222 100952 5 9 ,369,53.32852173,5.933749676,9.76,0,0,0,73.81,73.81,0.01,463,9,90,305,193,137,7.71,100309,100.22
UTC 221222 100953 5 9 ,370,53.32853317,5.933821201,9.86,0,0,0,73.51,73.51,0.01,452,7,90,306,192,137,7.73,100313,100.22
UTC 221222 100954 5 9 ,371,53.32854462,5.933893681,9.97,0,0,0,74.16,74.16,0.01,456,8,89,306,192,137,7.78,100312,100.22
UTC 221222 100954 5 9 ,372,53.32855225,5.933945179,10.03,0,0,0,74.49,74.49,0.01,456,8,90,305,191,137,7.8,100312,100.22
UTC 221222 100956 5 9 ,373,53.32855988,5.933959961,10.09,0,0,0,31.2,31.2,0.01,452,7,88,304,191,137,7.84,100291,108.61
UTC 221222 100956 5 9 ,374,53.32857132,5.933947563,10.14,0,0,0,338.49,338.49,0.01,459,8,89,305,191,137,7.85,100285,108.61
UTC 221222 100956 5 9 ,375,53.32857513,5.933918476,10.14,0,0,0,269.01,269.01,0.01,443,6,89,305,192,137,7.84,100276,108.61
UTC 221222 100959 5 9 ,376,53.32857132,5.933888912,10.1,0,0,0,253.2,253.2,0.01,436,5,89,305,192,137,7.76,100280,108.61
UTC 221222 101000 5 9 ,377,53.32856369,5.933844566,10.03,0,0,0,252.8,252.8,0.01,436,5,89,306,192,137,7.71,100278,108.61
UTC 221222 101001 5 9 ,378,53.32855606,5.933789253,9.93,0,0,0,252.89,252.89,0.01,427,4,89,305,191,137,7.67,100274,108.61
UTC 221222 101002 5 9 ,379,53.32854462,5.933723927,9.8,0,0,0,253.03,253.03,0.01,436,5,88,304,191,137,7.62,100273,108.61
UTC 221222 101003 5 9 ,380,53.32853317,5.933654308,9.69,0,0,0,253.15,253.15,0.01,418,2,88,304,191,136,7.56,100270,108.61
UTC 221222 101004 5 9 ,381,53.32851791,5.933578014,9.59,0,0,0,252.65,252.65,0.01,416,2,88,303,190,136,7.51,100273,108.61
UTC 221222 101005 5 9 ,382,53.32850647,5.933504582,9.48,0,0,0,252.53,252.53,0.01,416,2,88,305,190,135,7.47,100274,108.61
UTC 221222 101006 5 9 ,383,53.32849121,5.933430672,9.36,0,0,0,252.82,252.82,0.01,413,1,88,305,190,136,7.43,100280,108.61
UTC 221222 101007 5 9 ,384,53.32847977,5.933355331,9.25,0,0,0,252.59,252.59,0.01,413,1,88,304,190,136,7.39,100272,108.61
UTC 221222 101008 5 9 ,385,53.32846832,5.933282375,9.11,0,0,0,252.92,252.92,0.01,416,2,88,306,190,135,7.35,100281,108.61
UTC 221222 101009 5 9 ,386,53.32845306,5.933208942,9.01,0,0,0,252.76,252.76,0.01,416,2,87,306,190,136,7.31,100289,108.61
UTC 221222 101010 5 9 ,387,53.32844162,5.933135986,8.92,0,0,0,253.03,253.03,0.01,423,3,87,305,189,136,7.26,100283,108.61
UTC 221222 101011 5 9 ,388,53.32843018,5.933063507,8.79,0,0,0,252.85,252.85,0.01,408,1,87,305,189,135,7.24,100285,108.61
UTC 221222 101012 5 9 ,389,53.32841492,5.932991505,8.68,0,0,0,252.89,252.89,0.01,408,1,88,305,188,136,7.21,100282,108.61
UTC 221222 101013 5 9 ,390,53.32840347,5.932920933,8.54,0,0,0,253.11,253.11,0.01,408,1,87,305,188,136,7.18,100285,108.61
UTC 221222 101014 5 9 ,391,53.32839203,5.932849407,8.43,0,0,0,253.02,253.02,0.01,409,1,86,305,189,136,7.15,100292,108.61
UTC 221222 101015 5 9 ,392,53.32837677,5.932776928,8.33,0,0,0,252.81,252.81,0.01,423,3,86,306,188,136,7.13,100289,108.61
UTC 221222 101016 5 9 ,393,53.32836533,5.932703972,8.21,0,0,0,252.75,252.75,0.01,408,1,86,306,188,136,7.11,100294,108.61
UTC 221222 101017 5 9 ,394,53.32835388,5.932631016,8.08,0,0,0,253.01,253.01,0.01,408,1,86,305,188,136,7.09,100295,108.61
UTC 221222 101018 5 9 ,395,53.32834244,5.93255949,7.97,0,0,0,252.58,252.58,0.01,405,0,86,306,188,136,7.07,100291,108.61
UTC 221222 101019 5 9 ,396,53.32833099,5.932503223,7.92,0,0,0,252.34,252.34,0.01,405,0,86,305,188,136,7.04,100304,100.22
UTC 221222 101020 5 9 ,397,53.32832718,5.932477474,7.84,0,0,0,273.4,273.4,0.01,416,2,86,306,188,137,7.04,100309,100.22
UTC 221222 101021 5 9 ,398,53.32834244,5.932471275,7.76,0,0,0,336.91,336.91,0.01,418,2,86,306,188,136,7.08,100319,100.22
UTC 221222 101022 5 9 ,399,53.3283577,5.932482719,7.78,0,0,0,37.22,37.22,0.01,416,2,87,306,188,137,7.13,100326,100.22
UTC 221222 101022 5 9 ,400,53.32836533,5.932509422,7.84,0,0,0,73.41,73.41,0.01,427,4,86,306,188,137,7.19,100337,100.22
UTC 221222 101024 5 9 ,401,53.32836914,5.932547092,7.91,0,0,0,73.46,73.46,0.01,427,4,86,307,188,136,7.23,100338,100.22
UTC 221222 101025 5 9 ,402,53.32837677,5.932599545,8,0,0,0,73.46,73.46,0.01,439,5,87,306,188,136,7.25,100335,100.22
UTC 221222 101026 5 9 ,403,53.32838821,5.932661057,8.1,0,0,0,73.74,73.74,0.01,443,6,87,306,188,137,7.32,100333,100.22
UTC 221222 101027 5 9 ,404,53.32839966,5.932727814,8.22,0,0,0,73.75,73.75,0.01,443,6,87,306,188,137,7.37,100335,100.22
UTC 221222 101028 5 9 ,405,53.3284111,5.932800293,8.36,0,0,0,73.72,73.72,0.01,443,6,87,306,188,137,7.38,100329,100.22
UTC 221222 101029 5 9 ,406,53.32842255,5.93287468,8.49,0,0,0,73.76,73.76,0.01,443,6,87,306,188,137,7.38,100330,100.22
UTC 221222 101030 5 9 ,407,53.32843781,5.932947636,8.62,0,0,0,73.63,73.63,0.01,446,7,88,307,188,138,7.39,100325,100.22
UTC 221222 101031 5 9 ,408,53.32844925,5.933020115,8.73,0,0,0,73.38,73.38,0.01,459,8,88,306,188,137,7.41,100322,100.22
UTC 221222 101032 5 9 ,409,53.32846069,5.933094025,8.85,0,0,0,73.92,73.92,0.01,448,7,87,306,187,137,7.44,100325,100.22
UTC 221222 101033 5 9 ,410,53.32847595,5.933167458,8.97,0,0,0,73.89,73.89,0.01,448,7,87,305,187,137,7.49,100328,100.22
UTC 221222 101034 5 9 ,411,53.3284874,5.933240414,9.09,0,0,0,73.99,73.99,0.01,448,7,87,305,187,137,7.54,100327,100.22
UTC 221222 101035 5 9 ,412,53.32849884,5.933311939,9.22,0,0,0,74.09,74.09,0.01,452,7,87,306,187,137,7.59,100319,100.22
UTC 221222 101035 5 9 ,413,53.3285141,5.933383942,9.34,0,0,0,73.41,73.41,0.01,466,10,86,305,187,137,7.63,100319,100.22
UTC 221222 101035 5 9 ,414,53.32852554,5.933457851,9.45,0,0,0,73.81,73.81,0.01,452,7,86,306,187,137,7.67,100320,100.22
UTC 221222 101038 5 9 ,415,53.32853699,5.933530808,9.58,0,0,0,73.93,73.93,0.01,452,7,86,305,187,137,7.71,100316,100.22
UTC 221222 101039 5 9 ,416,53.32854843,5.933600903,9.72,0,0,0,73.83,73.83,0.01,456,8,86,305,186,137,7.75,100315,100.22
UTC 221222 101040 5 9 ,417,53.32856369,5.933673382,9.82,0,0,0,73.98,73.98,0.01,452,7,86,306,187,137,7.78,100316,100.22
UTC 221222 101041 5 9 ,418,53.32857513,5.933744907,9.93,0,0,0,73.45,73.45,0.01,463,9,86,306,186,137,7.81,100311,100.22
UTC 221222 101042 5 9 ,419,53.32858658,5.93381834,10.06,0,0,0,73.8,73.8,0.01,459,8,86,305,186,137,7.84,100308,100.22
UTC 221222 101043 5 9 ,420,53.32859802,5.933886528,10.17,0,0,0,74.3,74.3,0.01,456,8,86,305,186,137,7.87,100310,100.22
UTC 221222 101044 5 9 ,421,53.32860565,5.933923721,10.21,0,0,0,69.72,69.72,0.01,459,8,86,305,186,136,7.9,100308,100.22
UTC 221222 101045 5 9 ,422,53.3286171,5.933926106,10.25,0,0,0,1.88,1.88,0.01,446,7,86,306,186,137,7.91,100286,108.61
UTC 221222 101046 5 9 ,423,53.32862473,5.933909416,10.26,0,0,0,317.19,317.19,0.01,452,7,85,306,186,137,7.92,100276,108.61
UTC 221222 101047 5 9 ,424,53.32862854,5.933880806,10.24,0,0,0,256.07,256.07,0.01,446,7,85,306,185,137,7.9,100275,108.61
UTC 221222 101048 5 9 ,425,53.32862091,5.933850288,10.18,0,0,0,253,253,0.01,436,5,85,305,186,137,7.82,100277,108.61
UTC 221222 101049 5 9 ,426,53.32861328,5.933803558,10.1,0,0,0,252.94,252.94,0.01,427,4,85,305,185,137,7.78,100272,108.61
UTC 221222 101050 5 9 ,427,53.32860565,5.933747292,9.99,0,0,0,253.07,253.07,0.01,423,3,85,305,184,136,7.72,100270,108.61
UTC 221222 101051 5 9 ,428,53.32859421,5.933683395,9.89,0,0,0,252.92,252.92,0.01,426,3,84,305,185,136,7.68,100267,108.61
UTC 221222 101051 5 9 ,429,53.32858276,5.933613777,9.78,0,0,0,253.1,253.1,0.01,423,3,84,305,184,136,7.62,100266,108.61
UTC 221222 101051 5 9 ,430,53.3285675,5.933537483,9.66,0,0,0,253.05,253.05,0.01,408,1,84,305,184,135,7.56,100265,108.61
UTC 221222 101054 5 9 ,431,53.32855606,5.93346405,9.55,0,0,0,252.66,252.66,0.01,408,1,83,305,184,136,7.49,100268,108.61
UTC 221222 101054 5 9 ,432,53.3285408,5.933390617,9.44,0,0,0,252.52,252.52,0.01,405,0,83,305,184,136,7.45,100277,108.61
UTC 221222 101054 5 9 ,433,53.32852936,5.933316708,9.3,0,0,0,252.94,252.94,0.01,408,1,83,305,184,135,7.4,100275,108.61
UTC 221222 101057 5 9 ,434,53.32851791,5.933244228,9.17,0,0,0,252.72,252.72,0.01,413,1,83,306,183,135,7.36,100277,108.61
UTC 221222 101058 5 9 ,435,53.32850266,5.933172703,9.04,0,0,0,252.89,252.89,0.01,405,0,83,305,183,135,7.33,100281,108.61
UTC 221222 101059 5 9 ,436,53.32849121,5.933100224,8.91,0,0,0,253,253,0.01,400,0,82,306,183,136,7.28,100283,108.61
UTC 221222 101100 5 9 ,437,53.32847977,5.933028221,8.79,0,0,0,253.07,253.07,0.01,402,0,82,306,183,135,7.25,100282,108.61
UTC 221222 101101 5 9 ,438,53.32846451,5.932955742,8.66,0,0,0,252.79,252.79,0.01,406,0,83,306,184,135,7.21,100285,108.61
UTC 221222 101102 5 9 ,439,53.32845306,5.932882786,8.54,0,0,0,252.88,252.88,0.01,415,2,83,307,183,135,7.19,100290,108.61
UTC 221222 101103 5 9 ,440,53.32844162,5.932810307,8.4,0,0,0,252.84,252.84,0.01,406,0,83,307,182,135,7.16,100288,108.61
UTC 221222 101104 5 9 ,441,53.32842636,5.932738304,8.27,0,0,0,252.85,252.85,0.01,403,0,82,306,183,136,7.13,100289,108.61
UTC 221222 101105 5 9 ,442,53.32841492,5.932666779,8.14,0,0,0,252.87,252.87,0.01,403,0,83,306,182,135,7.11,100292,108.61
UTC 221222 101106 5 9 ,443,53.32840347,5.932595253,8,0,0,0,253.04,253.04,0.01,403,0,82,306,182,135,7.08,100288,108.61
UTC 221222 101107 5 9 ,444,53.32839203,5.932524204,7.9,0,0,0,252.56,252.56,0.01,414,2,83,306,182,135,7.06,100297,108.61
UTC 221222 101108 5 9 ,445,53.32838058,5.932470799,7.83,0,0,0,252.19,252.19,0.01,410,1,82,307,182,136,7.04,100301,100.22
UTC 221222 101109 5 9 ,446,53.32838058,5.932449818,7.74,0,0,0,284.59,284.59,0.01,406,0,82,306,182,135,7.02,100312,100.22
UTC 221222 101110 5 9 ,447,53.32839584,5.932444572,7.68,0,0,0,340.6,340.6,0.01,414,2,82,306,182,136,7.07,100323,100.22
UTC 221222 101110 5 9 ,448,53.3284111,5.93245697,7.73,0,0,0,48.72,48.72,0.01,418,2,83,307,182,135,7.14,100335,100.22
UTC 221222 101110 5 9 ,449,53.32841492,5.932482243,7.8,0,0,0,73.37,73.37,0.01,434,5,83,306,183,136,7.19,100339,100.22
UTC 221222 101113 5 9 ,450,53.32842255,5.93252182,7.87,0,0,0,73.56,73.56,0.01,443,6,83,307,182,136,7.23,100337,100.22
UTC 221222 101114 5 9 ,451,53.32843018,5.932574272,7.96,0,0,0,73.54,73.54,0.01,439,5,82,307,182,136,7.26,100337,100.22
UTC 221222 101115 5 9 ,452,53.32843781,5.932634831,8.06,0,0,0,73.85,73.85,0.01,439,5,83,306,182,137,7.31,100335,100.22
UTC 221222 101116 5 9 ,453,53.32844925,5.932700634,8.19,0,0,0,73.94,73.94,0.01,445,6,83,307,182,137,7.36,100333,100.22
UTC 221222 101117 5 9 ,454,53.32846069,5.932770729,8.32,0,0,0,73.75,73.75,0.01,448,7,82,306,182,137,7.39,100331,100.22
UTC 221222 101118 5 9 ,455,53.32847595,5.932846069,8.45,0,0,0,73.76,73.76,0.01,459,8,83,306,182,137,7.41,100328,100.22
UTC 221222 101119 5 9 ,456,53.3284874,5.932920933,8.57,0,0,0,73.77,73.77,0.01,452,7,83,307,182,137,7.43,100330,100.22
UTC 221222 101120 5 9 ,457,53.32850266,5.932994366,8.69,0,0,0,74.06,74.06,0.01,455,8,84,306,182,137,7.46,100328,100.22
UTC 221222 101121 5 9 ,458,53.3285141,5.933066368,8.82,0,0,0,73.74,73.74,0.01,455,8,84,307,182,137,7.49,100324,100.22
UTC 221222 101122 5 9 ,459,53.32852554,5.933139801,8.95,0,0,0,73.93,73.93,0.01,459,8,84,307,182,137,7.54,100326,100.22
UTC 221222 101123 5 9 ,460,53.32853699,5.933211803,9.08,0,0,0,73.61,73.61,0.01,472,10,84,307,181,137,7.55,100323,100.22
UTC 221222 101124 5 9 ,461,53.32855225,5.933283806,9.21,0,0,0,73.57,73.57,0.01,455,8,84,306,181,137,7.58,100316,100.22
UTC 221222 101125 5 9 ,462,53.32856369,5.933355808,9.33,0,0,0,73.56,73.56,0.01,455,8,83,306,181,137,7.59,100319,100.22
UTC 221222 101126 5 9 ,463,53.32857513,5.933428764,9.47,0,0,0,73.62,73.62,0.01,462,9,83,306,181,137,7.6,100314,100.22
UTC 221222 101127 5 9 ,464,53.32859039,5.933501244,9.58,0,0,0,73.5,73.5,0.01,459,8,83,307,181,137,7.62,100315,100.22
UTC 221222 101127 5 9 ,465,53.32860184,5.9335742,9.7,0,0,0,73.73,73.73,0.01,462,9,83,306,181,137,7.67,100315,100.22
UTC 221222 101127 5 9 ,466,53.32861328,5.933644772,9.83,0,0,0,73.82,73.82,0.01,462,9,83,306,181,137,7.71,100315,100.22
UTC 221222 101130 5 9 ,467,53.32862854,5.933717251,9.96,0,0,0,73.61,73.61,0.01,464,9,83,306,181,136,7.73,100313,100.22
UTC 221222 101131 5 9 ,468,53.32863998,5.933790207,10.09,0,0,0,73.79,73.79,0.01,476,11,82,306,181,137,7.75,100310,100.22
UTC 221222 101132 5 9 ,469,53.32865143,5.93385601,10.2,0,0,0,74.45,74.45,0.01,462,9,83,306,181,137,7.75,100311,100.22
UTC 221222 101133 5 9 ,470,53.32865906,5.933893681,10.22,0,0,0,71.05,71.05,0.01,462,9,82,306,180,137,7.78,100308,100.22
UTC 221222 101134 5 9 ,471,53.32866669,5.933897495,10.24,0,0,0,4.65,4.65,0.01,455,8,83,306,180,137,7.81,100288,108.61
UTC 221222 101135 5 9 ,472,53.32867813,5.933882237,10.24,0,0,0,319.99,319.99,0.01,459,8,83,306,180,137,7.83,100280,108.61
UTC 221222 101136 5 9 ,473,53.32867813,5.933853626,10.2,0,0,0,256.34,256.34,0.01,459,8,83,306,180,137,7.82,100281,108.61
UTC 221222 101137 5 9 ,474,53.32867432,5.933822632,10.14,0,0,0,253.14,253.14,0.01,443,6,83,306,180,137,7.75,100275,108.61
UTC 221222 101138 5 9 ,475,53.32866669,5.933775425,10.07,0,0,0,253.15,253.15,0.01,443,6,83,305,180,136,7.71,100273,108.61
UTC 221222 101139 5 9 ,476,53.32865524,5.933718205,9.96,0,0,0,253.01,253.01,0.01,435,5,82,305,180,136,7.67,100270,108.61
UTC 221222 101140 5 9 ,477,53.3286438,5.933653355,9.87,0,0,0,252.8,252.8,0.01,428,4,82,306,180,136,7.62,100270,108.61
UTC 221222 101141 5 9 ,478,53.32863235,5.933582783,9.74,0,0,0,252.95,252.95,0.01,435,5,82,305,179,136,7.56,100267,108.61
UTC 221222 101142 5 9 ,479,53.3286171,5.933507919,9.61,0,0,0,252.63,252.63,0.01,418,2,82,305,179,136,7.51,100271,108.61
UTC 221222 101143 5 9 ,480,53.32860565,5.93343401,9.48,0,0,0,252.8,252.8,0.01,414,2,81,305,179,135,7.47,100271,108.61
UTC 221222 101144 5 9 ,481,53.32859421,5.933361054,9.34,0,0,0,252.88,252.88,0.01,415,2,81,306,178,136,7.43,100277,108.61
UTC 221222 101145 5 9 ,482,53.32857895,5.933287621,9.23,0,0,0,252.76,252.76,0.01,414,2,81,305,178,135,7.38,100275,108.61
UTC 221222 101146 5 9 ,483,53.3285675,5.933213711,9.12,0,0,0,252.66,252.66,0.01,422,3,81,305,178,135,7.34,100279,108.61
UTC 221222 101147 5 9 ,484,53.32855606,5.933140278,9.01,0,0,0,252.87,252.87,0.01,415,2,81,306,179,136,7.31,100281,108.61
UTC 221222 101148 5 9 ,485,53.3285408,5.933069706,8.86,0,0,0,252.8,252.8,0.01,410,1,81,305,179,136,7.27,100281,108.61
UTC 221222 101149 5 9 ,486,53.32852936,5.932998657,8.72,0,0,0,252.91,252.91,0.01,410,1,81,305,179,136,7.25,100290,108.61
UTC 221222 101150 5 9 ,487,53.32851791,5.932926178,8.61,0,0,0,252.96,252.96,0.01,410,1,80,306,178,135,7.22,100287,108.61
UTC 221222 101150 5 9 ,488,53.32850647,5.932855129,8.48,0,0,0,253.14,253.14,0.01,414,2,81,306,178,135,7.19,100283,108.61
UTC 221222 101150 5 9 ,489,53.32849121,5.932783127,8.37,0,0,0,252.94,252.94,0.01,414,2,81,306,178,135,7.16,100287,108.61
UTC 221222 101150 5 9 ,490,53.32847977,5.93270874,8.23,0,0,0,252.91,252.91,0.01,406,0,80,306,178,134,7.13,100288,108.61
UTC 221222 101150 5 9 ,491,53.32846832,5.932635784,8.09,0,0,0,252.86,252.86,0.01,406,0,80,307,177,135,7.11,100290,108.61
UTC 221222 101155 5 9 ,492,53.32845306,5.932566166,7.96,0,0,0,252.97,252.97,0.01,406,0,80,306,177,135,7.08,100287,108.61
UTC 221222 101156 5 9 ,493,53.32844162,5.932493687,7.84,0,0,0,252.75,252.75,0.01,410,1,80,306,177,135,7.06,100293,108.61
UTC 221222 101157 5 9 ,494,53.32843399,5.93243885,7.77,0,0,0,252.09,252.09,0.01,415,2,80,306,177,134,7.03,100296,108.61
UTC 221222 101158 5 9 ,495,53.32843399,5.932418346,7.7,0,0,0,285.63,285.63,0.01,406,0,80,306,177,135,7.01,100306,100.22
