TimeStamp (UTC)," ""TriggerID"""," ""Latitude"""," ""Longitude"""," ""Altitude (Meter AGL)""",Gimbal Roll," ""Gimbal Pitch"""," ""Gimbal Yaw"""," ""Drone Yaw"""," ""Combined Yaw""",HCHO (ppm),CO2 (ppm),TVOC (ppb),NO2 (ppm),C2H5OH (ppm),VOC (ppm),CO (ppm),Temp (Celcius),Pressure (pa),Altitude (meter)
UTC 221222 111559 5 9 ,1,53.32782364,5.934479237,0.18,0,0,0,73.68,73.68,0.01,645,37,32,309,65,129,12.3,100430,91.83
UTC 221222 111603 5 9 ,2,53.32782364,5.934477806,0.79,0,0,0,73.57,73.57,0.01,634,35,32,310,64,130,12.25,100425,91.83
UTC 221222 111604 5 9 ,3,53.32782364,5.934477329,1.13,0,0,0,73.09,73.09,0.01,629,34,32,310,65,129,12.22,100419,91.83
UTC 221222 111605 5 9 ,4,53.32782364,5.934478283,2.88,0,0,0,74.18,74.18,0.01,634,35,33,309,65,130,12.19,100400,91.83
UTC 221222 111606 5 9 ,5,53.32782364,5.934479713,6.03,0,0,0,74.44,74.44,0.01,605,31,32,306,64,128,12.15,100369,100.22
UTC 221222 111607 5 9 ,6,53.32782745,5.934483528,9.2,0,0,0,73.41,73.41,0.01,596,29,31,308,64,129,12.06,100322,100.22
UTC 221222 111608 5 9 ,7,53.32782745,5.934485436,12.26,0,0,0,73.54,73.54,0.01,588,28,32,308,64,126,11.98,100281,108.61
UTC 221222 111609 5 9 ,8,53.32782745,5.934485912,15.29,0,0,0,73.76,73.76,0.01,581,27,31,307,64,128,11.9,100250,108.61
UTC 221222 111610 5 9 ,9,53.32782745,5.934484482,18.25,0,0,0,73.65,73.65,0.01,581,27,31,307,64,125,11.82,100213,108.61
UTC 221222 111611 5 9 ,10,53.32782745,5.934483528,21.26,0,0,0,73.57,73.57,0.01,567,25,30,308,64,127,11.76,100177,117.01
UTC 221222 111612 5 9 ,11,53.32782745,5.934483051,24.31,0,0,0,73.66,73.66,0.01,552,23,30,307,62,126,11.67,100146,117.01
UTC 221222 111613 5 9 ,12,53.32782745,5.934483051,27.31,0,0,0,73.79,73.79,0.01,543,21,30,308,63,125,11.59,100109,117.01
UTC 221222 111613 5 9 ,13,53.32782364,5.934484005,28.86,0,0,0,73.77,73.77,0.01,537,20,30,301,64,127,11.5,100076,125.42
UTC 221222 111615 5 9 ,14,53.32782364,5.934484482,28.75,0,0,0,60.35,60.35,0.01,531,19,29,301,64,127,11.4,100060,125.42
UTC 221222 111616 5 9 ,15,53.32782745,5.934488773,28.64,0,0,0,60.49,60.49,0.01,519,18,29,305,63,126,11.31,100068,125.42
UTC 221222 111617 5 9 ,16,53.32783508,5.934518814,28.54,0,0,0,60.39,60.39,0.01,514,17,29,310,64,127,11.22,100082,125.42
UTC 221222 111617 5 9 ,17,53.32785034,5.93456316,28.48,0,0,0,60.67,60.67,0.01,503,15,29,308,63,126,11.16,100083,125.42
UTC 221222 111619 5 9 ,18,53.32786942,5.934617043,28.44,0,0,0,60.29,60.29,0.01,514,17,29,309,63,126,11.1,100083,125.42
UTC 221222 111620 5 9 ,19,53.3278923,5.934679508,28.42,0,0,0,60.55,60.55,0.01,524,18,29,309,63,126,11.09,100087,125.42
UTC 221222 111621 5 9 ,20,53.32791519,5.934747219,28.4,0,0,0,60.49,60.49,0.01,531,19,29,309,63,126,11.06,100091,125.42
UTC 221222 111622 5 9 ,21,53.32793808,5.934816361,28.39,0,0,0,60.48,60.48,0.01,524,18,29,309,64,127,11.02,100088,125.42
UTC 221222 111623 5 9 ,22,53.32796097,5.934882641,28.37,0,0,0,60.74,60.74,0.01,524,18,29,308,63,126,11,100091,125.42
UTC 221222 111624 5 9 ,23,53.32798386,5.934947491,28.36,0,0,0,60.36,60.36,0.01,524,18,29,309,63,126,10.96,100091,125.42
UTC 221222 111625 5 9 ,24,53.32800674,5.935011864,28.35,0,0,0,60.73,60.73,0.01,529,19,28,309,63,126,10.93,100095,125.42
UTC 221222 111625 5 9 ,25,53.32802963,5.935078621,28.34,0,0,0,60.47,60.47,0.01,542,21,29,309,63,126,10.91,100091,125.42
UTC 221222 111627 5 9 ,26,53.32804871,5.935142517,28.35,0,0,0,60.5,60.5,0.01,524,18,28,309,63,126,10.91,100089,125.42
UTC 221222 111628 5 9 ,27,53.32807159,5.935207844,28.35,0,0,0,60.56,60.56,0.01,524,18,28,309,63,126,10.91,100091,125.42
UTC 221222 111629 5 9 ,28,53.32809448,5.935274124,28.35,0,0,0,60.55,60.55,0.01,524,18,29,309,63,126,10.9,100089,125.42
UTC 221222 111630 5 9 ,29,53.32811737,5.935338497,28.35,0,0,0,60.41,60.41,0.01,518,17,29,308,64,125,10.88,100091,125.42
UTC 221222 111631 5 9 ,30,53.32814026,5.935404301,28.35,0,0,0,60.67,60.67,0.01,537,20,29,310,64,126,10.86,100095,125.42
UTC 221222 111632 5 9 ,31,53.32816315,5.93546772,28.33,0,0,0,60.43,60.43,0.01,519,18,28,309,63,125,10.84,100095,125.42
UTC 221222 111633 5 9 ,32,53.32818604,5.935533047,28.34,0,0,0,60.64,60.64,0.01,519,18,29,310,64,125,10.86,100098,125.42
UTC 221222 111634 5 9 ,33,53.32820511,5.935596943,28.33,0,0,0,60.84,60.84,0.01,529,19,28,309,63,126,10.9,100099,125.42
UTC 221222 111635 5 9 ,34,53.32822418,5.935647488,28.32,0,0,0,60.97,60.97,0.01,531,19,29,309,63,125,10.89,100097,125.42
UTC 221222 111636 5 9 ,35,53.328228,5.935659885,28.33,0,0,0,23.89,23.89,0.01,542,21,29,308,63,125,10.86,100071,125.42
UTC 221222 111637 5 9 ,36,53.32822418,5.93565464,28.35,0,0,0,293.66,293.66,0.01,524,18,28,309,62,125,10.89,100068,125.42
UTC 221222 111638 5 9 ,37,53.32822037,5.935650826,28.34,0,0,0,256.81,256.81,0.01,497,14,29,309,62,125,10.77,100061,125.42
UTC 221222 111638 5 9 ,38,53.32821655,5.935640812,28.33,0,0,0,256.26,256.26,0.01,492,14,28,308,63,125,10.65,100063,125.42
UTC 221222 111638 5 9 ,39,53.32821274,5.935611248,28.34,0,0,0,256.24,256.24,0.01,487,13,28,308,63,124,10.57,100055,125.42
UTC 221222 111641 5 9 ,40,53.32820892,5.935568333,28.32,0,0,0,256.36,256.36,0.01,485,12,28,309,63,124,10.45,100057,125.42
UTC 221222 111642 5 9 ,41,53.32820129,5.935514927,28.34,0,0,0,256.47,256.47,0.01,476,11,28,308,62,124,10.35,100051,125.42
UTC 221222 111642 5 9 ,42,53.32819366,5.9354496,28.34,0,0,0,256.65,256.65,0.01,460,9,28,309,63,124,10.23,100042,125.42
UTC 221222 111644 5 9 ,43,53.32818222,5.935378075,28.32,0,0,0,256.65,256.65,0.01,452,7,28,306,62,123,10.11,100040,125.42
UTC 221222 111644 5 9 ,44,53.32817459,5.935302258,28.37,0,0,0,256.74,256.74,0.01,441,6,28,309,62,122,9.99,100038,125.42
UTC 221222 111646 5 9 ,45,53.32816315,5.935226917,28.39,0,0,0,256.51,256.51,0.01,441,6,28,308,62,123,9.89,100050,125.42
UTC 221222 111647 5 9 ,46,53.32815552,5.935152531,28.38,0,0,0,256.55,256.55,0.01,448,7,28,306,62,122,9.81,100046,125.42
UTC 221222 111648 5 9 ,47,53.32814407,5.935076237,28.38,0,0,0,256.71,256.71,0.01,427,4,28,309,62,122,9.74,100036,125.42
UTC 221222 111649 5 9 ,48,53.32813263,5.935003281,28.39,0,0,0,256.72,256.72,0.01,423,3,28,310,62,123,9.64,100045,125.42
UTC 221222 111650 5 9 ,49,53.328125,5.934931755,28.41,0,0,0,256.66,256.66,0.01,417,2,27,310,62,123,9.57,100040,125.42
UTC 221222 111651 5 9 ,50,53.32811356,5.934857845,28.42,0,0,0,256.65,256.65,0.01,418,2,27,310,62,122,9.5,100045,125.42
UTC 221222 111652 5 9 ,51,53.32810593,5.934783459,28.42,0,0,0,256.85,256.85,0.01,423,3,28,309,62,122,9.43,100036,125.42
UTC 221222 111652 5 9 ,52,53.32809448,5.934710503,28.43,0,0,0,256.92,256.92,0.01,408,1,28,310,61,121,9.36,100033,125.42
UTC 221222 111654 5 9 ,53,53.32808685,5.934637547,28.41,0,0,0,256.95,256.95,0.01,406,0,28,310,62,122,9.31,100035,125.42
UTC 221222 111655 5 9 ,54,53.32807541,5.934566021,28.43,0,0,0,257.17,257.17,0.01,401,0,28,309,62,121,9.25,100037,125.42
UTC 221222 111656 5 9 ,55,53.32806778,5.934489727,28.45,0,0,0,256.43,256.43,0.01,401,0,27,309,61,122,9.2,100043,125.42
UTC 221222 111657 5 9 ,56,53.32805634,5.934415817,28.49,0,0,0,256.4,256.4,0.01,414,2,27,310,62,122,9.16,100047,125.42
UTC 221222 111658 5 9 ,57,53.32804489,5.934342384,28.49,0,0,0,256.4,256.4,0.01,408,1,27,310,61,122,9.11,100037,125.42
UTC 221222 111659 5 9 ,58,53.32803726,5.934268951,28.48,0,0,0,256.45,256.45,0.01,401,0,27,311,62,121,9.06,100041,125.42
UTC 221222 111700 5 9 ,59,53.32802582,5.934197426,28.49,0,0,0,256.58,256.58,0.01,401,0,27,311,61,121,9.03,100042,125.42
UTC 221222 111701 5 9 ,60,53.32801437,5.934122086,28.51,0,0,0,256.48,256.48,0.01,401,0,27,309,61,121,8.97,100046,125.42
UTC 221222 111702 5 9 ,61,53.32800674,5.934048653,28.47,0,0,0,256.66,256.66,0.01,406,0,27,312,61,121,8.94,100054,125.42
UTC 221222 111703 5 9 ,62,53.3279953,5.93397665,28.46,0,0,0,257.06,257.06,0.01,410,1,27,311,61,121,8.9,100043,125.42
UTC 221222 111704 5 9 ,63,53.32798767,5.933903694,28.48,0,0,0,256.7,256.7,0.01,401,0,28,310,60,120,8.87,100044,125.42
UTC 221222 111705 5 9 ,64,53.32797623,5.933830261,28.49,0,0,0,256.59,256.59,0.01,410,1,27,310,61,121,8.84,100045,125.42
UTC 221222 111706 5 9 ,65,53.3279686,5.933756828,28.52,0,0,0,256.56,256.56,0.01,400,0,27,312,61,119,8.8,100030,125.42
UTC 221222 111707 5 9 ,66,53.32795715,5.933685303,28.52,0,0,0,256.87,256.87,0.01,464,9,27,312,61,121,8.77,100043,125.42
UTC 221222 111708 5 9 ,67,53.32794952,5.933609486,28.54,0,0,0,256.43,256.43,0.01,454,8,26,311,61,122,8.74,100049,125.42
UTC 221222 111709 5 9 ,68,53.32793808,5.933535576,28.55,0,0,0,256.33,256.33,0,459,8,27,312,60,122,8.71,100048,125.42
UTC 221222 111710 5 9 ,69,53.32793045,5.93346262,28.53,0,0,0,256.82,256.82,0,470,10,27,311,61,121,8.69,100041,125.42
UTC 221222 111711 5 9 ,70,53.32791901,5.933387756,28.56,0,0,0,256.47,256.47,0,464,9,27,313,61,122,8.68,100047,125.42
UTC 221222 111712 5 9 ,71,53.32791138,5.933313847,28.56,0,0,0,256.61,256.61,0,459,8,27,313,61,122,8.67,100045,125.42
UTC 221222 111713 5 9 ,72,53.32789993,5.933240891,28.6,0,0,0,256.56,256.56,0,476,11,27,310,60,121,8.65,100036,125.42
UTC 221222 111714 5 9 ,73,53.3278923,5.933169842,28.61,0,0,0,256.77,256.77,0,454,8,27,311,61,122,8.63,100048,125.42
UTC 221222 111715 5 9 ,74,53.32788086,5.933095455,28.6,0,0,0,256.89,256.89,0,459,8,26,313,61,122,8.61,100038,125.42
UTC 221222 111716 5 9 ,75,53.32787323,5.933022976,28.62,0,0,0,256.69,256.69,0,464,9,27,310,61,121,8.6,100041,125.42
UTC 221222 111717 5 9 ,76,53.32786179,5.932950497,28.61,0,0,0,256.87,256.87,0,450,7,27,313,60,121,8.59,100036,125.42
UTC 221222 111718 5 9 ,77,53.32785034,5.932877541,28.61,0,0,0,257.2,257.2,0,454,8,27,314,61,122,8.57,100023,125.42
UTC 221222 111719 5 9 ,78,53.32784271,5.932803154,28.62,0,0,0,257,257,0,459,8,27,313,61,122,8.56,100037,125.42
UTC 221222 111720 5 9 ,79,53.32783127,5.932729244,28.64,0,0,0,256.72,256.72,0,445,6,27,313,61,121,8.55,100035,125.42
UTC 221222 111721 5 9 ,80,53.32782364,5.932654381,28.65,0,0,0,256.79,256.79,0,476,11,26,313,61,122,8.53,100032,125.42
UTC 221222 111722 5 9 ,81,53.32781219,5.932580948,28.67,0,0,0,256.85,256.85,0,450,7,27,314,61,121,8.53,100031,125.42
UTC 221222 111723 5 9 ,82,53.32780457,5.932507515,28.7,0,0,0,256.54,256.54,0,445,6,27,312,60,121,8.51,100041,125.42
UTC 221222 111724 5 9 ,83,53.32779312,5.932433128,28.75,0,0,0,256.36,256.36,0,439,5,26,314,61,121,8.51,100042,125.42
UTC 221222 111725 5 9 ,84,53.32778168,5.932359219,28.75,0,0,0,256.34,256.34,0,454,8,26,313,61,121,8.5,100042,125.42
UTC 221222 111726 5 9 ,85,53.32777405,5.932284355,28.74,0,0,0,256.5,256.5,0,459,8,27,313,60,121,8.5,100041,125.42
UTC 221222 111727 5 9 ,86,53.3277626,5.932211399,28.72,0,0,0,256.99,256.99,0,454,8,26,312,60,122,8.49,100038,125.42
UTC 221222 111728 5 9 ,87,53.32775116,5.93213892,28.71,0,0,0,256.69,256.69,0,459,8,26,313,60,122,8.48,100041,125.42
UTC 221222 111729 5 9 ,88,53.32774353,5.932066441,28.71,0,0,0,256.64,256.64,0,445,6,26,315,60,122,8.48,100038,125.42
UTC 221222 111730 5 9 ,89,53.32773209,5.931994438,28.71,0,0,0,257.2,257.2,0,445,6,26,314,60,121,8.46,100037,125.42
UTC 221222 111730 5 9 ,90,53.32772446,5.931919575,28.74,0,0,0,256.57,256.57,0,470,10,27,315,60,122,8.45,100044,125.42
UTC 221222 111732 5 9 ,91,53.32771301,5.931846619,28.75,0,0,0,256.4,256.4,0,464,9,26,315,61,122,8.45,100043,125.42
UTC 221222 111733 5 9 ,92,53.32770538,5.931771278,28.74,0,0,0,256.48,256.48,0,445,6,27,315,60,122,8.45,100037,125.42
UTC 221222 111734 5 9 ,93,53.32769394,5.93170023,28.75,0,0,0,256.77,256.77,0,459,8,27,314,59,120,8.43,100026,125.42
UTC 221222 111735 5 9 ,94,53.32768631,5.931628704,28.76,0,0,0,256.62,256.62,0,445,6,26,315,60,122,8.43,100037,125.42
UTC 221222 111736 5 9 ,95,53.32767487,5.931554794,28.75,0,0,0,256.86,256.86,0,454,8,26,315,60,123,8.42,100037,125.42
UTC 221222 111736 5 9 ,96,53.32766724,5.931482792,28.74,0,0,0,257.08,257.08,0,450,7,27,314,59,121,8.42,100027,125.42
UTC 221222 111738 5 9 ,97,53.32765579,5.93141222,28.74,0,0,0,257.18,257.18,0,435,5,26,313,60,122,8.41,100025,125.42
UTC 221222 111739 5 9 ,98,53.32764816,5.931336403,28.75,0,0,0,256.98,256.98,0,428,4,26,313,60,121,8.41,100024,125.42
UTC 221222 111740 5 9 ,99,53.32763672,5.931267262,28.81,0,0,0,257.5,257.5,0,445,6,26,314,60,121,8.4,100029,125.42
UTC 221222 111741 5 9 ,100,53.32764053,5.931199551,28.76,0,0,0,283.58,283.58,0,426,3,26,315,60,121,8.39,100029,125.42
UTC 221222 111742 5 9 ,101,53.32766342,5.931144714,28.69,0,0,0,320.9,320.9,0,454,8,26,314,60,122,8.39,100025,125.42
UTC 221222 111743 5 9 ,102,53.32770157,5.931120873,28.54,0,0,0,346.01,346.01,0,454,8,27,314,59,121,8.43,100046,125.42
UTC 221222 111744 5 9 ,103,53.32774353,5.931113243,28.43,0,0,0,354.47,354.47,0,454,8,27,314,60,122,8.51,100061,125.42
UTC 221222 111745 5 9 ,104,53.32778168,5.93113184,28.33,0,0,0,25.14,25.14,0,470,10,27,314,60,123,8.59,100071,125.42
UTC 221222 111746 5 9 ,105,53.32781219,5.931180954,28.28,0,0,0,57.02,57.02,0,476,11,26,314,60,122,8.68,100081,125.42
UTC 221222 111746 5 9 ,106,53.32782364,5.931243897,28.31,0,0,0,76.24,76.24,0,491,13,27,315,60,123,8.71,100084,125.42
UTC 221222 111748 5 9 ,107,53.32783127,5.931311131,28.32,0,0,0,77.42,77.42,0,496,14,27,315,59,123,8.75,100091,125.42
UTC 221222 111749 5 9 ,108,53.3278389,5.931382179,28.33,0,0,0,77.09,77.09,0,496,14,27,315,60,124,8.8,100098,125.42
UTC 221222 111750 5 9 ,109,53.32784653,5.931453705,28.33,0,0,0,77.03,77.03,0,498,14,27,315,60,123,8.86,100096,125.42
UTC 221222 111751 5 9 ,110,53.32785797,5.931529522,28.34,0,0,0,77.42,77.42,0,503,15,27,315,60,124,8.9,100095,125.42
UTC 221222 111752 5 9 ,111,53.3278656,5.931605339,28.36,0,0,0,77.37,77.37,0,519,18,27,315,60,123,8.94,100096,125.42
UTC 221222 111752 5 9 ,112,53.32787704,5.931678772,28.37,0,0,0,77.41,77.41,0,519,18,27,314,60,124,9,100094,125.42
UTC 221222 111754 5 9 ,113,53.32788467,5.931753159,28.37,0,0,0,77.63,77.63,0,517,17,27,314,60,124,9.05,100095,125.42
UTC 221222 111755 5 9 ,114,53.32789612,5.931826592,28.38,0,0,0,77.67,77.67,0,519,18,27,314,60,123,9.09,100094,125.42
UTC 221222 111756 5 9 ,115,53.32790375,5.931902409,28.39,0,0,0,77.78,77.78,0,519,18,27,314,60,123,9.15,100095,125.42
UTC 221222 111757 5 9 ,116,53.32791519,5.931974411,28.38,0,0,0,77.57,77.57,0,540,21,27,313,59,122,9.18,100095,125.42
UTC 221222 111758 5 9 ,117,53.32792282,5.932047367,28.39,0,0,0,77.58,77.58,0,549,22,27,314,60,123,9.19,100094,125.42
UTC 221222 111759 5 9 ,118,53.32793427,5.932122231,28.4,0,0,0,77.33,77.33,0,543,21,26,313,60,123,9.22,100096,125.42
UTC 221222 111800 5 9 ,119,53.32794189,5.932193279,28.4,0,0,0,77.2,77.2,0,540,21,26,313,60,122,9.24,100097,125.42
UTC 221222 111801 5 9 ,120,53.32795334,5.932267189,28.41,0,0,0,77.41,77.41,0,549,22,27,313,60,123,9.29,100099,125.42
UTC 221222 111802 5 9 ,121,53.32796097,5.932340145,28.41,0,0,0,77.63,77.63,0,543,21,27,313,60,123,9.31,100097,125.42
UTC 221222 111803 5 9 ,122,53.32797241,5.932414055,28.41,0,0,0,77.66,77.66,0,569,25,27,313,60,123,9.34,100092,125.42
UTC 221222 111804 5 9 ,123,53.32798386,5.932488918,28.41,0,0,0,77.28,77.28,0,549,22,27,313,60,123,9.38,100094,125.42
UTC 221222 111805 5 9 ,124,53.32799149,5.932561874,28.41,0,0,0,77.55,77.55,0,549,22,27,313,59,123,9.42,100097,125.42
UTC 221222 111806 5 9 ,125,53.32800293,5.932635784,28.41,0,0,0,77.32,77.32,0,543,21,27,313,60,123,9.46,100093,125.42
UTC 221222 111807 5 9 ,126,53.32801056,5.932706356,28.42,0,0,0,77.45,77.45,0.01,549,22,27,314,60,124,9.5,100095,125.42
UTC 221222 111808 5 9 ,127,53.328022,5.932781696,28.43,0,0,0,76.63,76.63,0.01,569,25,27,314,60,124,9.54,100096,125.42
UTC 221222 111809 5 9 ,128,53.32803345,5.932855606,28.44,0,0,0,76.66,76.66,0.01,569,25,27,315,60,124,9.58,100096,125.42
UTC 221222 111810 5 9 ,129,53.32804108,5.932929039,28.43,0,0,0,76.85,76.85,0.01,569,25,27,315,59,124,9.61,100097,125.42
UTC 221222 111811 5 9 ,130,53.32805252,5.933001995,28.43,0,0,0,77.94,77.94,0.01,566,25,27,315,60,124,9.64,100095,125.42
UTC 221222 111812 5 9 ,131,53.32806015,5.933075428,28.43,0,0,0,77.87,77.87,0.01,569,25,27,314,60,125,9.68,100099,125.42
UTC 221222 111813 5 9 ,132,53.32807159,5.933148384,28.44,0,0,0,77.7,77.7,0.01,581,27,28,315,60,124,9.72,100095,125.42
UTC 221222 111814 5 9 ,133,53.32807922,5.933222294,28.45,0,0,0,77.75,77.75,0.01,575,26,27,315,59,125,9.75,100093,125.42
UTC 221222 111815 5 9 ,134,53.32809067,5.933293819,28.46,0,0,0,78.16,78.16,0.01,581,27,28,314,60,126,9.81,100095,125.42
UTC 221222 111816 5 9 ,135,53.3280983,5.93336916,28.46,0,0,0,78.03,78.03,0.01,596,29,27,315,60,126,9.83,100096,125.42
UTC 221222 111816 5 9 ,136,53.32810974,5.933442116,28.46,0,0,0,76.68,76.68,0.01,596,29,27,315,60,126,9.85,100096,125.42
UTC 221222 111818 5 9 ,137,53.32811737,5.933516979,28.46,0,0,0,76.47,76.47,0.01,596,29,28,315,60,125,9.88,100092,125.42
UTC 221222 111819 5 9 ,138,53.32812881,5.933591843,28.47,0,0,0,77.38,77.38,0.01,596,29,27,314,60,125,9.89,100097,125.42
UTC 221222 111820 5 9 ,139,53.32814026,5.933666229,28.47,0,0,0,77.73,77.73,0.01,602,30,27,314,60,125,9.91,100092,125.42
UTC 221222 111820 5 9 ,140,53.32814789,5.933738232,28.47,0,0,0,77.59,77.59,0.01,620,33,28,314,60,125,9.92,100096,125.42
UTC 221222 111822 5 9 ,141,53.32815933,5.933811188,28.48,0,0,0,77.52,77.52,0.01,602,30,27,313,60,125,9.93,100096,125.42
UTC 221222 111823 5 9 ,142,53.32817078,5.933886051,28.48,0,0,0,77.31,77.31,0.01,596,29,27,313,60,125,9.95,100097,125.42
UTC 221222 111823 5 9 ,143,53.32817841,5.933959484,28.48,0,0,0,77.31,77.31,0.01,596,29,28,314,60,125,9.96,100098,125.42
UTC 221222 111825 5 9 ,144,53.32818985,5.934031963,28.48,0,0,0,77.31,77.31,0.01,602,30,28,314,60,125,10,100094,125.42
UTC 221222 111825 5 9 ,145,53.32819748,5.93410635,28.48,0,0,0,77.32,77.32,0.01,611,32,28,314,60,125,10.02,100096,125.42
UTC 221222 111827 5 9 ,146,53.32820892,5.934179306,28.48,0,0,0,77.15,77.15,0.01,602,30,28,314,60,125,10.06,100096,125.42
UTC 221222 111828 5 9 ,147,53.32821655,5.934250832,28.49,0,0,0,77.58,77.58,0.01,596,29,27,314,60,125,10.08,100095,125.42
UTC 221222 111829 5 9 ,148,53.328228,5.934325695,28.49,0,0,0,77.61,77.61,0.01,589,28,27,313,59,126,10.1,100097,125.42
UTC 221222 111830 5 9 ,149,53.32823944,5.934398174,28.5,0,0,0,77.66,77.66,0.01,589,28,27,313,60,124,10.1,100094,125.42
UTC 221222 111831 5 9 ,150,53.32824707,5.93447113,28.51,0,0,0,77.61,77.61,0.01,602,30,27,312,59,125,10.12,100092,125.42
UTC 221222 111832 5 9 ,151,53.32825851,5.934544563,28.52,0,0,0,77.19,77.19,0.01,596,29,27,313,60,125,10.14,100095,125.42
UTC 221222 111833 5 9 ,152,53.32826614,5.934617519,28.53,0,0,0,76.76,76.76,0.01,596,29,27,313,60,124,10.17,100097,125.42
UTC 221222 111833 5 9 ,153,53.32827759,5.93469286,28.54,0,0,0,77.08,77.08,0.01,589,28,27,313,60,125,10.19,100092,125.42
UTC 221222 111833 5 9 ,154,53.32828522,5.934767246,28.53,0,0,0,77.56,77.56,0.01,596,29,28,312,60,125,10.22,100091,125.42
UTC 221222 111836 5 9 ,155,53.32829666,5.934840202,28.51,0,0,0,78.03,78.03,0.01,589,28,27,313,60,125,10.25,100091,125.42
UTC 221222 111837 5 9 ,156,53.32830429,5.934909821,28.52,0,0,0,77.89,77.89,0.01,620,33,28,313,60,125,10.28,100091,125.42
UTC 221222 111837 5 9 ,157,53.32831573,5.934985161,28.54,0,0,0,77.24,77.24,0.01,596,29,28,313,60,124,10.29,100094,125.42
UTC 221222 111839 5 9 ,158,53.32832718,5.935056686,28.55,0,0,0,77.58,77.58,0.01,581,27,27,312,59,124,10.28,100090,125.42
UTC 221222 111840 5 9 ,159,53.32833481,5.935132504,28.55,0,0,0,77.5,77.5,0.01,596,29,27,312,60,124,10.3,100097,125.42
UTC 221222 111841 5 9 ,160,53.32834625,5.93520689,28.54,0,0,0,77.62,77.62,0.01,581,27,27,312,60,124,10.3,100097,125.42
UTC 221222 111842 5 9 ,161,53.3283577,5.9352808,28.53,0,0,0,77.51,77.51,0.01,611,32,28,312,60,124,10.32,100096,125.42
UTC 221222 111843 5 9 ,162,53.32836533,5.935353756,28.53,0,0,0,77.79,77.79,0.01,589,28,27,311,60,124,10.33,100093,125.42
UTC 221222 111844 5 9 ,163,53.32837677,5.935424805,28.54,0,0,0,77.79,77.79,0.01,575,26,28,311,59,124,10.33,100091,125.42
UTC 221222 111845 5 9 ,164,53.3283844,5.935489178,28.55,0,0,0,70.42,70.42,0.01,589,28,28,310,60,124,10.34,100084,125.42
UTC 221222 111846 5 9 ,165,53.3284111,5.935541153,28.62,0,0,0,36.78,36.78,0.01,569,25,28,312,60,124,10.34,100071,125.42
UTC 221222 111846 5 9 ,166,53.32845306,5.935560703,28.77,0,0,0,2.11,2.11,0.01,569,25,28,311,59,124,10.34,100060,125.42
UTC 221222 111848 5 9 ,167,53.32849121,5.935549259,28.92,0,0,0,347.36,347.36,0.01,575,26,27,312,60,124,10.35,100061,125.42
UTC 221222 111849 5 9 ,168,53.32852554,5.935522556,29.02,0,0,0,332.1,332.1,0.01,575,26,28,311,59,124,10.38,100048,125.42
UTC 221222 111850 5 9 ,169,53.32855225,5.935473919,29.1,0,0,0,303.08,303.08,0.01,566,25,27,311,59,124,10.33,100025,125.42
UTC 221222 111851 5 9 ,170,53.32855988,5.935413837,29.11,0,0,0,273.28,273.28,0.01,540,21,28,311,59,123,10.21,100036,125.42
UTC 221222 111852 5 9 ,171,53.32855225,5.935349464,29.09,0,0,0,256.74,256.74,0.01,540,21,27,311,59,122,10.11,100040,125.42
UTC 221222 111852 5 9 ,172,53.3285408,5.935281277,29.08,0,0,0,255.92,255.92,0.01,540,21,28,311,60,123,10.03,100036,125.42
UTC 221222 111854 5 9 ,173,53.32852936,5.935208321,29.06,0,0,0,256.03,256.03,0.01,519,18,27,312,59,123,9.92,100036,125.42
UTC 221222 111855 5 9 ,174,53.32851791,5.935131073,29.05,0,0,0,256.13,256.13,0.01,503,15,27,311,59,123,9.83,100035,125.42
UTC 221222 111856 5 9 ,175,53.32851028,5.935056686,29.04,0,0,0,256.2,256.2,0.01,503,15,27,312,59,122,9.74,100039,125.42
UTC 221222 111857 5 9 ,176,53.32849884,5.9349823,29,0,0,0,256.22,256.22,0.01,498,14,27,312,59,123,9.65,100034,125.42
UTC 221222 111858 5 9 ,177,53.3284874,5.93490839,29,0,0,0,256.56,256.56,0.01,519,18,27,313,59,122,9.57,100042,125.42
UTC 221222 111858 5 9 ,178,53.32847977,5.93483448,28.99,0,0,0,256.42,256.42,0.01,498,14,27,312,59,122,9.5,100039,125.42
UTC 221222 111858 5 9 ,179,53.32846832,5.934761047,28.97,0,0,0,256.85,256.85,0.01,491,13,27,314,59,123,9.41,100035,125.42
UTC 221222 111901 5 9 ,180,53.32846069,5.934688568,28.96,0,0,0,257.03,257.03,0.01,496,14,27,312,59,122,9.33,100031,125.42
UTC 221222 111902 5 9 ,181,53.32845306,5.934616566,28.92,0,0,0,256.82,256.82,0.01,481,12,27,312,58,121,9.26,100032,125.42
UTC 221222 111903 5 9 ,182,53.32844162,5.934544087,28.91,0,0,0,256.63,256.63,0.01,485,12,27,311,59,122,9.21,100033,125.42
UTC 221222 111904 5 9 ,183,53.32843399,5.93447113,28.91,0,0,0,256.88,256.88,0.01,470,10,27,312,59,122,9.15,100026,125.42
UTC 221222 111905 5 9 ,184,53.32842255,5.934397221,28.92,0,0,0,256.85,256.85,0.01,459,8,27,312,58,123,9.09,100025,125.42
UTC 221222 111906 5 9 ,185,53.3284111,5.934322834,28.91,0,0,0,256.6,256.6,0.01,464,9,26,313,58,121,9.03,100032,125.42
UTC 221222 111907 5 9 ,186,53.32840347,5.934248447,28.9,0,0,0,256.61,256.61,0.01,459,8,27,312,59,122,8.98,100035,125.42
UTC 221222 111907 5 9 ,187,53.32839203,5.934174061,28.89,0,0,0,256.42,256.42,0.01,470,10,27,312,58,122,8.95,100035,125.42
UTC 221222 111909 5 9 ,188,53.32838058,5.934100628,28.85,0,0,0,256.79,256.79,0.01,464,9,26,312,58,122,8.91,100030,125.42
UTC 221222 111910 5 9 ,189,53.32837296,5.934028626,28.85,0,0,0,256.76,256.76,0.01,464,9,27,312,58,121,8.88,100037,125.42
UTC 221222 111911 5 9 ,190,53.32836151,5.933953285,28.85,0,0,0,256.63,256.63,0.01,459,8,27,312,59,121,8.85,100037,125.42
UTC 221222 111912 5 9 ,191,53.32835388,5.933880806,28.84,0,0,0,256.79,256.79,0.01,450,7,26,313,58,121,8.81,100030,125.42
UTC 221222 111913 5 9 ,192,53.32834244,5.933809757,28.82,0,0,0,256.91,256.91,0.01,454,8,27,314,58,120,8.77,100026,125.42
UTC 221222 111914 5 9 ,193,53.32833481,5.933734894,28.8,0,0,0,256.77,256.77,0.01,464,9,26,313,59,121,8.75,100033,125.42
UTC 221222 111915 5 9 ,194,53.32832336,5.933661461,28.79,0,0,0,256.64,256.64,0.01,454,8,26,313,58,122,8.73,100041,125.42
UTC 221222 111916 5 9 ,195,53.32831192,5.933586121,28.77,0,0,0,256.73,256.73,0.01,445,6,26,313,58,120,8.71,100040,125.42
UTC 221222 111916 5 9 ,196,53.32830429,5.933512211,28.75,0,0,0,256.73,256.73,0.01,459,8,27,311,58,121,8.68,100035,125.42
UTC 221222 111916 5 9 ,197,53.32829285,5.933438778,28.74,0,0,0,256.67,256.67,0.01,445,6,26,313,58,121,8.66,100039,125.42
UTC 221222 111919 5 9 ,198,53.32828522,5.933365345,28.72,0,0,0,256.93,256.93,0.01,459,8,27,314,58,122,8.64,100032,125.42
UTC 221222 111920 5 9 ,199,53.32827377,5.933293343,28.7,0,0,0,256.63,256.63,0.01,454,8,26,314,58,121,8.62,100035,125.42
UTC 221222 111921 5 9 ,200,53.32826614,5.933218956,28.71,0,0,0,256.76,256.76,0.01,445,6,26,314,58,121,8.6,100034,125.42
UTC 221222 111922 5 9 ,201,53.3282547,5.933146,28.7,0,0,0,257.03,257.03,0.01,435,5,26,314,58,122,8.57,100026,125.42
UTC 221222 111923 5 9 ,202,53.32824707,5.93307209,28.69,0,0,0,257,257,0.01,445,6,26,312,59,121,8.55,100032,125.42
UTC 221222 111924 5 9 ,203,53.32823563,5.932998657,28.68,0,0,0,256.52,256.52,0.01,454,8,26,314,58,121,8.54,100034,125.42
UTC 221222 111925 5 9 ,204,53.32822418,5.932926178,28.67,0,0,0,256.39,256.39,0.01,445,6,26,313,58,121,8.53,100030,125.42
UTC 221222 111926 5 9 ,205,53.32821655,5.932853699,28.65,0,0,0,256.94,256.94,0.01,459,8,26,314,58,120,8.51,100031,125.42
UTC 221222 111927 5 9 ,206,53.32820511,5.932782173,28.61,0,0,0,256.82,256.82,0.01,439,5,26,316,58,122,8.51,100032,125.42
UTC 221222 111928 5 9 ,207,53.32819748,5.93270874,28.61,0,0,0,257.18,257.18,0.01,439,5,27,315,58,121,8.49,100024,125.42
UTC 221222 111929 5 9 ,208,53.32818604,5.932634354,28.6,0,0,0,256.99,256.99,0.01,450,7,26,315,58,121,8.47,100030,125.42
UTC 221222 111930 5 9 ,209,53.32817841,5.932561874,28.6,0,0,0,256.54,256.54,0,454,7,26,314,58,121,8.45,100032,125.42
UTC 221222 111931 5 9 ,210,53.32816696,5.932487965,28.57,0,0,0,256.42,256.42,0,450,7,26,313,58,121,8.44,100040,125.42
UTC 221222 111932 5 9 ,211,53.32815552,5.932415485,28.55,0,0,0,256.57,256.57,0,464,9,26,307,58,120,8.44,100039,125.42
UTC 221222 111933 5 9 ,212,53.32814789,5.932340145,28.56,0,0,0,256.59,256.59,0,435,5,26,314,58,121,8.43,100041,125.42
UTC 221222 111934 5 9 ,213,53.32813644,5.932265759,28.54,0,0,0,256.62,256.62,0,435,5,26,313,57,120,8.42,100043,125.42
UTC 221222 111935 5 9 ,214,53.32812881,5.932192326,28.54,0,0,0,256.51,256.51,0,439,5,26,315,58,121,8.41,100045,125.42
UTC 221222 111936 5 9 ,215,53.32811737,5.932117939,28.52,0,0,0,256.56,256.56,0,439,5,26,315,58,120,8.41,100047,125.42
UTC 221222 111937 5 9 ,216,53.32810593,5.93204546,28.51,0,0,0,256.51,256.51,0,459,8,26,313,58,121,8.39,100039,125.42
UTC 221222 111938 5 9 ,217,53.3280983,5.93197155,28.52,0,0,0,256.43,256.43,0,450,7,26,316,58,121,8.38,100047,125.42
UTC 221222 111939 5 9 ,218,53.32808685,5.931900024,28.49,0,0,0,256.58,256.58,0,439,5,26,315,58,120,8.37,100037,125.42
UTC 221222 111940 5 9 ,219,53.32807922,5.931825161,28.46,0,0,0,256.76,256.76,0,435,5,26,315,57,120,8.35,100043,125.42
UTC 221222 111941 5 9 ,220,53.32806778,5.931750298,28.46,0,0,0,256.64,256.64,0,439,5,26,314,58,120,8.35,100045,125.42
UTC 221222 111942 5 9 ,221,53.32806015,5.931678772,28.46,0,0,0,256.23,256.23,0,454,8,26,315,58,121,8.35,100050,125.42
UTC 221222 111943 5 9 ,222,53.32804871,5.931602955,28.45,0,0,0,256.13,256.13,0,459,8,26,315,57,120,8.34,100050,125.42
UTC 221222 111943 5 9 ,223,53.32803726,5.931529522,28.43,0,0,0,256.57,256.57,0,450,7,26,314,58,120,8.34,100044,125.42
UTC 221222 111945 5 9 ,224,53.32802963,5.931457043,28.42,0,0,0,256.71,256.71,0,450,7,26,315,58,121,8.32,100044,125.42
UTC 221222 111946 5 9 ,225,53.328022,5.931384563,28.41,0,0,0,256.41,256.41,0,445,6,26,314,58,121,8.31,100045,125.42
UTC 221222 111947 5 9 ,226,53.32801056,5.931311131,28.42,0,0,0,256.56,256.56,0,450,7,26,315,58,121,8.31,100046,125.42
UTC 221222 111948 5 9 ,227,53.32800293,5.93123579,28.37,0,0,0,256.73,256.73,0,454,8,26,316,58,121,8.31,100047,125.42
UTC 221222 111949 5 9 ,228,53.32799149,5.931164265,28.37,0,0,0,256.51,256.51,0,445,6,26,315,58,120,8.31,100044,125.42
UTC 221222 111950 5 9 ,229,53.32798767,5.931101799,28.35,0,0,0,271.14,271.14,0,464,9,26,316,58,121,8.3,100051,125.42
UTC 221222 111951 5 9 ,230,53.32800674,5.93103838,28.37,0,0,0,307.57,307.57,0,439,5,26,316,57,121,8.3,100049,125.42
UTC 221222 111951 5 9 ,231,53.32804489,5.931003571,28.36,0,0,0,341.19,341.19,0,459,8,26,316,58,121,8.31,100060,125.42
UTC 221222 111953 5 9 ,232,53.32808304,5.93099165,28.29,0,0,0,349.74,349.74,0,485,12,27,315,58,121,8.39,100071,125.42
UTC 221222 111954 5 9 ,233,53.32812881,5.93100214,28.3,0,0,0,17.74,17.74,0,481,12,26,316,58,122,8.48,100084,125.42
UTC 221222 111955 5 9 ,234,53.32815933,5.931045055,28.33,0,0,0,49.92,49.92,0,491,13,26,316,58,122,8.55,100092,125.42
UTC 221222 111956 5 9 ,235,53.32817841,5.931106091,28.37,0,0,0,74.19,74.19,0,485,12,27,316,58,123,8.61,100096,125.42
UTC 221222 111957 5 9 ,236,53.32818222,5.931171417,28.4,0,0,0,77.14,77.14,0,496,14,27,316,58,123,8.66,100093,125.42
UTC 221222 111958 5 9 ,237,53.32818985,5.931244373,28.43,0,0,0,77.32,77.32,0,503,15,26,315,58,122,8.73,100095,125.42
UTC 221222 111959 5 9 ,238,53.32819748,5.931320667,28.44,0,0,0,77.21,77.21,0,517,17,26,315,58,123,8.79,100095,125.42
UTC 221222 112000 5 9 ,239,53.32820892,5.931396961,28.47,0,0,0,77.21,77.21,0,517,17,27,314,57,122,8.85,100094,125.42
UTC 221222 112001 5 9 ,240,53.32821655,5.931471825,28.48,0,0,0,77.76,77.76,0,517,17,27,314,58,122,8.9,100091,125.42
UTC 221222 112002 5 9 ,241,53.328228,5.931547165,28.52,0,0,0,77.32,77.32,0,519,18,27,315,58,123,8.94,100092,125.42
UTC 221222 112003 5 9 ,242,53.32823563,5.931620121,28.55,0,0,0,76.78,76.78,0,540,21,27,314,58,123,8.99,100090,125.42
UTC 221222 112004 5 9 ,243,53.32824707,5.931692123,28.57,0,0,0,77.69,77.69,0,543,21,26,314,58,122,9.03,100094,125.42
UTC 221222 112005 5 9 ,244,53.3282547,5.931766033,28.58,0,0,0,77.69,77.69,0,531,19,27,314,58,123,9.06,100093,125.42
UTC 221222 112006 5 9 ,245,53.32826614,5.93184042,28.6,0,0,0,78.01,78.01,0,540,21,27,314,58,123,9.11,100091,125.42
UTC 221222 112007 5 9 ,246,53.32827377,5.931913376,28.62,0,0,0,78.12,78.12,0,531,19,27,314,57,123,9.16,100091,125.42
UTC 221222 112007 5 9 ,247,53.32828522,5.931986809,28.65,0,0,0,77.34,77.34,0,543,21,27,315,58,123,9.19,100092,125.42
UTC 221222 112009 5 9 ,248,53.32829285,5.932060242,28.68,0,0,0,77.41,77.41,0,549,22,27,314,58,123,9.24,100092,125.42
UTC 221222 112010 5 9 ,249,53.32830429,5.932132244,28.7,0,0,0,77.33,77.33,0,543,21,27,314,58,123,9.27,100088,125.42
UTC 221222 112011 5 9 ,250,53.32831573,5.932207584,28.72,0,0,0,77.7,77.7,0,543,21,27,314,58,123,9.32,100089,125.42
UTC 221222 112012 5 9 ,251,53.32832336,5.932279587,28.74,0,0,0,77.54,77.54,0,549,22,27,314,58,123,9.35,100092,125.42
UTC 221222 112013 5 9 ,252,53.32833481,5.93235445,28.76,0,0,0,77.44,77.44,0,549,22,26,314,58,123,9.39,100092,125.42
UTC 221222 112014 5 9 ,253,53.32834244,5.932425976,28.79,0,0,0,77.25,77.25,0.01,569,25,26,314,58,123,9.42,100091,125.42
UTC 221222 112015 5 9 ,254,53.32835388,5.932500839,28.81,0,0,0,77.64,77.64,0.01,555,23,27,314,58,123,9.44,100089,125.42
UTC 221222 112016 5 9 ,255,53.32836151,5.932572842,28.82,0,0,0,77.53,77.53,0.01,566,25,27,314,58,124,9.46,100089,125.42
UTC 221222 112017 5 9 ,256,53.32837296,5.932646275,28.85,0,0,0,77.34,77.34,0.01,549,22,27,314,58,123,9.5,100087,125.42
UTC 221222 112018 5 9 ,257,53.32838058,5.932720661,28.88,0,0,0,77.22,77.22,0.01,555,23,27,314,58,124,9.52,100088,125.42
UTC 221222 112019 5 9 ,258,53.32839203,5.932792664,28.9,0,0,0,77.35,77.35,0.01,575,26,27,314,57,124,9.53,100086,125.42
UTC 221222 112019 5 9 ,259,53.32840347,5.932866573,28.92,0,0,0,77.43,77.43,0.01,566,25,27,314,58,124,9.56,100086,125.42
UTC 221222 112021 5 9 ,260,53.3284111,5.932940006,28.94,0,0,0,77.45,77.45,0.01,566,25,26,314,58,124,9.58,100086,125.42
UTC 221222 112022 5 9 ,261,53.32842255,5.93301487,28.97,0,0,0,77.42,77.42,0.01,566,25,27,314,58,124,9.62,100090,125.42
UTC 221222 112023 5 9 ,262,53.32843018,5.933085918,28.99,0,0,0,77.26,77.26,0.01,569,25,27,314,58,124,9.66,100089,125.42
UTC 221222 112024 5 9 ,263,53.32844162,5.933160305,29.02,0,0,0,77.42,77.42,0.01,575,26,27,314,58,124,9.68,100088,125.42
UTC 221222 112025 5 9 ,264,53.32844925,5.933233261,29.04,0,0,0,77.61,77.61,0.01,575,26,27,314,58,124,9.71,100086,125.42
UTC 221222 112026 5 9 ,265,53.32846069,5.933308125,29.06,0,0,0,77.29,77.29,0.01,569,25,27,314,58,125,9.76,100084,125.42
UTC 221222 112027 5 9 ,266,53.32846832,5.933380127,29.08,0,0,0,77.61,77.61,0.01,581,27,28,314,57,124,9.81,100085,125.42
UTC 221222 112028 5 9 ,267,53.32847977,5.933454514,29.11,0,0,0,77.37,77.37,0.01,575,26,27,314,58,124,9.82,100085,125.42
UTC 221222 112029 5 9 ,268,53.3284874,5.933527947,29.13,0,0,0,77.61,77.61,0.01,575,26,27,314,59,124,9.85,100085,125.42
UTC 221222 112030 5 9 ,269,53.32849884,5.933600903,29.15,0,0,0,77.23,77.23,0.01,602,30,27,314,58,125,9.88,100086,125.42
UTC 221222 112031 5 9 ,270,53.32851028,5.933672905,29.17,0,0,0,77.55,77.55,0.01,589,28,27,314,58,125,9.89,100087,125.42
UTC 221222 112032 5 9 ,271,53.32851791,5.933747768,29.19,0,0,0,77.36,77.36,0.01,581,27,27,314,58,124,9.9,100084,125.42
UTC 221222 112033 5 9 ,272,53.32852936,5.933821201,29.21,0,0,0,77.64,77.64,0.01,589,28,28,314,58,125,9.91,100086,125.42
UTC 221222 112034 5 9 ,273,53.32853699,5.933893681,29.25,0,0,0,77.39,77.39,0.01,589,28,27,314,58,125,9.97,100084,125.42
UTC 221222 112035 5 9 ,274,53.32854843,5.93396616,29.26,0,0,0,77.34,77.34,0.01,611,32,27,314,58,125,10.01,100082,125.42
UTC 221222 112036 5 9 ,275,53.32855606,5.934039593,29.27,0,0,0,77.33,77.33,0.01,602,30,27,314,58,124,10.02,100085,125.42
UTC 221222 112037 5 9 ,276,53.3285675,5.934114933,29.29,0,0,0,77.32,77.32,0.01,589,28,27,313,58,124,10.02,100083,125.42
UTC 221222 112038 5 9 ,277,53.32857895,5.934188843,29.32,0,0,0,77.58,77.58,0.01,596,29,28,313,58,125,10.02,100081,125.42
UTC 221222 112039 5 9 ,278,53.32858658,5.934262753,29.35,0,0,0,77.59,77.59,0.01,581,27,27,313,58,125,10.02,100083,125.42
UTC 221222 112039 5 9 ,279,53.32859802,5.934335232,29.37,0,0,0,77.6,77.6,0.01,596,29,27,313,58,125,10.03,100082,125.42
UTC 221222 112041 5 9 ,280,53.32860565,5.934410095,29.4,0,0,0,77.73,77.73,0.01,596,29,27,312,58,125,10.05,100084,125.42
UTC 221222 112042 5 9 ,281,53.3286171,5.934482098,29.43,0,0,0,77.47,77.47,0.01,589,28,27,313,58,124,10.08,100085,125.42
UTC 221222 112042 5 9 ,282,53.32862473,5.934556961,29.45,0,0,0,77.37,77.37,0.01,575,30,27,313,59,125,10.11,100081,125.42
UTC 221222 112044 5 9 ,283,53.32863617,5.934629917,29.48,0,0,0,77.47,77.47,0.01,589,28,28,313,58,125,10.14,100082,125.42
UTC 221222 112045 5 9 ,284,53.32864761,5.934700489,29.49,0,0,0,77.44,77.44,0.01,581,27,28,313,58,124,10.13,100080,125.42
UTC 221222 112046 5 9 ,285,53.32865524,5.934776306,29.51,0,0,0,77.51,77.51,0.01,589,28,28,313,58,125,10.15,100086,125.42
UTC 221222 112047 5 9 ,286,53.32866669,5.934847355,29.54,0,0,0,77.31,77.31,0.01,589,28,28,313,58,125,10.15,100083,125.42
UTC 221222 112048 5 9 ,287,53.32867432,5.934919834,29.56,0,0,0,77.44,77.44,0.01,611,32,28,313,58,125,10.16,100081,125.42
UTC 221222 112049 5 9 ,288,53.32868576,5.934996128,29.59,0,0,0,77.41,77.41,0.01,596,29,27,313,58,124,10.17,100081,125.42
UTC 221222 112050 5 9 ,289,53.32869339,5.935069561,29.61,0,0,0,77.36,77.36,0.01,581,27,27,313,58,125,10.18,100080,125.42
UTC 221222 112050 5 9 ,290,53.32870483,5.935142517,29.63,0,0,0,77.42,77.42,0.01,596,29,27,313,58,125,10.2,100083,125.42
UTC 221222 112052 5 9 ,291,53.32871628,5.93521595,29.64,0,0,0,77.24,77.24,0.01,589,28,28,313,58,125,10.22,100080,125.42
UTC 221222 112052 5 9 ,292,53.32872391,5.935288906,29.66,0,0,0,77.61,77.61,0.01,611,32,27,312,58,124,10.24,100079,125.42
UTC 221222 112054 5 9 ,293,53.32873535,5.935353756,29.68,0,0,0,72.53,72.53,0.01,611,32,28,313,58,125,10.27,100077,125.42
UTC 221222 112055 5 9 ,294,53.32875824,5.935407162,29.76,0,0,0,41.69,41.69,0.01,602,30,27,312,58,125,10.28,100072,125.42
UTC 221222 112056 5 9 ,295,53.32879639,5.935431004,29.9,0,0,0,6.18,6.18,0.01,596,29,28,313,58,124,10.27,100058,125.42
UTC 221222 112057 5 9 ,296,53.32883835,5.93542099,30.03,0,0,0,347.59,347.59,0.01,596,29,28,313,58,125,10.25,100047,125.42
UTC 221222 112058 5 9 ,297,53.32887268,5.935396195,30.12,0,0,0,333.83,333.83,0.01,589,28,28,312,58,124,10.21,100035,125.42
UTC 221222 112059 5 9 ,298,53.3289032,5.935347557,30.2,0,0,0,303.76,303.76,0.01,575,26,28,312,58,124,10.2,100027,125.42
UTC 221222 112100 5 9 ,299,53.32891083,5.935285091,30.23,0,0,0,272.48,272.48,0.01,543,21,28,312,58,124,10.1,100018,125.42
UTC 221222 112101 5 9 ,300,53.32890701,5.935220242,30.2,0,0,0,256.78,256.78,0.01,540,21,28,311,58,124,10,100030,125.42
UTC 221222 112102 5 9 ,301,53.32889175,5.935152054,30.14,0,0,0,256.06,256.06,0.01,540,21,28,312,58,124,9.93,100026,125.42
UTC 221222 112103 5 9 ,302,53.32888031,5.935079098,30.14,0,0,0,255.74,255.74,0.01,540,21,27,312,58,123,9.84,100021,125.42
UTC 221222 112103 5 9 ,303,53.32887268,5.935003281,30.1,0,0,0,256.25,256.25,0.01,543,21,28,313,58,124,9.75,100028,125.42
UTC 221222 112103 5 9 ,304,53.32886124,5.93492794,30.05,0,0,0,256.3,256.3,0.01,531,19,28,312,57,124,9.65,100031,125.42
UTC 221222 112106 5 9 ,305,53.32884979,5.934853554,30,0,0,0,256.81,256.81,0.01,526,19,27,313,58,123,9.57,100027,125.42
UTC 221222 112106 5 9 ,306,53.32884216,5.934780598,29.99,0,0,0,256.65,256.65,0.01,517,17,27,312,57,123,9.5,100020,125.42
UTC 221222 112108 5 9 ,307,53.32883072,5.934708118,29.95,0,0,0,256.75,256.75,0.01,498,14,27,312,58,122,9.42,100022,125.42
UTC 221222 112109 5 9 ,308,53.32882309,5.93463707,29.9,0,0,0,256.71,256.71,0.01,517,17,27,312,57,123,9.36,100019,125.42
UTC 221222 112110 5 9 ,309,53.32881165,5.934565067,29.87,0,0,0,256.85,256.85,0.01,498,14,27,312,57,123,9.28,100016,125.42
UTC 221222 112111 5 9 ,310,53.32880402,5.934488773,29.88,0,0,0,256.44,256.44,0.01,491,13,27,312,56,122,9.22,100023,125.42
UTC 221222 112112 5 9 ,311,53.32879257,5.934417248,29.85,0,0,0,256.18,256.18,0.01,491,13,27,313,58,122,9.16,100026,125.42
UTC 221222 112113 5 9 ,312,53.32878113,5.934341908,29.81,0,0,0,256.68,256.68,0.01,485,12,26,313,57,122,9.11,100017,125.42
UTC 221222 112114 5 9 ,313,53.3287735,5.934268951,29.79,0,0,0,256.99,256.99,0.01,496,14,27,313,58,123,9.05,100024,125.42
UTC 221222 112115 5 9 ,314,53.32876587,5.934194565,29.76,0,0,0,256.81,256.81,0.01,485,12,27,313,57,123,9,100023,125.42
UTC 221222 112116 5 9 ,315,53.32875443,5.934119225,29.73,0,0,0,256.32,256.32,0.01,476,11,27,314,57,122,8.95,100029,125.42
UTC 221222 112117 5 9 ,316,53.32874298,5.934046269,29.69,0,0,0,256.32,256.32,0.01,485,12,27,313,57,122,8.92,100030,125.42
UTC 221222 112118 5 9 ,317,53.32873154,5.933972836,29.66,0,0,0,256.41,256.41,0.01,481,12,26,315,57,123,8.88,100036,125.42
UTC 221222 112119 5 9 ,318,53.32872391,5.933897972,29.61,0,0,0,256.53,256.53,0.01,481,12,27,314,57,123,8.85,100030,125.42
UTC 221222 112119 5 9 ,319,53.32871246,5.933825493,29.55,0,0,0,256.91,256.91,0.01,491,13,27,315,57,122,8.81,100029,125.42
UTC 221222 112121 5 9 ,320,53.32870483,5.933750629,29.53,0,0,0,256.69,256.69,0.01,476,11,26,314,57,123,8.77,100033,125.42
UTC 221222 112122 5 9 ,321,53.32869339,5.93367672,29.52,0,0,0,256.49,256.49,0.01,481,12,27,315,57,123,8.75,100036,125.42
UTC 221222 112123 5 9 ,322,53.32868576,5.933605671,29.48,0,0,0,256.6,256.6,0.01,485,12,27,314,57,123,8.72,100032,125.42
UTC 221222 112124 5 9 ,323,53.32867432,5.933531761,29.45,0,0,0,256.65,256.65,0.01,481,12,27,315,56,123,8.71,100034,125.42
UTC 221222 112125 5 9 ,324,53.32866669,5.933460236,29.42,0,0,0,256.78,256.78,0.01,485,12,26,313,56,122,8.68,100031,125.42
UTC 221222 112126 5 9 ,325,53.32865524,5.933383942,29.36,0,0,0,256.9,256.9,0.01,470,10,27,314,57,123,8.66,100033,125.42
UTC 221222 112127 5 9 ,326,53.3286438,5.933310986,29.35,0,0,0,256.61,256.61,0.01,476,11,26,315,57,123,8.65,100032,125.42
UTC 221222 112128 5 9 ,327,53.32863617,5.933238983,29.34,0,0,0,256.58,256.58,0.01,470,10,27,314,56,122,8.63,100033,125.42
UTC 221222 112129 5 9 ,328,53.32862473,5.93316555,29.31,0,0,0,256.58,256.58,0.01,464,9,27,314,57,123,8.6,100032,125.42
UTC 221222 112130 5 9 ,329,53.3286171,5.933090687,29.27,0,0,0,256.63,256.63,0.01,481,12,26,315,57,123,8.59,100033,125.42
UTC 221222 112131 5 9 ,330,53.32860565,5.9330163,29.2,0,0,0,256.99,256.99,0.01,481,12,27,315,57,123,8.58,100036,125.42
UTC 221222 112132 5 9 ,331,53.32859802,5.932943821,29.17,0,0,0,256.67,256.67,0.01,470,10,27,314,57,123,8.56,100031,125.42
UTC 221222 112133 5 9 ,332,53.32858658,5.932868958,29.17,0,0,0,256.33,256.33,0.01,476,11,27,313,57,123,8.55,100034,125.42
UTC 221222 112134 5 9 ,333,53.32857513,5.932795525,29.13,0,0,0,256.19,256.19,0.01,470,10,26,315,57,123,8.54,100038,125.42
UTC 221222 112135 5 9 ,334,53.3285675,5.932723045,29.1,0,0,0,256.48,256.48,0.01,481,12,26,315,56,122,8.53,100032,125.42
UTC 221222 112136 5 9 ,335,53.32855606,5.932652473,29.06,0,0,0,256.85,256.85,0.01,476,11,26,316,57,123,8.51,100034,125.42
UTC 221222 112136 5 9 ,336,53.32854843,5.932578564,29.01,0,0,0,256.56,256.56,0.01,470,10,26,314,56,123,8.51,100037,125.42
UTC 221222 112138 5 9 ,337,53.32853699,5.932505608,28.99,0,0,0,256.67,256.67,0.01,470,10,27,314,56,123,8.5,100037,125.42
UTC 221222 112138 5 9 ,338,53.32852554,5.932433128,28.98,0,0,0,256.42,256.42,0.01,464,9,26,316,57,122,8.49,100038,125.42
UTC 221222 112140 5 9 ,339,53.32851791,5.932358265,28.93,0,0,0,256.94,256.94,0.01,470,10,26,314,57,122,8.48,100038,125.42
UTC 221222 112141 5 9 ,340,53.32851028,5.932284355,28.85,0,0,0,256.67,256.67,0.01,481,12,26,316,57,122,8.47,100036,125.42
UTC 221222 112142 5 9 ,341,53.32849884,5.932211399,28.85,0,0,0,256.55,256.55,0.01,464,9,26,315,57,122,8.46,100039,125.42
UTC 221222 112143 5 9 ,342,53.3284874,5.932138443,28.84,0,0,0,256.84,256.84,0.01,464,9,26,315,57,122,8.45,100032,125.42
UTC 221222 112144 5 9 ,343,53.32847977,5.932064056,28.81,0,0,0,256.72,256.72,0.01,464,9,26,314,56,122,8.44,100022,125.42
UTC 221222 112145 5 9 ,344,53.32847214,5.931994438,28.82,0,0,0,256.85,256.85,0.01,454,8,26,315,57,121,8.43,100025,125.42
UTC 221222 112146 5 9 ,345,53.32846069,5.931917667,28.79,0,0,0,256.68,256.68,0.01,464,9,26,315,57,122,8.42,100039,125.42
UTC 221222 112147 5 9 ,346,53.32844925,5.931844235,28.75,0,0,0,256.4,256.4,0.01,476,11,26,316,56,121,8.41,100040,125.42
UTC 221222 112148 5 9 ,347,53.32844162,5.931768417,28.67,0,0,0,256.75,256.75,0.01,454,8,26,315,57,122,8.41,100047,125.42
UTC 221222 112149 5 9 ,348,53.32843018,5.931694984,28.65,0,0,0,256.55,256.55,0.01,459,8,26,316,57,121,8.41,100047,125.42
UTC 221222 112150 5 9 ,349,53.32841873,5.931623936,28.63,0,0,0,256.74,256.74,0.01,464,9,26,315,57,122,8.41,100049,125.42
UTC 221222 112151 5 9 ,350,53.3284111,5.931548119,28.59,0,0,0,256.54,256.54,0.01,476,11,26,315,56,122,8.39,100042,125.42
UTC 221222 112152 5 9 ,351,53.32839966,5.931475163,28.57,0,0,0,256.76,256.76,0.01,470,10,26,314,57,122,8.39,100043,125.42
UTC 221222 112152 5 9 ,352,53.32839203,5.931402206,28.54,0,0,0,256.88,256.88,0.01,454,8,26,314,56,121,8.39,100038,125.42
UTC 221222 112154 5 9 ,353,53.32838058,5.931332111,28.49,0,0,0,256.79,256.79,0.01,459,8,26,314,56,122,8.39,100040,125.42
UTC 221222 112154 5 9 ,354,53.32837296,5.931258202,28.47,0,0,0,256.59,256.59,0.01,459,8,26,315,56,121,8.39,100037,125.42
UTC 221222 112156 5 9 ,355,53.32836151,5.931184292,28.45,0,0,0,256.72,256.72,0.01,459,8,26,314,56,121,8.39,100041,125.42
UTC 221222 112156 5 9 ,356,53.32835007,5.931110382,28.42,0,0,0,256.53,256.53,0.01,459,8,25,315,56,121,8.4,100040,125.42
UTC 221222 112158 5 9 ,357,53.32834244,5.93103838,28.4,0,0,0,256.46,256.46,0.01,454,8,26,315,56,121,8.4,100043,125.42
UTC 221222 112159 5 9 ,358,53.32834244,5.93097496,28.33,0,0,0,275.76,275.76,0.01,450,8,26,315,56,121,8.39,100041,125.42
UTC 221222 112200 5 9 ,359,53.32836151,5.930914402,28.3,0,0,0,312.96,312.96,0.01,450,7,26,315,56,122,8.37,100040,125.42
UTC 221222 112201 5 9 ,360,53.32839966,5.930883884,28.21,0,0,0,343.57,343.57,0.01,470,10,26,315,56,122,8.4,100062,125.42
UTC 221222 112202 5 9 ,361,53.32844162,5.930872917,28.09,0,0,0,351.18,351.18,0.01,491,13,26,315,57,122,8.49,100069,125.42
UTC 221222 112203 5 9 ,362,53.32848358,5.930886269,28.01,0,0,0,20.71,20.71,0.01,485,12,26,315,56,122,8.56,100080,125.42
UTC 221222 112204 5 9 ,363,53.3285141,5.930931091,27.99,0,0,0,51.93,51.93,0.01,498,14,26,315,57,123,8.65,100088,125.42
UTC 221222 112205 5 9 ,364,53.32852936,5.93099308,28.06,0,0,0,75.09,75.09,0.01,498,14,26,315,57,122,8.69,100093,125.42
UTC 221222 112206 5 9 ,365,53.32853699,5.931059361,28.07,0,0,0,77.12,77.12,0.01,503,15,26,315,57,122,8.76,100099,125.42
UTC 221222 112206 5 9 ,366,53.3285408,5.93113184,28.11,0,0,0,77.09,77.09,0.01,517,17,26,314,56,122,8.8,100097,125.42
UTC 221222 112208 5 9 ,367,53.32855225,5.931209087,28.15,0,0,0,77.18,77.18,0.01,519,18,26,315,57,122,8.86,100096,125.42
UTC 221222 112209 5 9 ,368,53.32855988,5.931286335,28.18,0,0,0,77.27,77.27,0.01,531,19,26,315,57,123,8.91,100097,125.42
UTC 221222 112210 5 9 ,369,53.3285675,5.931357861,28.21,0,0,0,77.36,77.36,0.01,540,21,27,315,56,123,8.98,100101,117.01
UTC 221222 112211 5 9 ,370,53.32857895,5.931434155,28.23,0,0,0,77.43,77.43,0.01,526,19,27,314,56,123,9.01,100094,125.42
UTC 221222 112212 5 9 ,371,53.32859039,5.931507587,28.27,0,0,0,77.39,77.39,0.01,531,19,26,315,56,123,9.04,100095,125.42
UTC 221222 112213 5 9 ,372,53.32859802,5.931579113,28.31,0,0,0,77.54,77.54,0.01,540,21,26,314,56,123,9.08,100094,125.42
UTC 221222 112214 5 9 ,373,53.32860947,5.931653976,28.35,0,0,0,77.45,77.45,0.01,543,21,26,314,57,123,9.14,100093,125.42
UTC 221222 112215 5 9 ,374,53.3286171,5.931726456,28.38,0,0,0,77.4,77.4,0.01,549,22,27,314,57,122,9.18,100095,125.42
UTC 221222 112216 5 9 ,375,53.32862854,5.931798458,28.41,0,0,0,77.45,77.45,0.01,543,21,26,314,56,123,9.2,100092,125.42
UTC 221222 112217 5 9 ,376,53.32863617,5.931873322,28.44,0,0,0,77.53,77.53,0.01,543,21,27,314,57,123,9.24,100092,125.42
UTC 221222 112218 5 9 ,377,53.32864761,5.931948185,28.48,0,0,0,77.36,77.36,0.01,549,22,26,314,56,123,9.28,100095,125.42
UTC 221222 112219 5 9 ,378,53.32865906,5.932021618,28.51,0,0,0,77.49,77.49,0.01,549,22,27,313,56,123,9.32,100094,125.42
UTC 221222 112220 5 9 ,379,53.32866669,5.932095051,28.55,0,0,0,77.55,77.55,0.01,569,25,26,313,57,124,9.35,100094,125.42
UTC 221222 112221 5 9 ,380,53.32867813,5.932168484,28.57,0,0,0,77.44,77.44,0.01,549,22,27,313,57,123,9.39,100091,125.42
UTC 221222 112222 5 9 ,381,53.32868576,5.932241917,28.6,0,0,0,77.48,77.48,0.01,549,22,26,313,56,123,9.41,100094,125.42
UTC 221222 112223 5 9 ,382,53.3286972,5.932313919,28.63,0,0,0,77.6,77.6,0.01,555,23,26,313,56,123,9.45,100092,125.42
UTC 221222 112224 5 9 ,383,53.32870865,5.932390213,28.65,0,0,0,77.63,77.63,0.01,549,22,27,313,57,123,9.48,100093,125.42
UTC 221222 112225 5 9 ,384,53.32871628,5.932463169,28.67,0,0,0,77.57,77.57,0.01,575,26,26,312,57,123,9.52,100087,125.42
UTC 221222 112226 5 9 ,385,53.32872772,5.932538033,28.7,0,0,0,77.38,77.38,0.01,566,25,26,313,57,123,9.58,100091,125.42
UTC 221222 112227 5 9 ,386,53.32873535,5.932610989,28.74,0,0,0,77.14,77.14,0.01,555,23,26,313,56,123,9.64,100091,125.42
UTC 221222 112228 5 9 ,387,53.3287468,5.932682037,28.78,0,0,0,77.3,77.3,0.01,555,23,26,313,56,123,9.67,100092,125.42
UTC 221222 112229 5 9 ,388,53.32875443,5.932755947,28.82,0,0,0,77.47,77.47,0.01,566,25,27,312,56,123,9.71,100090,125.42
UTC 221222 112230 5 9 ,389,53.32876587,5.93282795,28.86,0,0,0,77.58,77.58,0.01,569,25,26,313,56,123,9.72,100088,125.42
UTC 221222 112231 5 9 ,390,53.3287735,5.932900906,28.9,0,0,0,77.57,77.57,0.01,569,25,26,313,56,123,9.75,100089,125.42
UTC 221222 112232 5 9 ,391,53.32878494,5.932975769,28.92,0,0,0,77.44,77.44,0.01,566,25,27,313,57,122,9.78,100089,125.42
UTC 221222 112233 5 9 ,392,53.32879257,5.933049202,28.96,0,0,0,77.5,77.5,0.01,555,23,26,312,57,123,9.8,100088,125.42
UTC 221222 112234 5 9 ,393,53.32880402,5.933122635,28.98,0,0,0,77.65,77.65,0.01,566,25,26,313,57,123,9.82,100088,125.42
UTC 221222 112235 5 9 ,394,53.32881546,5.933196068,29.01,0,0,0,77.48,77.48,0.01,566,25,26,312,56,123,9.83,100087,125.42
UTC 221222 112236 5 9 ,395,53.32882309,5.933269978,29.04,0,0,0,77.59,77.59,0.01,575,26,26,313,56,123,9.84,100091,125.42
UTC 221222 112237 5 9 ,396,53.32883453,5.933343411,29.08,0,0,0,77.63,77.63,0.01,555,23,27,313,56,123,9.83,100089,125.42
UTC 221222 112238 5 9 ,397,53.32884216,5.933416843,29.11,0,0,0,77.8,77.8,0.01,566,25,27,313,57,124,9.87,100085,125.42
UTC 221222 112239 5 9 ,398,53.32885361,5.933487415,29.13,0,0,0,76.64,76.64,0.01,566,25,27,312,56,124,9.88,100089,125.42
UTC 221222 112240 5 9 ,399,53.32886124,5.933561802,29.17,0,0,0,76.94,76.94,0.01,575,26,27,313,56,124,9.9,100084,125.42
UTC 221222 112241 5 9 ,400,53.32887268,5.933633804,29.2,0,0,0,77.3,77.3,0.01,581,27,26,313,56,123,9.9,100088,125.42
UTC 221222 112242 5 9 ,401,53.32888031,5.933708668,29.22,0,0,0,77.43,77.43,0.01,566,25,27,313,57,123,9.93,100084,125.42
UTC 221222 112243 5 9 ,402,53.32889175,5.933779717,29.26,0,0,0,77.47,77.47,0.01,566,25,26,313,56,124,9.97,100088,125.42
UTC 221222 112244 5 9 ,403,53.3289032,5.933855057,29.29,0,0,0,77.37,77.37,0.01,575,26,27,313,56,123,9.98,100087,125.42
UTC 221222 112245 5 9 ,404,53.32891083,5.933928013,29.32,0,0,0,77.93,77.93,0.01,575,26,27,314,57,124,9.99,100087,125.42
UTC 221222 112246 5 9 ,405,53.32892227,5.934002876,29.35,0,0,0,77.52,77.52,0.01,581,27,27,314,56,124,10.01,100087,125.42
UTC 221222 112247 5 9 ,406,53.3289299,5.934076786,29.39,0,0,0,77.11,77.11,0.01,575,26,27,314,56,124,10.02,100082,125.42
UTC 221222 112248 5 9 ,407,53.32894135,5.934150696,29.43,0,0,0,77.55,77.55,0.01,569,25,27,313,57,123,10.03,100083,125.42
UTC 221222 112248 5 9 ,408,53.32895279,5.934224129,29.47,0,0,0,77.65,77.65,0.01,575,26,27,314,56,124,10.06,100083,125.42
UTC 221222 112250 5 9 ,409,53.32896042,5.934296608,29.5,0,0,0,77.53,77.53,0.01,575,26,26,314,56,124,10.08,100083,125.42
UTC 221222 112251 5 9 ,410,53.32896805,5.934370518,29.53,0,0,0,77.35,77.35,0.01,596,29,27,314,57,125,10.09,100082,125.42
UTC 221222 112252 5 9 ,411,53.32897949,5.934443474,29.55,0,0,0,77.6,77.6,0.01,596,29,27,314,57,124,10.09,100083,125.42
UTC 221222 112253 5 9 ,412,53.32899094,5.934515953,29.59,0,0,0,77.76,77.76,0.01,581,27,27,314,56,125,10.14,100084,125.42
UTC 221222 112254 5 9 ,413,53.32899857,5.934588432,29.62,0,0,0,77.51,77.51,0.01,589,28,26,314,57,125,10.18,100080,125.42
UTC 221222 112255 5 9 ,414,53.32901001,5.934661388,29.64,0,0,0,77.55,77.55,0.01,589,28,27,313,56,125,10.22,100080,125.42
UTC 221222 112256 5 9 ,415,53.32901764,5.934734345,29.67,0,0,0,77.83,77.83,0.01,611,32,26,314,56,124,10.24,100079,125.42
UTC 221222 112257 5 9 ,416,53.32902908,5.934807777,29.71,0,0,0,77.82,77.82,0.01,611,32,27,313,57,125,10.26,100076,125.42
UTC 221222 112258 5 9 ,417,53.32903671,5.934882641,29.74,0,0,0,77.19,77.19,0.01,596,29,27,314,57,125,10.27,100077,125.42
UTC 221222 112259 5 9 ,418,53.32904816,5.93495512,29.77,0,0,0,77.03,77.03,0.01,596,29,27,314,56,125,10.3,100079,125.42
UTC 221222 112300 5 9 ,419,53.3290596,5.935030937,29.81,0,0,0,76.84,76.84,0.01,602,30,27,313,56,125,10.32,100078,125.42
UTC 221222 112301 5 9 ,420,53.32906723,5.935103416,29.83,0,0,0,76.82,76.82,0.01,602,30,27,313,57,126,10.34,100079,125.42
UTC 221222 112302 5 9 ,421,53.32907867,5.935179234,29.86,0,0,0,77.84,77.84,0.01,620,33,27,314,57,125,10.33,100077,125.42
UTC 221222 112303 5 9 ,422,53.32909012,5.935239792,29.87,0,0,0,67.78,67.78,0.01,596,29,27,313,56,125,10.32,100076,125.42
UTC 221222 112303 5 9 ,423,53.32911682,5.935290337,29.8,0,0,0,32.44,32.44,0.01,596,29,27,313,56,124,10.32,100067,125.42
UTC 221222 112303 5 9 ,424,53.32915878,5.935303211,29.68,0,0,0,357.35,357.35,0.01,589,28,27,313,56,125,10.3,100059,125.42
UTC 221222 112306 5 9 ,425,53.32919693,5.935289383,29.57,0,0,0,347.06,347.06,0.01,589,28,28,313,57,125,10.31,100053,125.42
UTC 221222 112307 5 9 ,426,53.32923508,5.935257435,29.44,0,0,0,326.37,326.37,0.01,611,32,28,313,57,125,10.31,100049,125.42
UTC 221222 112308 5 9 ,427,53.32925797,5.935204029,29.33,0,0,0,295.49,295.49,0.01,581,27,28,313,57,125,10.28,100041,125.42
UTC 221222 112309 5 9 ,428,53.32926178,5.935141087,29.29,0,0,0,266.73,266.73,0.01,566,25,28,313,56,125,10.15,100040,125.42
UTC 221222 112310 5 9 ,429,53.32925415,5.935079098,29.24,0,0,0,256.95,256.95,0.01,549,22,27,313,56,125,10.07,100036,125.42
UTC 221222 112311 5 9 ,430,53.32924271,5.935013294,29.21,0,0,0,256,256,0.01,543,21,27,312,56,124,9.98,100044,125.42
UTC 221222 112312 5 9 ,431,53.32923126,5.934940815,29.19,0,0,0,256,256,0.01,531,19,27,313,57,124,9.89,100044,125.42
UTC 221222 112313 5 9 ,432,53.32921982,5.934864998,29.16,0,0,0,256.13,256.13,0.01,526,19,27,313,57,124,9.81,100038,125.42
UTC 221222 112314 5 9 ,433,53.32921219,5.934789181,29.18,0,0,0,255.96,255.96,0.01,519,18,27,314,56,124,9.71,100039,125.42
UTC 221222 112315 5 9 ,434,53.32920074,5.934715748,29.15,0,0,0,256.24,256.24,0.01,540,21,27,313,57,123,9.62,100044,125.42
UTC 221222 112316 5 9 ,435,53.3291893,5.934642792,29.1,0,0,0,256.52,256.52,0.01,517,17,27,313,57,123,9.54,100042,125.42
UTC 221222 112317 5 9 ,436,53.32918167,5.934569359,29.06,0,0,0,256.63,256.63,0.01,503,15,27,312,56,123,9.47,100035,125.42
UTC 221222 112318 5 9 ,437,53.32917023,5.934497833,29.04,0,0,0,256.43,256.43,0.01,503,15,26,313,55,122,9.4,100035,125.42
UTC 221222 112319 5 9 ,438,53.3291626,5.934425354,29.02,0,0,0,256.75,256.75,0.01,496,14,26,312,56,122,9.31,100035,125.42
UTC 221222 112320 5 9 ,439,53.32915115,5.934351921,29,0,0,0,256.55,256.55,0.01,498,14,27,312,56,123,9.24,100036,125.42
UTC 221222 112321 5 9 ,440,53.32913971,5.934275627,28.99,0,0,0,256.8,256.8,0.01,491,13,27,313,56,123,9.17,100038,125.42
UTC 221222 112322 5 9 ,441,53.32913208,5.934200764,28.97,0,0,0,256.53,256.53,0.01,491,13,27,313,56,122,9.12,100041,125.42
UTC 221222 112323 5 9 ,442,53.32912064,5.934126377,28.94,0,0,0,256.59,256.59,0.01,496,14,26,313,56,122,9.07,100034,125.42
UTC 221222 112324 5 9 ,443,53.32911301,5.934052467,28.91,0,0,0,256.59,256.59,0.01,491,13,26,314,56,122,9.03,100047,125.42
UTC 221222 112325 5 9 ,444,53.32910156,5.933977127,28.88,0,0,0,256.58,256.58,0.01,496,14,27,314,56,122,9,100046,125.42
UTC 221222 112326 5 9 ,445,53.32909393,5.933903217,28.86,0,0,0,256.51,256.51,0.01,498,14,27,315,56,123,8.96,100050,125.42
UTC 221222 112327 5 9 ,446,53.32908249,5.933830261,28.84,0,0,0,256.37,256.37,0.01,485,12,27,315,56,123,8.93,100044,125.42
UTC 221222 112328 5 9 ,447,53.32907104,5.933757305,28.8,0,0,0,256.72,256.72,0.01,496,14,27,315,56,122,8.91,100048,125.42
UTC 221222 112329 5 9 ,448,53.32906342,5.93368578,28.77,0,0,0,256.61,256.61,0.01,485,12,26,313,55,122,8.89,100049,125.42
UTC 221222 112330 5 9 ,449,53.32905197,5.933612347,28.76,0,0,0,256.67,256.67,0.01,491,13,26,314,56,122,8.86,100046,125.42
UTC 221222 112331 5 9 ,450,53.32904434,5.933539391,28.75,0,0,0,256.44,256.44,0.01,498,14,26,315,56,122,8.83,100046,125.42
UTC 221222 112331 5 9 ,451,53.3290329,5.933466435,28.71,0,0,0,256.95,256.95,0.01,481,12,26,314,56,122,8.8,100040,125.42
UTC 221222 112333 5 9 ,452,53.32902527,5.933393478,28.68,0,0,0,256.87,256.87,0.01,491,13,26,313,56,122,8.78,100045,125.42
UTC 221222 112334 5 9 ,453,53.32901382,5.933318615,28.65,0,0,0,256.84,256.84,0.01,481,12,26,315,56,123,8.76,100043,125.42
UTC 221222 112335 5 9 ,454,53.3290062,5.933246136,28.63,0,0,0,256.66,256.66,0.01,476,11,26,315,56,122,8.74,100045,125.42
UTC 221222 112336 5 9 ,455,53.32899475,5.933171749,28.58,0,0,0,257,257,0.01,491,13,26,315,56,122,8.71,100044,125.42
UTC 221222 112337 5 9 ,456,53.32898712,5.933099747,28.55,0,0,0,256.89,256.89,0.01,470,10,26,314,55,121,8.7,100035,125.42
UTC 221222 112338 5 9 ,457,53.32897568,5.933029175,28.57,0,0,0,256.58,256.58,0.01,464,9,26,315,56,122,8.68,100039,125.42
UTC 221222 112339 5 9 ,458,53.32896805,5.932954788,28.55,0,0,0,256.56,256.56,0.01,470,10,26,313,55,122,8.67,100038,125.42
UTC 221222 112340 5 9 ,459,53.3289566,5.932882786,28.49,0,0,0,256.88,256.88,0.01,459,8,26,313,55,121,8.66,100035,125.42
UTC 221222 112341 5 9 ,460,53.32894897,5.932808876,28.46,0,0,0,256.62,256.62,0.01,464,9,26,313,55,121,8.64,100039,125.42
UTC 221222 112341 5 9 ,461,53.32893753,5.932733536,28.49,0,0,0,256.62,256.62,0.01,459,8,26,314,55,122,8.63,100042,125.42
UTC 221222 112343 5 9 ,462,53.32892609,5.932659626,28.44,0,0,0,256.86,256.86,0.01,464,9,26,313,56,121,8.61,100040,125.42
UTC 221222 112344 5 9 ,463,53.32891846,5.93258667,28.43,0,0,0,257.02,257.02,0.01,450,7,26,314,55,121,8.6,100035,125.42
UTC 221222 112345 5 9 ,464,53.32890701,5.932513237,28.37,0,0,0,256.87,256.87,0.01,454,8,25,313,56,121,8.59,100042,125.42
UTC 221222 112346 5 9 ,465,53.32889938,5.932439327,28.35,0,0,0,256.91,256.91,0.01,454,8,26,314,56,120,8.57,100037,125.42
UTC 221222 112347 5 9 ,466,53.32888794,5.932365418,28.33,0,0,0,256.86,256.86,0.01,464,9,26,315,55,121,8.56,100039,125.42
UTC 221222 112348 5 9 ,467,53.32888031,5.932291508,28.3,0,0,0,256.87,256.87,0.01,450,7,26,314,55,120,8.55,100045,125.42
UTC 221222 112348 5 9 ,468,53.32886887,5.932219029,28.27,0,0,0,256.59,256.59,0.01,450,7,26,315,55,120,8.54,100052,125.42
UTC 221222 112348 5 9 ,469,53.32885742,5.932143211,28.26,0,0,0,256.21,256.21,0.01,445,6,26,314,55,120,8.53,100057,125.42
UTC 221222 112348 5 9 ,470,53.32884598,5.932070255,28.2,0,0,0,256.46,256.46,0.01,450,7,26,314,55,120,8.53,100057,125.42
UTC 221222 112348 5 9 ,471,53.32883835,5.931995392,28.18,0,0,0,256.32,256.32,0.01,459,8,25,315,55,120,8.52,100050,125.42
UTC 221222 112353 5 9 ,472,53.3288269,5.931923389,28.17,0,0,0,256.29,256.29,0.01,459,8,26,315,55,120,8.51,100053,125.42
UTC 221222 112354 5 9 ,473,53.32881927,5.931848049,28.13,0,0,0,256.51,256.51,0.01,459,8,26,314,55,121,8.51,100061,125.42
UTC 221222 112355 5 9 ,474,53.32880783,5.931776524,28.1,0,0,0,256.4,256.4,0.01,464,9,26,314,56,121,8.5,100061,125.42
UTC 221222 112356 5 9 ,475,53.3288002,5.931704521,28.05,0,0,0,256.78,256.78,0.01,454,8,26,314,55,120,8.49,100050,125.42
UTC 221222 112357 5 9 ,476,53.32878876,5.931632519,28.06,0,0,0,256.73,256.73,0.01,459,8,25,316,54,120,8.48,100046,125.42
UTC 221222 112358 5 9 ,477,53.32878113,5.931558132,28.04,0,0,0,256.54,256.54,0.01,454,8,26,314,55,120,8.47,100051,125.42
UTC 221222 112359 5 9 ,478,53.32876968,5.931483269,28.02,0,0,0,256.69,256.69,0.01,445,6,26,314,55,121,8.45,100045,125.42
UTC 221222 112400 5 9 ,479,53.32876205,5.93141222,27.96,0,0,0,256.85,256.85,0.01,450,7,26,314,55,120,8.45,100050,125.42
UTC 221222 112401 5 9 ,480,53.32875061,5.931340218,27.93,0,0,0,256.88,256.88,0.01,439,5,26,314,55,120,8.45,100046,125.42
UTC 221222 112402 5 9 ,481,53.32874298,5.931266785,27.9,0,0,0,256.92,256.92,0.01,445,6,26,314,55,119,8.44,100045,125.42
UTC 221222 112403 5 9 ,482,53.32873154,5.931190014,27.9,0,0,0,257.21,257.21,0.01,439,5,26,314,54,119,8.44,100047,125.42
UTC 221222 112404 5 9 ,483,53.32872391,5.931118965,27.87,0,0,0,256.83,256.83,0.01,445,6,26,315,55,120,8.44,100050,125.42
UTC 221222 112405 5 9 ,484,53.32871246,5.931042194,27.86,0,0,0,256.56,256.56,0.01,435,5,26,314,55,119,8.43,100049,125.42
UTC 221222 112406 5 9 ,485,53.32870102,5.930972099,27.82,0,0,0,256.52,256.52,0.01,435,5,25,314,55,119,8.43,100053,125.42
UTC 221222 112406 5 9 ,486,53.32869339,5.930901051,27.83,0,0,0,258.27,258.27,0.01,445,6,26,315,55,120,8.43,100054,125.42
UTC 221222 112406 5 9 ,487,53.3286972,5.930835247,27.77,0,0,0,286.94,286.94,0.01,439,5,25,315,55,121,8.43,100041,125.42
UTC 221222 112406 5 9 ,488,53.32872391,5.930782795,27.71,0,0,0,324,324,0.01,435,5,25,315,55,121,8.41,100046,125.42
UTC 221222 112406 5 9 ,489,53.32876205,5.930761337,27.6,0,0,0,347,347,0.01,464,9,26,316,56,120,8.45,100067,125.42
UTC 221222 112411 5 9 ,490,53.32880402,5.930755138,27.51,0,0,0,356.47,356.47,0.01,459,8,26,316,56,121,8.52,100081,125.42
UTC 221222 112412 5 9 ,491,53.32884216,5.930774212,27.41,0,0,0,26.84,26.84,0.01,476,11,26,315,55,121,8.59,100094,125.42
UTC 221222 112413 5 9 ,492,53.32886887,5.930820465,27.4,0,0,0,56.33,56.33,0.01,485,12,26,315,55,121,8.7,100094,125.42
UTC 221222 112414 5 9 ,493,53.32888031,5.930881023,27.46,0,0,0,75.72,75.72,0.01,476,11,27,315,55,121,8.76,100112,117.01
UTC 221222 112415 5 9 ,494,53.32888794,5.93094635,27.47,0,0,0,77.35,77.35,0.01,496,14,26,315,55,122,8.79,100113,117.01
UTC 221222 112416 5 9 ,495,53.32889557,5.931016445,27.48,0,0,0,77.61,77.61,0.01,498,14,26,315,55,122,8.85,100111,117.01
