TimeStamp (UTC)," ""TriggerID"""," ""Latitude"""," ""Longitude"""," ""Altitude (Meter AGL)""",Gimbal Roll," ""Gimbal Pitch"""," ""Gimbal Yaw"""," ""Drone Yaw"""," ""Combined Yaw""",HCHO (ppm),CO2 (ppm),TVOC (ppb),NO2 (ppm),C2H5OH (ppm),VOC (ppm),CO (ppm),Temp (Celcius),Pressure (pa),Altitude (meter)
UTC 221222 103848 5 9 ,1,53.32782745,5.934483051,0.13,0,0,0,80.91,80.91,0.01,478,11,70,309,139,143,12.92,100414,91.83
UTC 221222 103849 5 9 ,2,53.32782745,5.93448019,0.77,0,0,0,80.75,80.75,0.01,481,12,70,308,139,143,12.88,100414,91.83
UTC 221222 103850 5 9 ,3,53.32782745,5.934479237,1.11,0,0,0,80.56,80.56,0.01,488,13,69,309,139,143,12.85,100414,91.83
UTC 221222 103851 5 9 ,4,53.32782745,5.934479237,2.6,0,0,0,80.26,80.26,0.01,475,11,69,308,138,142,12.83,100390,100.22
UTC 221222 103852 5 9 ,5,53.32782745,5.934481621,5.78,0,0,0,80.67,80.67,0.01,459,8,69,308,139,142,12.77,100356,100.22
UTC 221222 103853 5 9 ,6,53.32782745,5.934484005,8.91,0,0,0,80.97,80.97,0.01,456,8,67,308,138,140,12.67,100325,100.22
UTC 221222 103854 5 9 ,7,53.32783127,5.934485436,11.95,0,0,0,81.07,81.07,0.01,456,8,67,308,137,140,12.63,100290,108.61
UTC 221222 103855 5 9 ,8,53.32783127,5.934485912,14.98,0,0,0,80.96,80.96,0.01,461,9,66,308,137,139,12.57,100249,108.61
UTC 221222 103855 5 9 ,9,53.32783127,5.934485912,17.88,0,0,0,81.34,81.34,0.01,447,7,66,307,137,140,12.49,100215,108.61
UTC 221222 103857 5 9 ,10,53.32783127,5.934485912,18.83,0,0,0,77.46,77.46,0.01,452,7,64,307,137,140,12.49,100194,117.01
UTC 221222 103858 5 9 ,11,53.32783127,5.934484482,18.66,0,0,0,59.9,59.9,0.01,442,6,63,305,135,141,12.43,100178,117.01
UTC 221222 103858 5 9 ,12,53.32783127,5.934492111,18.55,0,0,0,59.6,59.6,0.01,418,2,63,308,136,140,12.28,100170,117.01
UTC 221222 103858 5 9 ,13,53.32784653,5.934529781,18.44,0,0,0,60.16,60.16,0.01,418,2,62,308,136,141,12.16,100192,117.01
UTC 221222 103901 5 9 ,14,53.32786179,5.93458128,18.36,0,0,0,60.61,60.61,0.01,417,2,61,307,136,140,12.16,100202,108.61
UTC 221222 103902 5 9 ,15,53.32788467,5.934645176,18.32,0,0,0,60.68,60.68,0.01,418,2,61,308,135,140,12.17,100201,108.61
UTC 221222 103903 5 9 ,16,53.32790756,5.934715748,18.3,0,0,0,60.63,60.63,0.01,438,5,61,307,135,140,12.19,100205,108.61
UTC 221222 103904 5 9 ,17,53.32793045,5.934784889,18.29,0,0,0,60.66,60.66,0.01,427,4,60,307,135,140,12.18,100209,108.61
UTC 221222 103905 5 9 ,18,53.32794952,5.934852123,18.29,0,0,0,60.55,60.55,0.01,427,4,60,307,134,140,12.17,100207,108.61
UTC 221222 103906 5 9 ,19,53.32797241,5.934918404,18.3,0,0,0,60.57,60.57,0.01,427,4,60,307,134,139,12.17,100203,108.61
UTC 221222 103907 5 9 ,20,53.3279953,5.934984207,18.31,0,0,0,60.55,60.55,0.01,425,3,59,307,134,139,12.19,100205,108.61
UTC 221222 103908 5 9 ,21,53.32801819,5.935050011,18.31,0,0,0,60.46,60.46,0.01,438,5,58,308,134,140,12.18,100204,108.61
UTC 221222 103909 5 9 ,22,53.32803726,5.935115337,18.3,0,0,0,60.46,60.46,0.01,427,4,59,308,133,139,12.16,100204,108.61
UTC 221222 103910 5 9 ,23,53.32806015,5.935180187,18.29,0,0,0,60.56,60.56,0.01,425,3,59,307,134,138,12.15,100209,108.61
UTC 221222 103911 5 9 ,24,53.32808304,5.935245514,18.29,0,0,0,60.6,60.6,0.01,427,4,58,308,133,139,12.14,100207,108.61
UTC 221222 103912 5 9 ,25,53.32810211,5.935312748,18.29,0,0,0,60.56,60.56,0.01,425,3,58,308,133,139,12.13,100208,108.61
UTC 221222 103913 5 9 ,26,53.328125,5.935376644,18.3,0,0,0,60.42,60.42,0.01,438,5,58,308,133,139,12.1,100207,108.61
UTC 221222 103914 5 9 ,27,53.32814789,5.935442448,18.3,0,0,0,60.37,60.37,0.01,438,5,57,308,133,139,12.07,100206,108.61
UTC 221222 103915 5 9 ,28,53.32816696,5.935507774,18.3,0,0,0,60.5,60.5,0.01,425,3,57,308,132,140,12.06,100208,108.61
UTC 221222 103916 5 9 ,29,53.32818985,5.935569286,18.29,0,0,0,60.7,60.7,0.01,425,3,57,308,132,138,12.04,100205,108.61
UTC 221222 103917 5 9 ,30,53.32819748,5.935595512,18.25,0,0,0,56.21,56.21,0.01,422,3,56,308,132,139,12.01,100201,108.61
UTC 221222 103918 5 9 ,31,53.32819748,5.935591221,18.28,0,0,0,327.94,327.94,0.01,417,2,57,308,132,139,11.96,100173,117.01
UTC 221222 103919 5 9 ,32,53.32819366,5.935585022,18.3,0,0,0,256,256,0.01,418,2,57,309,132,139,11.93,100176,117.01
UTC 221222 103920 5 9 ,33,53.32818985,5.935576916,18.29,0,0,0,255.23,255.23,0.01,400,0,57,309,132,139,11.64,100168,117.01
UTC 221222 103921 5 9 ,34,53.32818604,5.935553074,18.29,0,0,0,255.33,255.33,0.01,400,0,56,309,132,138,11.43,100162,117.01
UTC 221222 103922 5 9 ,35,53.32818222,5.935510635,18.3,0,0,0,255.54,255.54,0.01,400,0,56,308,131,138,11.29,100161,117.01
UTC 221222 103923 5 9 ,36,53.32817459,5.935454369,18.27,0,0,0,255.57,255.57,0.01,405,0,56,306,131,137,11.09,100149,117.01
UTC 221222 103924 5 9 ,37,53.32816315,5.935389042,18.23,0,0,0,255.32,255.32,0.01,414,2,56,308,131,138,10.89,100151,117.01
UTC 221222 103925 5 9 ,38,53.3281517,5.935315132,18.22,0,0,0,255.02,255.02,0.01,400,0,55,309,130,138,10.71,100147,117.01
UTC 221222 103926 5 9 ,39,53.32814026,5.935237885,18.2,0,0,0,255.05,255.05,0.01,400,0,54,308,131,137,10.54,100154,117.01
UTC 221222 103927 5 9 ,40,53.32812881,5.935163975,18.16,0,0,0,255.07,255.07,0.01,400,0,54,308,130,137,10.37,100151,117.01
UTC 221222 103928 5 9 ,41,53.32811737,5.935090542,18.13,0,0,0,255.2,255.2,0.01,400,0,53,308,130,137,10.24,100151,117.01
UTC 221222 103929 5 9 ,42,53.32810593,5.935017586,18.11,0,0,0,255.2,255.2,0.01,405,0,53,308,130,137,10.1,100155,117.01
UTC 221222 103930 5 9 ,43,53.32809448,5.93494463,18.11,0,0,0,255.32,255.32,0.01,402,0,52,308,129,136,9.98,100145,117.01
UTC 221222 103931 5 9 ,44,53.32808304,5.93487072,18.1,0,0,0,254.87,254.87,0.01,402,0,53,310,129,135,9.88,100155,117.01
UTC 221222 103932 5 9 ,45,53.32807541,5.93479681,18.07,0,0,0,254.86,254.86,0.01,400,0,53,310,130,137,9.77,100161,117.01
UTC 221222 103933 5 9 ,46,53.32806396,5.934723854,18.03,0,0,0,255.47,255.47,0.02,400,0,52,309,129,136,9.65,100149,117.01
UTC 221222 103934 5 9 ,47,53.32805252,5.934651375,18.01,0,0,0,255.67,255.67,0.02,405,0,52,309,129,137,9.57,100159,117.01
UTC 221222 103935 5 9 ,48,53.32804108,5.934578896,18.01,0,0,0,255.16,255.16,0.02,407,1,52,310,129,137,9.47,100160,117.01
UTC 221222 103936 5 9 ,49,53.32802963,5.934504032,17.99,0,0,0,254.85,254.85,0.02,401,0,52,310,128,137,9.4,100162,117.01
UTC 221222 103937 5 9 ,50,53.32801819,5.934431076,17.98,0,0,0,254.94,254.94,0.02,401,0,51,309,128,136,9.32,100155,117.01
UTC 221222 103938 5 9 ,51,53.32801056,5.934359074,17.95,0,0,0,255.32,255.32,0.02,401,0,51,309,128,136,9.23,100154,117.01
UTC 221222 103939 5 9 ,52,53.32799912,5.934288025,17.92,0,0,0,255.41,255.41,0.02,400,0,51,311,128,136,9.15,100151,117.01
UTC 221222 103940 5 9 ,53,53.32798767,5.934216499,17.88,0,0,0,255.85,255.85,0.02,408,1,52,310,128,136,9.08,100148,117.01
UTC 221222 103941 5 9 ,54,53.32797623,5.934143066,17.88,0,0,0,255.58,255.58,0.02,400,0,51,310,127,136,9.01,100150,117.01
UTC 221222 103942 5 9 ,55,53.3279686,5.934069634,17.85,0,0,0,255.49,255.49,0.01,400,0,51,311,127,137,8.94,100152,117.01
UTC 221222 103943 5 9 ,56,53.32795715,5.933995724,17.85,0,0,0,255.03,255.03,0.01,402,0,51,309,127,136,8.89,100160,117.01
UTC 221222 103944 5 9 ,57,53.32794189,5.933922291,17.84,0,0,0,255.01,255.01,0.01,402,0,50,310,127,136,8.84,100161,117.01
UTC 221222 103945 5 9 ,58,53.32793045,5.933850288,17.81,0,0,0,254.95,254.95,0.01,408,1,50,308,127,136,8.8,100165,117.01
UTC 221222 103946 5 9 ,59,53.32792282,5.933775425,17.78,0,0,0,255.11,255.11,0.01,405,0,50,312,127,137,8.75,100163,117.01
UTC 221222 103947 5 9 ,60,53.32791138,5.933702469,17.73,0,0,0,255.31,255.31,0.01,402,0,49,312,126,136,8.71,100164,117.01
UTC 221222 103948 5 9 ,61,53.32789993,5.933628559,17.73,0,0,0,255.01,255.01,0.01,402,0,49,310,126,137,8.67,100161,117.01
UTC 221222 103949 5 9 ,62,53.32788849,5.93355608,17.68,0,0,0,255.53,255.53,0.01,400,0,49,312,127,136,8.62,100164,117.01
UTC 221222 103950 5 9 ,63,53.32787704,5.933483601,17.67,0,0,0,255.18,255.18,0.01,405,0,49,311,126,136,8.59,100166,117.01
UTC 221222 103951 5 9 ,64,53.32786942,5.933410168,17.67,0,0,0,255.2,255.2,0.01,408,1,49,312,125,136,8.55,100164,117.01
UTC 221222 103952 5 9 ,65,53.32785797,5.933336735,17.63,0,0,0,255.45,255.45,0,400,0,49,312,126,137,8.52,100164,117.01
UTC 221222 103953 5 9 ,66,53.32784653,5.933264256,17.62,0,0,0,255.14,255.14,0,403,0,48,312,125,136,8.48,100166,117.01
UTC 221222 103954 5 9 ,67,53.32783508,5.933190823,17.61,0,0,0,255.15,255.15,0,408,1,49,313,125,136,8.45,100165,117.01
UTC 221222 103955 5 9 ,68,53.32782364,5.933117867,17.6,0,0,0,255.09,255.09,0,408,1,49,313,125,136,8.42,100167,117.01
UTC 221222 103956 5 9 ,69,53.32781219,5.933043957,17.59,0,0,0,255.12,255.12,0,417,2,49,312,125,136,8.39,100170,117.01
UTC 221222 103957 5 9 ,70,53.32780075,5.932971478,17.56,0,0,0,255.05,255.05,0,408,1,48,312,125,136,8.37,100168,117.01
UTC 221222 103958 5 9 ,71,53.32778931,5.932898998,17.54,0,0,0,255.29,255.29,0,408,1,49,313,126,136,8.34,100167,117.01
UTC 221222 103959 5 9 ,72,53.32778168,5.932826042,17.52,0,0,0,255.46,255.46,0,408,1,49,313,125,136,8.32,100168,117.01
UTC 221222 104000 5 9 ,73,53.32777023,5.932752609,17.51,0,0,0,254.8,254.8,0,408,1,48,313,125,136,8.31,100171,117.01
UTC 221222 104001 5 9 ,74,53.32775879,5.932688713,17.52,0,0,0,254.6,254.6,0,418,2,48,313,124,136,8.29,100173,117.01
UTC 221222 104002 5 9 ,75,53.32775879,5.932647228,17.47,0,0,0,278.28,278.28,0,410,1,49,312,125,136,8.26,100172,117.01
UTC 221222 104003 5 9 ,76,53.32778168,5.932614803,17.46,0,0,0,327.76,327.76,0,414,2,49,313,125,137,8.26,100182,117.01
UTC 221222 104004 5 9 ,77,53.32780838,5.932604313,17.41,0,0,0,346.23,346.23,0,422,3,49,313,124,137,8.34,100193,117.01
UTC 221222 104005 5 9 ,78,53.32783508,5.932616711,17.41,0,0,0,27.14,27.14,0,434,4,50,313,125,137,8.43,100197,117.01
UTC 221222 104006 5 9 ,79,53.32785416,5.932662964,17.44,0,0,0,71.92,71.92,0,439,5,50,313,124,137,8.52,100217,108.61
UTC 221222 104007 5 9 ,80,53.32786179,5.932711601,17.45,0,0,0,75.17,75.17,0,445,6,49,313,125,138,8.57,100217,108.61
UTC 221222 104008 5 9 ,81,53.32786942,5.93277216,17.48,0,0,0,75.78,75.78,0,454,8,49,313,124,138,8.62,100217,108.61
UTC 221222 104009 5 9 ,82,53.32787704,5.932840824,17.5,0,0,0,75.7,75.7,0,464,9,49,313,124,138,8.68,100216,108.61
UTC 221222 104010 5 9 ,83,53.32788467,5.932914257,17.54,0,0,0,75.88,75.88,0,459,8,49,313,124,137,8.74,100215,108.61
UTC 221222 104011 5 9 ,84,53.32789612,5.932991028,17.56,0,0,0,75.74,75.74,0,464,9,50,314,124,138,8.82,100221,108.61
UTC 221222 104012 5 9 ,85,53.32790756,5.933064938,17.58,0,0,0,75.37,75.37,0,464,9,50,313,124,138,8.88,100216,108.61
UTC 221222 104013 5 9 ,86,53.32791901,5.933138847,17.61,0,0,0,75.68,75.68,0,476,11,50,313,124,138,8.92,100218,108.61
UTC 221222 104014 5 9 ,87,53.32793045,5.933212757,17.64,0,0,0,76.07,76.07,0,485,12,50,313,124,138,8.95,100215,108.61
UTC 221222 104015 5 9 ,88,53.32794189,5.933285713,17.66,0,0,0,76.02,76.02,0,477,11,50,313,124,138,8.99,100212,108.61
UTC 221222 104016 5 9 ,89,53.32794952,5.933359623,17.67,0,0,0,76.21,76.21,0,476,11,50,313,124,138,9.02,100213,108.61
UTC 221222 104016 5 9 ,90,53.32796097,5.933432102,17.69,0,0,0,76.2,76.2,0,477,11,50,314,124,138,9.06,100213,108.61
UTC 221222 104018 5 9 ,91,53.32797241,5.933504582,17.72,0,0,0,76.08,76.08,0,481,12,50,313,124,138,9.12,100211,108.61
UTC 221222 104018 5 9 ,92,53.32798386,5.933576107,17.73,0,0,0,76.19,76.19,0,487,13,50,313,124,138,9.17,100210,108.61
UTC 221222 104020 5 9 ,93,53.3279953,5.933648586,17.76,0,0,0,76.02,76.02,0,485,12,49,313,124,137,9.21,100208,108.61
UTC 221222 104021 5 9 ,94,53.32800674,5.93372488,17.79,0,0,0,76.07,76.07,0,481,12,50,313,124,138,9.22,100208,108.61
UTC 221222 104022 5 9 ,95,53.32801819,5.933795452,17.81,0,0,0,75.74,75.74,0,485,12,49,313,124,138,9.29,100214,108.61
UTC 221222 104023 5 9 ,96,53.32802963,5.933867455,17.84,0,0,0,76.1,76.1,0,485,12,49,313,124,138,9.35,100213,108.61
UTC 221222 104024 5 9 ,97,53.32803726,5.933939934,17.86,0,0,0,75.81,75.81,0,492,14,49,313,123,138,9.39,100212,108.61
UTC 221222 104025 5 9 ,98,53.32804871,5.93401432,17.88,0,0,0,76.14,76.14,0,496,14,49,312,123,137,9.43,100212,108.61
UTC 221222 104026 5 9 ,99,53.32806015,5.934089184,17.89,0,0,0,76.03,76.03,0,487,13,49,312,123,137,9.48,100211,108.61
UTC 221222 104027 5 9 ,100,53.32807159,5.934163094,17.91,0,0,0,75.99,75.99,0,481,12,49,312,123,138,9.5,100210,108.61
UTC 221222 104028 5 9 ,101,53.32808304,5.934236527,17.92,0,0,0,75.96,75.96,0,485,12,48,312,123,136,9.51,100206,108.61
UTC 221222 104029 5 9 ,102,53.32809448,5.934309959,17.94,0,0,0,75.59,75.59,0,481,12,48,311,123,137,9.54,100210,108.61
UTC 221222 104030 5 9 ,103,53.32810593,5.934382916,17.99,0,0,0,75.8,75.8,0,496,14,48,311,122,137,9.58,100209,108.61
UTC 221222 104031 5 9 ,104,53.32811737,5.934457779,18,0,0,0,76.32,76.32,0,481,12,48,312,122,137,9.59,100210,108.61
UTC 221222 104032 5 9 ,105,53.32812881,5.934530258,18.02,0,0,0,76.18,76.18,0,481,12,48,311,122,137,9.59,100207,108.61
UTC 221222 104033 5 9 ,106,53.32813644,5.934600353,18.05,0,0,0,76.12,76.12,0,485,12,48,312,122,137,9.61,100203,108.61
UTC 221222 104033 5 9 ,107,53.32814789,5.93467617,18.06,0,0,0,75.96,75.96,0,485,12,48,312,122,137,9.62,100206,108.61
UTC 221222 104033 5 9 ,108,53.32815933,5.93474865,18.08,0,0,0,76,76,0,492,14,48,312,122,136,9.63,100208,108.61
UTC 221222 104036 5 9 ,109,53.32817078,5.934821129,18.09,0,0,0,76.27,76.27,0.01,485,12,48,311,121,137,9.66,100207,108.61
UTC 221222 104037 5 9 ,110,53.32817841,5.934892654,18.12,0,0,0,75.93,75.93,0.01,481,12,48,311,122,137,9.68,100207,108.61
UTC 221222 104038 5 9 ,111,53.32818985,5.934966087,18.14,0,0,0,76.32,76.32,0.01,485,12,48,311,121,136,9.7,100212,108.61
UTC 221222 104039 5 9 ,112,53.32820129,5.935039997,18.16,0,0,0,76.05,76.05,0.01,481,12,48,312,122,136,9.69,100208,108.61
UTC 221222 104040 5 9 ,113,53.32821274,5.935110569,18.18,0,0,0,76,76,0.01,487,13,48,312,121,136,9.7,100206,108.61
UTC 221222 104041 5 9 ,114,53.32822418,5.935184479,18.19,0,0,0,76.07,76.07,0.01,485,12,48,311,121,137,9.73,100207,108.61
UTC 221222 104042 5 9 ,115,53.32823563,5.935256958,18.21,0,0,0,75.93,75.93,0.01,481,12,48,312,121,137,9.74,100209,108.61
UTC 221222 104043 5 9 ,116,53.32824326,5.935329914,18.24,0,0,0,75.91,75.91,0.01,481,12,48,312,121,137,9.74,100211,108.61
UTC 221222 104044 5 9 ,117,53.3282547,5.935404301,18.25,0,0,0,76.08,76.08,0.01,481,12,48,312,120,137,9.73,100207,108.61
UTC 221222 104045 5 9 ,118,53.32826614,5.935471535,18.24,0,0,0,76.6,76.6,0.01,485,12,48,312,121,137,9.75,100209,108.61
UTC 221222 104046 5 9 ,119,53.32827377,5.935511589,18.24,0,0,0,61.26,61.26,0.01,496,14,48,311,121,137,9.77,100198,117.01
UTC 221222 104047 5 9 ,120,53.32829666,5.935531139,18.29,0,0,0,12.58,12.58,0.01,477,11,48,312,121,137,9.77,100180,117.01
UTC 221222 104048 5 9 ,121,53.32832718,5.935518742,18.34,0,0,0,343.52,343.52,0.01,476,11,49,311,120,137,9.79,100175,117.01
UTC 221222 104049 5 9 ,122,53.32835007,5.935488224,18.37,0,0,0,312.14,312.14,0.01,477,11,49,312,121,137,9.81,100158,117.01
UTC 221222 104050 5 9 ,123,53.3283577,5.935438633,18.38,0,0,0,268.2,268.2,0.01,462,9,49,311,120,136,9.7,100155,117.01
UTC 221222 104051 5 9 ,124,53.32835007,5.935389519,18.37,0,0,0,255.14,255.14,0.01,472,10,48,312,120,136,9.58,100161,117.01
UTC 221222 104052 5 9 ,125,53.32834244,5.935333729,18.36,0,0,0,255.16,255.16,0.01,454,8,49,312,120,136,9.48,100156,117.01
UTC 221222 104053 5 9 ,126,53.32833099,5.935266495,18.35,0,0,0,255,255,0.01,445,6,48,312,120,135,9.37,100154,117.01
UTC 221222 104054 5 9 ,127,53.32831955,5.935191631,18.31,0,0,0,254.97,254.97,0.01,435,5,48,312,120,136,9.27,100150,117.01
UTC 221222 104055 5 9 ,128,53.32830811,5.935117245,18.31,0,0,0,254.9,254.9,0.01,434,5,48,311,120,136,9.17,100153,117.01
UTC 221222 104056 5 9 ,129,53.32829666,5.935041904,18.25,0,0,0,255.08,255.08,0.01,443,6,47,311,119,135,9.08,100157,117.01
UTC 221222 104057 5 9 ,130,53.32828522,5.934967995,18.25,0,0,0,255.24,255.24,0.01,434,5,47,313,119,135,9.01,100155,117.01
UTC 221222 104058 5 9 ,131,53.32827377,5.934894085,18.24,0,0,0,255.1,255.1,0.01,428,4,47,312,119,133,8.91,100159,117.01
UTC 221222 104059 5 9 ,132,53.32826233,5.934820652,18.22,0,0,0,254.9,254.9,0.01,422,3,47,312,119,135,8.85,100158,117.01
UTC 221222 104100 5 9 ,133,53.3282547,5.93474865,18.2,0,0,0,255.26,255.26,0.01,422,3,47,312,119,134,8.77,100158,117.01
UTC 221222 104101 5 9 ,134,53.32824326,5.93467474,18.17,0,0,0,255.32,255.32,0.01,428,4,46,312,119,135,8.7,100157,117.01
UTC 221222 104102 5 9 ,135,53.32823181,5.934601784,18.16,0,0,0,255.11,255.11,0.01,424,3,46,312,119,136,8.64,100161,117.01
UTC 221222 104103 5 9 ,136,53.32822037,5.934528828,18.14,0,0,0,254.77,254.77,0.01,418,2,47,312,118,134,8.6,100165,117.01
UTC 221222 104104 5 9 ,137,53.32820892,5.934455872,18.12,0,0,0,254.95,254.95,0.01,422,3,46,315,119,136,8.56,100165,117.01
UTC 221222 104105 5 9 ,138,53.32819748,5.934381962,18.11,0,0,0,255.26,255.26,0.01,418,2,47,313,118,135,8.51,100157,117.01
UTC 221222 104106 5 9 ,139,53.32818604,5.934309006,18.08,0,0,0,255.16,255.16,0.01,422,3,46,312,118,135,8.45,100155,117.01
UTC 221222 104107 5 9 ,140,53.32817841,5.934236527,18.07,0,0,0,255.35,255.35,0.01,428,4,46,312,118,134,8.41,100159,117.01
UTC 221222 104108 5 9 ,141,53.32816696,5.934163094,18.04,0,0,0,255.33,255.33,0.01,418,2,46,313,119,135,8.37,100167,117.01
UTC 221222 104109 5 9 ,142,53.32815552,5.934089661,18.02,0,0,0,255.1,255.1,0.01,417,2,46,313,118,135,8.33,100160,117.01
UTC 221222 104110 5 9 ,143,53.32814407,5.934017181,18,0,0,0,255.27,255.27,0.01,418,2,46,313,118,135,8.3,100160,117.01
UTC 221222 104111 5 9 ,144,53.32813263,5.933943749,17.97,0,0,0,255.23,255.23,0.01,417,2,46,312,117,134,8.27,100159,117.01
UTC 221222 104112 5 9 ,145,53.32812119,5.933870792,17.95,0,0,0,255.24,255.24,0.01,424,3,45,313,118,135,8.24,100157,117.01
UTC 221222 104113 5 9 ,146,53.32810974,5.933797836,17.94,0,0,0,255.25,255.25,0.01,414,2,46,313,117,134,8.22,100157,117.01
UTC 221222 104114 5 9 ,147,53.32810211,5.933725357,17.92,0,0,0,255.27,255.27,0.01,414,2,45,313,117,135,8.2,100165,117.01
UTC 221222 104115 5 9 ,148,53.32809067,5.933652401,17.91,0,0,0,255.34,255.34,0.01,410,1,46,313,117,134,8.17,100165,117.01
UTC 221222 104116 5 9 ,149,53.32807922,5.933578968,17.9,0,0,0,255.15,255.15,0.01,408,1,45,313,117,135,8.13,100155,117.01
UTC 221222 104117 5 9 ,150,53.32806778,5.933506012,17.89,0,0,0,254.98,254.98,0.01,414,2,45,313,117,135,8.11,100159,117.01
UTC 221222 104118 5 9 ,151,53.32805634,5.933432579,17.86,0,0,0,255.01,255.01,0.01,414,2,45,313,117,135,8.09,100162,117.01
UTC 221222 104119 5 9 ,152,53.32804489,5.933359623,17.86,0,0,0,254.85,254.85,0.01,410,2,44,313,116,135,8.07,100163,117.01
UTC 221222 104120 5 9 ,153,53.32803345,5.93328619,17.85,0,0,0,255.13,255.13,0.01,422,3,44,313,117,134,8.06,100163,117.01
UTC 221222 104121 5 9 ,154,53.328022,5.933213234,17.82,0,0,0,254.98,254.98,0.01,410,1,44,313,116,134,8.04,100164,117.01
UTC 221222 104122 5 9 ,155,53.32801437,5.933140278,17.81,0,0,0,255.32,255.32,0.01,410,1,45,313,116,135,8.02,100166,117.01
UTC 221222 104123 5 9 ,156,53.32800293,5.933066368,17.81,0,0,0,255.17,255.17,0.01,410,1,44,313,116,135,8,100168,117.01
UTC 221222 104124 5 9 ,157,53.32799149,5.932993412,17.79,0,0,0,254.92,254.92,0.01,410,1,44,314,117,134,7.99,100163,117.01
UTC 221222 104125 5 9 ,158,53.32798004,5.93292141,17.76,0,0,0,255.22,255.22,0.01,422,3,45,314,116,134,7.98,100159,117.01
UTC 221222 104126 5 9 ,159,53.3279686,5.932848454,17.76,0,0,0,255.13,255.13,0,414,2,44,314,116,135,7.96,100161,117.01
UTC 221222 104127 5 9 ,160,53.32795715,5.932775497,17.72,0,0,0,255.29,255.29,0,408,1,44,313,115,134,7.95,100170,117.01
UTC 221222 104128 5 9 ,161,53.32794952,5.932702065,17.71,0,0,0,255.21,255.21,0,406,0,44,313,115,135,7.93,100167,117.01
UTC 221222 104129 5 9 ,162,53.32793808,5.93263197,17.71,0,0,0,254.45,254.45,0,410,1,44,314,116,134,7.91,100164,117.01
UTC 221222 104130 5 9 ,163,53.32793045,5.932585716,17.7,0,0,0,261.55,261.55,0,417,2,44,315,116,135,7.9,100182,117.01
UTC 221222 104131 5 9 ,164,53.32794189,5.932545662,17.69,0,0,0,307.19,307.19,0,418,2,44,315,116,136,7.9,100176,117.01
UTC 221222 104132 5 9 ,165,53.32797241,5.932526588,17.7,0,0,0,342.3,342.3,0,422,3,45,314,115,135,7.94,100190,117.01
UTC 221222 104133 5 9 ,166,53.32799912,5.932527065,17.72,0,0,0,6.24,6.24,0,434,5,45,315,116,135,8.03,100190,117.01
UTC 221222 104134 5 9 ,167,53.328022,5.932560921,17.75,0,0,0,55.99,55.99,0,435,5,46,315,116,135,8.13,100217,108.61
UTC 221222 104135 5 9 ,168,53.32803345,5.932609558,17.76,0,0,0,74.98,74.98,0,450,7,45,315,116,136,8.18,100216,108.61
UTC 221222 104136 5 9 ,169,53.32803726,5.932664394,17.77,0,0,0,76.36,76.36,0,455,8,46,315,116,136,8.22,100216,108.61
UTC 221222 104137 5 9 ,170,53.32804489,5.932728767,17.8,0,0,0,76.04,76.04,0,454,8,46,315,116,136,8.28,100214,108.61
UTC 221222 104138 5 9 ,171,53.32805252,5.932798863,17.84,0,0,0,75.76,75.76,0,459,8,46,315,116,136,8.34,100211,108.61
UTC 221222 104139 5 9 ,172,53.32806396,5.932873726,17.86,0,0,0,75.88,75.88,0,462,9,46,315,116,136,8.4,100212,108.61
UTC 221222 104140 5 9 ,173,53.32807541,5.932949066,17.88,0,0,0,75.98,75.98,0,464,9,46,315,116,137,8.45,100210,108.61
UTC 221222 104141 5 9 ,174,53.32808685,5.933022976,17.91,0,0,0,76.11,76.11,0,481,12,46,315,116,137,8.52,100214,108.61
UTC 221222 104142 5 9 ,175,53.3280983,5.933096886,17.93,0,0,0,76.1,76.1,0,476,11,46,315,115,136,8.58,100210,108.61
UTC 221222 104143 5 9 ,176,53.32810974,5.933169842,17.95,0,0,0,75.66,75.66,0,476,11,46,315,115,137,8.62,100209,108.61
UTC 221222 104144 5 9 ,177,53.32812119,5.933241367,17.97,0,0,0,76.07,76.07,0,477,11,46,315,115,137,8.67,100209,108.61
UTC 221222 104145 5 9 ,178,53.32812881,5.933314323,18,0,0,0,75.89,75.89,0,481,12,46,314,115,136,8.73,100209,108.61
UTC 221222 104146 5 9 ,179,53.32814026,5.93338871,18.02,0,0,0,75.96,75.96,0,498,14,46,314,115,137,8.78,100209,108.61
UTC 221222 104147 5 9 ,180,53.3281517,5.93346405,18.04,0,0,0,76.09,76.09,0,481,12,46,315,116,137,8.8,100207,108.61
UTC 221222 104148 5 9 ,181,53.32816315,5.933536053,18.06,0,0,0,76.41,76.41,0,481,12,46,314,116,137,8.83,100208,108.61
UTC 221222 104149 5 9 ,182,53.32817459,5.933608532,18.07,0,0,0,76.2,76.2,0,485,12,46,314,116,137,8.86,100210,108.61
UTC 221222 104150 5 9 ,183,53.32818604,5.933680058,18.09,0,0,0,75.97,75.97,0,481,12,46,314,116,137,8.89,100210,108.61
UTC 221222 104151 5 9 ,184,53.32819748,5.933755398,18.12,0,0,0,75.94,75.94,0,496,14,46,314,116,137,8.96,100208,108.61
UTC 221222 104152 5 9 ,185,53.32820511,5.93382597,18.14,0,0,0,76.19,76.19,0,487,13,46,315,115,137,9.02,100205,108.61
UTC 221222 104153 5 9 ,186,53.32821655,5.933898449,18.15,0,0,0,76.01,76.01,0,492,14,47,315,115,137,9.05,100207,108.61
UTC 221222 104154 5 9 ,187,53.328228,5.933971882,18.17,0,0,0,76.03,76.03,0,487,13,47,314,115,137,9.09,100205,108.61
UTC 221222 104155 5 9 ,188,53.32823944,5.934044361,18.18,0,0,0,75.78,75.78,0,492,14,47,314,115,137,9.11,100204,108.61
UTC 221222 104156 5 9 ,189,53.32825089,5.934119225,18.2,0,0,0,75.54,75.54,0,502,15,46,314,115,137,9.15,100206,108.61
UTC 221222 104157 5 9 ,190,53.32826233,5.934195042,18.22,0,0,0,75.64,75.64,0,498,14,46,314,115,136,9.18,100203,108.61
UTC 221222 104158 5 9 ,191,53.32826996,5.934267044,18.25,0,0,0,76.38,76.38,0,496,14,46,314,114,137,9.19,100204,108.61
UTC 221222 104159 5 9 ,192,53.3282814,5.934339523,18.27,0,0,0,75.62,75.62,0,496,14,46,314,115,137,9.24,100205,108.61
UTC 221222 104200 5 9 ,193,53.32829285,5.934413433,18.29,0,0,0,75.91,75.91,0,492,14,46,314,115,136,9.25,100206,108.61
UTC 221222 104201 5 9 ,194,53.32830429,5.934488297,18.31,0,0,0,76.12,76.12,0,498,14,46,314,115,136,9.25,100205,108.61
UTC 221222 104202 5 9 ,195,53.32831573,5.934560776,18.33,0,0,0,76.17,76.17,0.01,502,15,47,314,115,136,9.27,100203,108.61
UTC 221222 104203 5 9 ,196,53.32832718,5.934631825,18.34,0,0,0,76.27,76.27,0.01,492,14,46,314,115,137,9.3,100203,108.61
UTC 221222 104204 5 9 ,197,53.32833862,5.934706211,18.35,0,0,0,76.09,76.09,0.01,492,14,46,313,115,136,9.35,100202,108.61
UTC 221222 104205 5 9 ,198,53.32835007,5.934778214,18.38,0,0,0,76.09,76.09,0.01,487,13,46,312,114,136,9.39,100204,108.61
UTC 221222 104206 5 9 ,199,53.32836151,5.934853077,18.39,0,0,0,75.66,75.66,0.01,496,14,46,313,114,136,9.41,100202,108.61
UTC 221222 104207 5 9 ,200,53.32836914,5.934926987,18.41,0,0,0,75.81,75.81,0.01,502,15,46,314,114,137,9.43,100202,108.61
UTC 221222 104208 5 9 ,201,53.32838058,5.935000897,18.44,0,0,0,76.23,76.23,0.01,496,14,46,313,115,136,9.47,100205,108.61
UTC 221222 104209 5 9 ,202,53.32839203,5.935074329,18.47,0,0,0,76.42,76.42,0.01,496,14,46,313,114,137,9.49,100204,108.61
UTC 221222 104210 5 9 ,203,53.32840347,5.935147286,18.5,0,0,0,75.35,75.35,0.01,496,14,46,313,114,137,9.52,100201,108.61
UTC 221222 104211 5 9 ,204,53.32841492,5.935221672,18.52,0,0,0,75.93,75.93,0.01,498,14,46,313,114,137,9.51,100200,108.61
UTC 221222 104212 5 9 ,205,53.32842636,5.935293675,18.53,0,0,0,76.21,76.21,0.01,506,16,46,313,114,137,9.53,100205,108.61
UTC 221222 104213 5 9 ,206,53.32843399,5.935364723,18.56,0,0,0,76.33,76.33,0.01,498,14,46,313,114,137,9.58,100203,108.61
UTC 221222 104214 5 9 ,207,53.32844543,5.935416699,18.56,0,0,0,74.36,74.36,0.01,496,14,46,313,114,136,9.58,100200,108.61
UTC 221222 104215 5 9 ,208,53.32846069,5.935447693,18.6,0,0,0,35.38,35.38,0.01,492,14,46,312,114,137,9.58,100182,117.01
UTC 221222 104216 5 9 ,209,53.3284874,5.935447693,18.68,0,0,0,348.89,348.89,0.01,481,12,46,313,113,136,9.57,100175,117.01
UTC 221222 104217 5 9 ,210,53.3285141,5.935427666,18.75,0,0,0,334.53,334.53,0.01,496,14,47,312,114,136,9.59,100164,117.01
UTC 221222 104218 5 9 ,211,53.32852936,5.935383797,18.79,0,0,0,288.57,288.57,0.01,485,12,46,312,114,136,9.55,100154,117.01
UTC 221222 104219 5 9 ,212,53.32852936,5.935332298,18.8,0,0,0,255.96,255.96,0.01,464,9,46,313,113,136,9.42,100157,117.01
UTC 221222 104220 5 9 ,213,53.32852173,5.935282707,18.78,0,0,0,254.91,254.91,0.01,464,9,46,313,113,136,9.34,100162,117.01
UTC 221222 104221 5 9 ,214,53.32851028,5.935220718,18.76,0,0,0,254.95,254.95,0.01,455,8,46,312,113,135,9.25,100157,117.01
UTC 221222 104222 5 9 ,215,53.32849884,5.9351511,18.73,0,0,0,255.02,255.02,0.01,459,8,45,313,113,135,9.16,100152,117.01
UTC 221222 104223 5 9 ,216,53.3284874,5.935076237,18.71,0,0,0,255.1,255.1,0.01,455,8,45,312,112,136,9.07,100153,117.01
UTC 221222 104224 5 9 ,217,53.32847595,5.935004711,18.68,0,0,0,255.08,255.08,0.01,439,5,45,312,113,135,9,100153,117.01
UTC 221222 104225 5 9 ,218,53.32846451,5.934928894,18.67,0,0,0,254.91,254.91,0.01,435,5,45,313,113,136,8.92,100148,117.01
UTC 221222 104226 5 9 ,219,53.32845306,5.934855461,18.64,0,0,0,255.4,255.4,0.01,434,5,45,313,112,135,8.84,100148,117.01
UTC 221222 104227 5 9 ,220,53.32844543,5.934781075,18.61,0,0,0,255.08,255.08,0.01,435,5,45,312,112,134,8.75,100145,117.01
UTC 221222 104228 5 9 ,221,53.32843399,5.934707642,18.6,0,0,0,254.9,254.9,0.01,443,6,45,313,112,135,8.67,100149,117.01
UTC 221222 104229 5 9 ,222,53.32842255,5.934634209,18.54,0,0,0,255.41,255.41,0.01,424,3,44,313,113,135,8.62,100159,117.01
UTC 221222 104230 5 9 ,223,53.3284111,5.934561729,18.51,0,0,0,255.38,255.38,0.01,428,4,44,312,111,134,8.57,100155,117.01
UTC 221222 104231 5 9 ,224,53.32839966,5.934486866,18.51,0,0,0,255,255,0.01,424,3,44,312,112,134,8.52,100158,117.01
UTC 221222 104232 5 9 ,225,53.32838821,5.934413433,18.48,0,0,0,254.85,254.85,0.01,422,3,44,313,112,135,8.46,100155,117.01
UTC 221222 104233 5 9 ,226,53.32837677,5.93434,18.47,0,0,0,255.2,255.2,0.01,435,5,44,314,112,135,8.42,100157,117.01
UTC 221222 104234 5 9 ,227,53.32836533,5.934267521,18.44,0,0,0,255.37,255.37,0.01,418,2,44,314,112,134,8.36,100158,117.01
UTC 221222 104235 5 9 ,228,53.32835388,5.934195995,18.41,0,0,0,255.2,255.2,0.01,434,5,43,313,111,134,8.31,100157,117.01
UTC 221222 104236 5 9 ,229,53.32834625,5.934123516,18.37,0,0,0,255.3,255.3,0.01,422,3,44,313,111,134,8.27,100157,117.01
UTC 221222 104237 5 9 ,230,53.32833481,5.934051037,18.34,0,0,0,255.27,255.27,0.01,410,1,43,313,111,134,8.24,100162,117.01
UTC 221222 104238 5 9 ,231,53.32832336,5.933977604,18.31,0,0,0,255.42,255.42,0.01,414,2,43,313,111,133,8.2,100156,117.01
UTC 221222 104239 5 9 ,232,53.32831192,5.933904648,18.31,0,0,0,255.2,255.2,0.01,414,2,43,314,111,133,8.16,100157,117.01
UTC 221222 104240 5 9 ,233,53.32830048,5.933832169,18.3,0,0,0,254.97,254.97,0.01,418,2,43,313,111,134,8.13,100160,117.01
UTC 221222 104241 5 9 ,234,53.32828903,5.933757305,18.26,0,0,0,255.04,255.04,0.01,418,2,43,314,110,133,8.1,100160,117.01
UTC 221222 104242 5 9 ,235,53.32827759,5.933683872,18.22,0,0,0,255.49,255.49,0.01,410,1,43,314,111,134,8.07,100157,117.01
UTC 221222 104243 5 9 ,236,53.32826996,5.933612347,18.18,0,0,0,255.52,255.52,0.01,410,1,43,313,110,134,8.04,100153,117.01
UTC 221222 104244 5 9 ,237,53.32825851,5.933539867,18.15,0,0,0,255.63,255.63,0.01,408,1,43,312,111,134,8.02,100158,117.01
UTC 221222 104245 5 9 ,238,53.32824707,5.933466911,18.15,0,0,0,255.4,255.4,0.01,408,1,43,312,111,133,8,100160,117.01
UTC 221222 104246 5 9 ,239,53.32823563,5.933393478,18.14,0,0,0,255.13,255.13,0.01,410,1,42,313,111,132,7.98,100160,117.01
UTC 221222 104247 5 9 ,240,53.32822418,5.933320999,18.11,0,0,0,255.21,255.21,0.01,400,0,42,312,110,133,7.96,100151,117.01
UTC 221222 104248 5 9 ,241,53.32821655,5.933248997,18.08,0,0,0,255.25,255.25,0.01,403,0,43,311,109,132,7.93,100161,117.01
UTC 221222 104249 5 9 ,242,53.32820511,5.933176041,18.06,0,0,0,255.16,255.16,0.01,402,0,42,311,110,133,7.91,100157,117.01
UTC 221222 104250 5 9 ,243,53.32819366,5.933103561,18.04,0,0,0,254.97,254.97,0.01,409,1,42,314,110,133,7.89,100167,117.01
UTC 221222 104251 5 9 ,244,53.32818222,5.933029175,18.02,0,0,0,254.83,254.83,0.01,420,3,42,315,109,134,7.88,100167,117.01
UTC 221222 104252 5 9 ,245,53.32817078,5.932956219,17.98,0,0,0,255.25,255.25,0.01,411,1,42,314,110,133,7.86,100163,117.01
UTC 221222 104253 5 9 ,246,53.32815933,5.93288374,17.94,0,0,0,255.28,255.28,0.01,409,1,42,313,109,133,7.85,100166,117.01
UTC 221222 104254 5 9 ,247,53.32814789,5.93281126,17.94,0,0,0,254.93,254.93,0.01,411,1,42,314,110,133,7.84,100174,117.01
UTC 221222 104255 5 9 ,248,53.32813644,5.932739258,17.9,0,0,0,255.17,255.17,0.01,411,1,42,313,110,133,7.83,100169,117.01
UTC 221222 104256 5 9 ,249,53.32812881,5.932666302,17.85,0,0,0,255.68,255.68,0.01,414,2,41,313,109,133,7.82,100163,117.01
UTC 221222 104257 5 9 ,250,53.32811737,5.932594776,17.85,0,0,0,255.12,255.12,0.01,409,1,41,314,109,133,7.81,100165,117.01
UTC 221222 104258 5 9 ,251,53.32810593,5.932533264,17.85,0,0,0,254.57,254.57,0.01,406,0,42,312,109,132,7.79,100170,117.01
UTC 221222 104259 5 9 ,252,53.32810593,5.932491779,17.79,0,0,0,280.73,280.73,0.01,402,0,41,313,110,132,7.77,100167,117.01
UTC 221222 104300 5 9 ,253,53.32812881,5.932458878,17.78,0,0,0,330.16,330.16,0.01,411,1,42,314,110,134,7.79,100188,117.01
UTC 221222 104301 5 9 ,254,53.32815552,5.932445049,17.71,0,0,0,347.22,347.22,0,427,4,42,314,109,134,7.88,100194,117.01
UTC 221222 104302 5 9 ,255,53.32818222,5.932458878,17.7,0,0,0,30.32,30.32,0,432,4,43,314,109,134,7.96,100207,108.61
UTC 221222 104303 5 9 ,256,53.32820129,5.932503223,17.73,0,0,0,72.28,72.28,0,436,5,43,315,110,134,8.03,100214,108.61
UTC 221222 104304 5 9 ,257,53.32820511,5.932551384,17.76,0,0,0,75.59,75.59,0,442,6,43,315,109,134,8.08,100215,108.61
UTC 221222 104305 5 9 ,258,53.32821274,5.932611466,17.79,0,0,0,75.79,75.79,0,451,7,43,314,109,134,8.13,100218,108.61
UTC 221222 104306 5 9 ,259,53.32822037,5.932678223,17.82,0,0,0,76.25,76.25,0,460,9,43,314,109,135,8.19,100217,108.61
UTC 221222 104307 5 9 ,260,53.32823181,5.932750225,17.85,0,0,0,76.37,76.37,0,470,10,43,314,109,135,8.25,100215,108.61
UTC 221222 104308 5 9 ,261,53.32824326,5.932821274,17.89,0,0,0,75.93,75.93,0,461,9,43,314,109,135,8.29,100213,108.61
UTC 221222 104309 5 9 ,262,53.32825089,5.932896614,17.93,0,0,0,75.69,75.69,0,464,9,43,315,109,135,8.32,100214,108.61
UTC 221222 104310 5 9 ,263,53.32826233,5.932971478,17.96,0,0,0,75.74,75.74,0,473,11,43,314,109,135,8.39,100215,108.61
UTC 221222 104311 5 9 ,264,53.32827377,5.933046818,18,0,0,0,76.12,76.12,0,482,12,43,315,109,136,8.43,100209,108.61
UTC 221222 104312 5 9 ,265,53.32828522,5.933119774,18.04,0,0,0,75.83,75.83,0,492,14,43,315,109,135,8.49,100210,108.61
UTC 221222 104313 5 9 ,266,53.32829666,5.933193207,18.08,0,0,0,75.71,75.71,0,482,12,43,314,109,135,8.53,100209,108.61
UTC 221222 104314 5 9 ,267,53.32830811,5.933266163,18.11,0,0,0,75.58,75.58,0,483,12,44,315,109,135,8.59,100210,108.61
UTC 221222 104315 5 9 ,268,53.32831955,5.933338165,18.14,0,0,0,75.75,75.75,0,483,12,43,314,109,135,8.66,100212,108.61
UTC 221222 104316 5 9 ,269,53.32833099,5.933413029,18.18,0,0,0,76.13,76.13,0,487,13,43,314,109,136,8.7,100206,108.61
UTC 221222 104317 5 9 ,270,53.32834244,5.933485508,18.21,0,0,0,75.85,75.85,0,502,15,43,314,109,136,8.76,100211,108.61
UTC 221222 104318 5 9 ,271,53.32835007,5.933559418,18.23,0,0,0,76.16,76.16,0,492,14,44,314,109,136,8.8,100205,108.61
UTC 221222 104319 5 9 ,272,53.32836151,5.933632374,18.26,0,0,0,76.1,76.1,0,492,14,43,314,109,136,8.86,100209,108.61
UTC 221222 104320 5 9 ,273,53.32837296,5.93370676,18.29,0,0,0,75.72,75.72,0,495,14,44,314,109,136,8.91,100205,108.61
UTC 221222 104321 5 9 ,274,53.3283844,5.93378067,18.33,0,0,0,75.96,75.96,0,495,14,44,314,109,136,8.95,100203,108.61
UTC 221222 104321 5 9 ,275,53.32839584,5.933853626,18.36,0,0,0,75.79,75.79,0,502,15,44,314,109,136,8.98,100202,108.61
UTC 221222 104321 5 9 ,276,53.32840729,5.933927059,18.4,0,0,0,75.88,75.88,0,495,14,44,314,109,136,9,100201,108.61
UTC 221222 104324 5 9 ,277,53.32841873,5.934000492,18.44,0,0,0,75.96,75.96,0.01,492,14,44,314,108,135,9.02,100199,117.01
UTC 221222 104325 5 9 ,278,53.32843018,5.934073448,18.48,0,0,0,76.17,76.17,0.01,492,14,44,314,108,136,9.05,100203,108.61
UTC 221222 104326 5 9 ,279,53.32843781,5.934145927,18.52,0,0,0,76.11,76.11,0.01,492,14,44,313,108,136,9.07,100200,108.61
UTC 221222 104327 5 9 ,280,53.32844925,5.934218407,18.53,0,0,0,76.35,76.35,0.01,495,14,44,313,108,136,9.11,100200,108.61
UTC 221222 104328 5 9 ,281,53.32846069,5.934289932,18.55,0,0,0,76.41,76.41,0.01,495,14,43,313,108,135,9.15,100204,108.61
UTC 221222 104329 5 9 ,282,53.32847214,5.934362888,18.59,0,0,0,76.12,76.12,0.01,487,13,43,312,108,135,9.17,100203,108.61
UTC 221222 104330 5 9 ,283,53.32848358,5.934435844,18.63,0,0,0,75.82,75.82,0.01,487,13,44,313,108,135,9.2,100203,108.61
UTC 221222 104331 5 9 ,284,53.32849503,5.934510231,18.66,0,0,0,76.26,76.26,0.01,487,13,43,312,108,135,9.23,100201,108.61
UTC 221222 104332 5 9 ,285,53.32850266,5.93458271,18.69,0,0,0,75.83,75.83,0.01,487,13,43,313,108,135,9.26,100199,117.01
UTC 221222 104333 5 9 ,286,53.3285141,5.934655666,18.73,0,0,0,76.09,76.09,0.01,498,14,43,312,108,135,9.3,100202,108.61
UTC 221222 104334 5 9 ,287,53.32852554,5.934727669,18.76,0,0,0,76.5,76.5,0.01,487,13,44,313,107,135,9.32,100198,117.01
UTC 221222 104335 5 9 ,288,53.32853699,5.934799194,18.78,0,0,0,75.9,75.9,0.01,487,13,43,311,108,135,9.3,100201,108.61
UTC 221222 104336 5 9 ,289,53.32854843,5.934872627,18.81,0,0,0,75.98,75.98,0.01,487,13,43,312,108,135,9.3,100201,108.61
UTC 221222 104337 5 9 ,290,53.32855606,5.934943199,18.85,0,0,0,76.08,76.08,0.01,487,13,43,312,108,135,9.33,100198,117.01
UTC 221222 104338 5 9 ,291,53.3285675,5.935017586,18.89,0,0,0,75.86,75.86,0.01,498,14,43,312,107,135,9.34,100198,117.01
UTC 221222 104339 5 9 ,292,53.32857895,5.935090542,18.93,0,0,0,75.89,75.89,0.01,483,12,43,312,108,135,9.34,100198,117.01
UTC 221222 104339 5 9 ,293,53.32859039,5.935163498,18.96,0,0,0,76.03,76.03,0.01,483,12,43,312,108,135,9.34,100202,108.61
UTC 221222 104339 5 9 ,294,53.32860184,5.935236454,19,0,0,0,75.82,75.82,0.01,483,12,43,311,107,135,9.36,100197,117.01
UTC 221222 104339 5 9 ,295,53.32861328,5.935304165,19.02,0,0,0,76.05,76.05,0.01,487,13,43,312,108,134,9.37,100199,117.01
UTC 221222 104343 5 9 ,296,53.32862091,5.935345173,19.04,0,0,0,64.83,64.83,0.01,495,14,43,311,107,134,9.41,100189,117.01
UTC 221222 104343 5 9 ,297,53.3286438,5.935367107,19.15,0,0,0,15.52,15.52,0.01,487,13,43,311,107,134,9.42,100173,117.01
UTC 221222 104343 5 9 ,298,53.3286705,5.935359001,19.3,0,0,0,344.08,344.08,0.01,478,11,43,312,107,134,9.43,100163,117.01
UTC 221222 104343 5 9 ,299,53.32869339,5.935333252,19.4,0,0,0,317.96,317.96,0.01,482,12,44,311,107,135,9.46,100158,117.01
UTC 221222 104343 5 9 ,300,53.32870483,5.935285091,19.43,0,0,0,271.2,271.2,0.01,470,10,44,312,107,134,9.4,100146,117.01
UTC 221222 104343 5 9 ,301,53.3286972,5.935236454,19.37,0,0,0,255.59,255.59,0.01,470,10,44,312,106,134,9.27,100156,117.01
UTC 221222 104343 5 9 ,302,53.32868958,5.935182571,19.34,0,0,0,255.3,255.3,0.01,460,7,43,312,106,135,9.19,100145,117.01
UTC 221222 104343 5 9 ,303,53.32867813,5.935118675,19.33,0,0,0,255.3,255.3,0.01,448,7,43,312,107,134,9.09,100142,117.01
UTC 221222 104343 5 9 ,304,53.3286705,5.935048103,19.27,0,0,0,255.57,255.57,0.01,448,7,43,313,107,133,9.01,100137,117.01
UTC 221222 104343 5 9 ,305,53.32865906,5.934971809,19.23,0,0,0,255.06,255.06,0.01,432,4,43,313,106,134,8.91,100146,117.01
UTC 221222 104343 5 9 ,306,53.32864761,5.934896946,19.18,0,0,0,254.99,254.99,0.01,427,4,43,312,106,134,8.83,100146,117.01
UTC 221222 104343 5 9 ,307,53.32863235,5.934822559,19.14,0,0,0,254.9,254.9,0.01,432,4,43,313,107,133,8.75,100146,117.01
UTC 221222 104343 5 9 ,308,53.32862473,5.93474865,19.1,0,0,0,255.03,255.03,0.01,427,4,42,313,106,133,8.68,100150,117.01
UTC 221222 104343 5 9 ,309,53.32861328,5.93467474,19.06,0,0,0,255.01,255.01,0.01,441,6,43,312,106,134,8.62,100148,117.01
UTC 221222 104343 5 9 ,310,53.32860184,5.934601784,19.02,0,0,0,255.03,255.03,0.01,424,3,43,313,106,134,8.56,100150,117.01
UTC 221222 104343 5 9 ,311,53.32859039,5.934528828,18.97,0,0,0,255.1,255.1,0.01,424,3,42,313,106,134,8.51,100155,117.01
UTC 221222 104343 5 9 ,312,53.32857895,5.934456348,18.95,0,0,0,255.04,255.04,0.01,423,3,42,313,105,133,8.46,100151,117.01
UTC 221222 104343 5 9 ,313,53.3285675,5.934384346,18.91,0,0,0,255.1,255.1,0.01,420,3,42,312,106,133,8.41,100153,117.01
UTC 221222 104343 5 9 ,314,53.32855606,5.934309959,18.87,0,0,0,254.95,254.95,0.01,427,4,42,313,105,133,8.36,100155,117.01
UTC 221222 104343 5 9 ,315,53.32854462,5.934236527,18.81,0,0,0,255.03,255.03,0.01,427,4,42,313,105,133,8.31,100158,117.01
UTC 221222 104343 5 9 ,316,53.32853699,5.934164047,18.75,0,0,0,255.11,255.11,0.01,416,2,42,313,106,133,8.27,100159,117.01
UTC 221222 104343 5 9 ,317,53.32852554,5.934090614,18.7,0,0,0,255.01,255.01,0.01,416,2,42,314,105,133,8.24,100152,117.01
UTC 221222 104343 5 9 ,318,53.3285141,5.934017181,18.65,0,0,0,255.15,255.15,0.01,420,3,42,314,105,133,8.2,100155,117.01
UTC 221222 104343 5 9 ,319,53.32850266,5.933943749,18.6,0,0,0,255.14,255.14,0.01,424,3,41,315,105,133,8.16,100156,117.01
UTC 221222 104343 5 9 ,320,53.32849121,5.933871269,18.55,0,0,0,255.42,255.42,0.01,423,3,42,313,106,133,8.13,100147,117.01
UTC 221222 104343 5 9 ,321,53.32848358,5.933799267,18.51,0,0,0,255.63,255.63,0.01,409,1,42,312,105,133,8.09,100148,117.01
UTC 221222 104343 5 9 ,322,53.32847214,5.933726788,18.48,0,0,0,255.56,255.56,0.01,411,1,41,312,105,133,8.07,100150,117.01
UTC 221222 104343 5 9 ,323,53.32846069,5.933654308,18.46,0,0,0,255.26,255.26,0.01,409,1,41,313,104,132,8.04,100150,117.01
UTC 221222 104343 5 9 ,324,53.32844925,5.933582306,18.42,0,0,0,255.13,255.13,0.01,411,1,41,312,104,132,8.02,100155,117.01
UTC 221222 104343 5 9 ,325,53.32843781,5.93351078,18.37,0,0,0,255,255,0.01,416,2,40,314,105,133,8,100158,117.01
UTC 221222 104343 5 9 ,326,53.32842636,5.933437824,18.31,0,0,0,255.19,255.19,0.01,406,0,41,312,104,132,7.98,100160,117.01
UTC 221222 104343 5 9 ,327,53.32841492,5.933364868,18.27,0,0,0,255.05,255.05,0.01,406,0,40,313,104,133,7.97,100164,117.01
UTC 221222 104343 5 9 ,328,53.32840729,5.933292389,18.24,0,0,0,255.19,255.19,0.01,402,0,41,313,105,133,7.95,100161,117.01
UTC 221222 104343 5 9 ,329,53.32839584,5.933218479,18.19,0,0,0,255.19,255.19,0.01,409,1,41,313,104,133,7.93,100162,117.01
UTC 221222 104343 5 9 ,330,53.3283844,5.933145523,18.13,0,0,0,254.94,254.94,0.01,423,3,40,315,105,133,7.93,100168,117.01
UTC 221222 104343 5 9 ,331,53.32837296,5.93307209,18.08,0,0,0,255,255,0.01,411,1,41,314,105,133,7.92,100171,117.01
UTC 221222 104343 5 9 ,332,53.32836151,5.932998657,18.03,0,0,0,255.16,255.16,0.01,414,2,40,314,105,133,7.91,100175,117.01
UTC 221222 104343 5 9 ,333,53.32835007,5.932926655,17.98,0,0,0,254.97,254.97,0.01,414,2,40,315,104,132,7.91,100170,117.01
UTC 221222 104343 5 9 ,334,53.32833862,5.932853222,17.94,0,0,0,255.32,255.32,0.01,414,2,41,314,104,133,7.89,100173,117.01
UTC 221222 104343 5 9 ,335,53.32833099,5.932780743,17.9,0,0,0,255.09,255.09,0.01,423,3,40,314,103,133,7.88,100172,117.01
UTC 221222 104343 5 9 ,336,53.32831955,5.932707787,17.85,0,0,0,255.12,255.12,0.01,416,2,40,315,104,134,7.87,100175,117.01
UTC 221222 104343 5 9 ,337,53.32830811,5.932634831,17.8,0,0,0,255.14,255.14,0.01,414,2,41,315,104,133,7.85,100178,117.01
UTC 221222 104343 5 9 ,338,53.32829666,5.932561874,17.74,0,0,0,255.25,255.25,0.01,414,2,41,314,104,133,7.85,100175,117.01
UTC 221222 104343 5 9 ,339,53.32828522,5.932488918,17.73,0,0,0,254.71,254.71,0.01,416,2,41,315,104,134,7.85,100177,117.01
UTC 221222 104343 5 9 ,340,53.32827759,5.932435989,17.7,0,0,0,257.02,257.02,0.01,424,3,40,315,104,134,7.84,100188,117.01
UTC 221222 104343 5 9 ,341,53.32828522,5.932395935,17.63,0,0,0,295.59,295.59,0.01,424,3,41,315,104,133,7.83,100187,117.01
UTC 221222 104343 5 9 ,342,53.32831192,5.932370186,17.6,0,0,0,339.72,339.72,0.01,423,3,41,315,103,134,7.86,100195,117.01
UTC 221222 104343 5 9 ,343,53.32833862,5.932364941,17.56,0,0,0,356.05,356.05,0.01,432,4,41,314,104,134,7.95,100206,108.61
UTC 221222 104431 5 9 ,344,53.32836533,5.932390213,17.57,0,0,0,46.04,46.04,0.01,441,6,42,316,104,134,8.04,100224,108.61
UTC 221222 104432 5 9 ,345,53.32837677,5.932439327,17.63,0,0,0,75.84,75.84,0.01,456,8,42,315,104,135,8.09,100219,108.61
UTC 221222 104433 5 9 ,346,53.32838058,5.932490826,17.65,0,0,0,75.44,75.44,0.01,464,9,42,316,104,135,8.13,100221,108.61
UTC 221222 104434 5 9 ,347,53.32838821,5.932554245,17.71,0,0,0,75.94,75.94,0.01,460,9,42,315,104,135,8.2,100221,108.61
UTC 221222 104435 5 9 ,348,53.32839966,5.93262434,17.76,0,0,0,76.04,76.04,0.01,460,9,41,315,105,135,8.27,100217,108.61
UTC 221222 104436 5 9 ,349,53.3284111,5.932698727,17.82,0,0,0,75.75,75.75,0,464,9,42,316,104,134,8.31,100212,108.61
UTC 221222 104437 5 9 ,350,53.32842255,5.932776451,17.89,0,0,0,75.72,75.72,0,470,10,42,315,104,135,8.38,100216,108.61
UTC 221222 104438 5 9 ,351,53.32843399,5.932850361,17.94,0,0,0,76.02,76.02,0,483,12,41,316,103,135,8.4,100213,108.61
UTC 221222 104439 5 9 ,352,53.32844162,5.932925224,18,0,0,0,76.08,76.08,0,478,11,42,316,105,136,8.45,100210,108.61
UTC 221222 104440 5 9 ,353,53.32845306,5.932999134,18.06,0,0,0,75.94,75.94,0,478,11,42,316,104,135,8.48,100210,108.61
UTC 221222 104441 5 9 ,354,53.32846451,5.933072567,18.13,0,0,0,75.89,75.89,0,483,12,42,316,105,135,8.52,100208,108.61
UTC 221222 104442 5 9 ,355,53.32847595,5.933146477,18.19,0,0,0,76.15,76.15,0,487,13,42,316,104,136,8.56,100208,108.61
UTC 221222 104443 5 9 ,356,53.3284874,5.933218956,18.24,0,0,0,76.24,76.24,0,495,14,42,316,105,136,8.59,100211,108.61
UTC 221222 104444 5 9 ,357,53.32849884,5.933291435,18.29,0,0,0,76.12,76.12,0,487,13,42,315,103,135,8.62,100211,108.61
UTC 221222 104444 5 9 ,358,53.32850647,5.933363438,18.35,0,0,0,75.87,75.87,0,483,12,42,314,104,136,8.63,100207,108.61
UTC 221222 104444 5 9 ,359,53.32851791,5.933438778,18.41,0,0,0,76.35,76.35,0,487,13,42,315,104,135,8.64,100203,108.61
UTC 221222 104444 5 9 ,360,53.32852936,5.933511257,18.46,0,0,0,75.58,75.58,0,487,13,42,315,104,136,8.68,100201,108.61
UTC 221222 104448 5 9 ,361,53.3285408,5.933583736,18.51,0,0,0,75.88,75.88,0,498,14,42,314,104,136,8.72,100208,108.61
UTC 221222 104449 5 9 ,362,53.32855225,5.933657169,18.57,0,0,0,75.92,75.92,0,495,14,42,315,104,136,8.76,100207,108.61
UTC 221222 104450 5 9 ,363,53.32856369,5.933729649,18.63,0,0,0,75.84,75.84,0,492,14,42,314,104,136,8.79,100207,108.61
UTC 221222 104451 5 9 ,364,53.32857513,5.933802605,18.69,0,0,0,75.97,75.97,0,492,14,42,315,103,135,8.82,100204,108.61
UTC 221222 104452 5 9 ,365,53.32858276,5.933877468,18.74,0,0,0,76.09,76.09,0.01,492,14,42,314,104,136,8.85,100204,108.61
UTC 221222 104453 5 9 ,366,53.32859421,5.933950901,18.78,0,0,0,75.86,75.86,0.01,502,15,42,314,103,135,8.87,100204,108.61
UTC 221222 104454 5 9 ,367,53.32860565,5.934024811,18.84,0,0,0,76.04,76.04,0.01,505,15,42,314,104,136,8.9,100201,108.61
UTC 221222 104455 5 9 ,368,53.3286171,5.934097767,18.9,0,0,0,75.93,75.93,0.01,498,14,42,315,104,136,8.95,100199,117.01
UTC 221222 104456 5 9 ,369,53.32862854,5.934170246,18.97,0,0,0,76.34,76.34,0.01,502,15,42,315,104,136,8.97,100201,108.61
UTC 221222 104457 5 9 ,370,53.32863998,5.934243202,19.02,0,0,0,75.85,75.85,0.01,502,15,42,314,104,136,9,100202,108.61
UTC 221222 104458 5 9 ,371,53.32865143,5.934314728,19.08,0,0,0,75.79,75.79,0.01,502,15,43,314,104,135,9.03,100197,117.01
UTC 221222 104458 5 9 ,372,53.32866287,5.934388638,19.13,0,0,0,75.82,75.82,0.01,514,17,42,314,103,135,9.04,100198,117.01
UTC 221222 104458 5 9 ,373,53.3286705,5.934459686,19.2,0,0,0,75.94,75.94,0.01,498,14,42,314,103,136,9.06,100197,117.01
UTC 221222 104501 5 9 ,374,53.32868195,5.93453455,19.27,0,0,0,76.05,76.05,0.01,492,14,42,313,103,135,9.08,100195,117.01
UTC 221222 104502 5 9 ,375,53.32869339,5.934607506,19.32,0,0,0,76.01,76.01,0.01,495,14,42,313,103,135,9.12,100197,117.01
UTC 221222 104503 5 9 ,376,53.32870483,5.934681892,19.38,0,0,0,76.19,76.19,0.01,492,14,41,312,103,134,9.16,100194,117.01
UTC 221222 104504 5 9 ,377,53.32871628,5.934751988,19.43,0,0,0,76.01,76.01,0.01,492,14,42,312,103,134,9.18,100191,117.01
UTC 221222 104505 5 9 ,378,53.32872772,5.934826851,19.49,0,0,0,75.9,75.9,0.01,483,12,42,312,103,134,9.19,100195,117.01
UTC 221222 104506 5 9 ,379,53.32873917,5.934900284,19.55,0,0,0,75.9,75.9,0.01,495,14,42,312,103,134,9.22,100192,117.01
UTC 221222 104507 5 9 ,380,53.3287468,5.934973717,19.6,0,0,0,76.18,76.18,0.01,492,14,41,312,103,134,9.24,100190,117.01
UTC 221222 104508 5 9 ,381,53.32875824,5.935046673,19.66,0,0,0,75.99,75.99,0.01,483,12,41,312,102,134,9.25,100194,117.01
UTC 221222 104509 5 9 ,382,53.32876968,5.935119152,19.7,0,0,0,75.79,75.79,0.01,483,12,42,312,102,135,9.27,100188,117.01
UTC 221222 104510 5 9 ,383,53.32878113,5.935191155,19.76,0,0,0,76.14,76.14,0.01,483,12,41,313,103,134,9.28,100190,117.01
UTC 221222 104511 5 9 ,384,53.32878876,5.935252667,19.8,0,0,0,76.21,76.21,0.01,487,13,41,313,103,134,9.29,100191,117.01
UTC 221222 104512 5 9 ,385,53.3288002,5.935286045,19.86,0,0,0,45.68,45.68,0.01,487,13,41,312,102,134,9.34,100175,117.01
UTC 221222 104513 5 9 ,386,53.3288269,5.935293675,19.99,0,0,0,355.91,355.91,0.01,478,11,41,313,102,134,9.34,100155,117.01
UTC 221222 104514 5 9 ,387,53.32885361,5.935276985,20.06,0,0,0,340.97,340.97,0.01,473,11,42,313,102,134,9.36,100153,117.01
UTC 221222 104515 5 9 ,388,53.32887268,5.935238361,20.1,0,0,0,299.75,299.75,0.01,470,10,42,313,102,134,9.34,100138,117.01
UTC 221222 104515 5 9 ,389,53.3288765,5.935185432,20.09,0,0,0,258.81,258.81,0.01,456,8,41,312,102,133,9.21,100144,117.01
UTC 221222 104515 5 9 ,390,53.32886887,5.935137749,20.05,0,0,0,255.25,255.25,0.01,461,9,42,313,102,133,9.12,100141,117.01
UTC 221222 104515 5 9 ,391,53.32886124,5.935079575,19.99,0,0,0,255.1,255.1,0.01,445,6,42,313,102,134,9.04,100143,117.01
UTC 221222 104515 5 9 ,392,53.32884979,5.935013771,19.93,0,0,0,255.11,255.11,0.01,442,6,41,312,102,133,8.96,100138,117.01
UTC 221222 104520 5 9 ,393,53.32883835,5.934943676,19.86,0,0,0,255.13,255.13,0.01,436,5,41,313,102,133,8.89,100134,117.01
UTC 221222 104521 5 9 ,394,53.3288269,5.934868813,19.82,0,0,0,255.05,255.05,0.01,432,4,41,312,102,133,8.8,100136,117.01
UTC 221222 104522 5 9 ,395,53.32881546,5.934792519,19.77,0,0,0,254.92,254.92,0.01,442,6,41,313,102,133,8.72,100138,117.01
UTC 221222 104523 5 9 ,396,53.32880402,5.934718609,19.72,0,0,0,254.78,254.78,0.01,432,4,41,314,102,133,8.65,100144,117.01
UTC 221222 104524 5 9 ,397,53.32879257,5.934644699,19.66,0,0,0,255.14,255.14,0.01,424,3,41,313,101,132,8.58,100137,117.01
UTC 221222 104525 5 9 ,398,53.32878113,5.934572697,19.57,0,0,0,255.31,255.31,0.01,423,3,41,310,101,133,8.52,100138,117.01
UTC 221222 104526 5 9 ,399,53.32876968,5.934497833,19.52,0,0,0,255.32,255.32,0.01,420,3,41,313,101,132,8.46,100142,117.01
UTC 221222 104527 5 9 ,400,53.32875824,5.9344244,19.44,0,0,0,255.12,255.12,0.01,427,4,40,313,101,132,8.4,100145,117.01
UTC 221222 104528 5 9 ,401,53.3287468,5.934351921,19.37,0,0,0,255.07,255.07,0.01,423,3,40,312,100,133,8.35,100147,117.01
UTC 221222 104529 5 9 ,402,53.32873535,5.934278965,19.3,0,0,0,255.1,255.1,0.01,420,3,40,314,101,133,8.31,100148,117.01
UTC 221222 104530 5 9 ,403,53.32872772,5.934206486,19.23,0,0,0,255.01,255.01,0.01,416,2,40,314,101,133,8.27,100149,117.01
UTC 221222 104531 5 9 ,404,53.32871628,5.934132099,19.17,0,0,0,255.01,255.01,0.01,420,3,40,313,100,132,8.22,100150,117.01
UTC 221222 104532 5 9 ,405,53.32870483,5.934059143,19.1,0,0,0,255.16,255.16,0.01,423,3,39,315,100,132,8.18,100151,117.01
UTC 221222 104533 5 9 ,406,53.32869339,5.933986187,19.04,0,0,0,255.03,255.03,0.01,420,3,39,313,100,132,8.13,100146,117.01
UTC 221222 104534 5 9 ,407,53.32868195,5.933912754,18.99,0,0,0,255.24,255.24,0.01,414,2,40,314,101,132,8.09,100149,117.01
UTC 221222 104535 5 9 ,408,53.3286705,5.933839321,18.92,0,0,0,254.96,254.96,0.01,411,1,40,315,100,133,8.06,100147,117.01
UTC 221222 104536 5 9 ,409,53.32866287,5.933765888,18.85,0,0,0,254.89,254.89,0.01,416,2,40,314,100,132,8.04,100150,117.01
UTC 221222 104537 5 9 ,410,53.32865143,5.933692932,18.78,0,0,0,255.39,255.39,0.01,414,2,39,314,100,132,8.02,100152,117.01
UTC 221222 104538 5 9 ,411,53.32863998,5.933619976,18.72,0,0,0,255.34,255.34,0.01,423,3,39,314,100,133,8,100156,117.01
UTC 221222 104539 5 9 ,412,53.32862854,5.933546066,18.67,0,0,0,255.04,255.04,0.01,411,1,39,315,100,132,7.98,100160,117.01
UTC 221222 104540 5 9 ,413,53.3286171,5.93347311,18.6,0,0,0,254.99,254.99,0.01,414,2,39,314,100,132,7.96,100160,117.01
UTC 221222 104541 5 9 ,414,53.32860565,5.933400154,18.53,0,0,0,254.94,254.94,0.01,414,2,39,315,100,133,7.95,100165,117.01
UTC 221222 104542 5 9 ,415,53.32859421,5.933326721,18.45,0,0,0,254.92,254.92,0.01,414,2,39,314,100,133,7.93,100163,117.01
UTC 221222 104543 5 9 ,416,53.32858658,5.933253288,18.39,0,0,0,255.16,255.16,0.01,424,3,39,315,100,133,7.92,100158,117.01
UTC 221222 104544 5 9 ,417,53.32857513,5.933180332,18.34,0,0,0,255.17,255.17,0.01,414,2,39,316,100,133,7.91,100162,117.01
UTC 221222 104545 5 9 ,418,53.32856369,5.933109283,18.25,0,0,0,255,255,0.01,416,2,39,315,100,132,7.9,100168,117.01
UTC 221222 104546 5 9 ,419,53.32855225,5.933034897,18.18,0,0,0,255.1,255.1,0.01,416,2,39,316,100,132,7.88,100170,117.01
UTC 221222 104547 5 9 ,420,53.3285408,5.932962418,18.11,0,0,0,255.31,255.31,0.01,414,2,39,314,100,133,7.86,100165,117.01
UTC 221222 104548 5 9 ,421,53.32852936,5.932889462,18.03,0,0,0,255.45,255.45,0.01,423,3,39,315,100,133,7.85,100159,117.01
UTC 221222 104549 5 9 ,422,53.32852173,5.932817936,17.96,0,0,0,255.55,255.55,0.01,414,2,39,315,100,132,7.84,100160,117.01
UTC 221222 104550 5 9 ,423,53.32851028,5.932745457,17.9,0,0,0,255.28,255.28,0.01,411,1,39,314,100,133,7.82,100166,117.01
UTC 221222 104551 5 9 ,424,53.32849884,5.932671547,17.82,0,0,0,255.32,255.32,0.01,406,0,39,315,100,132,7.81,100165,117.01
UTC 221222 104552 5 9 ,425,53.3284874,5.932598591,17.76,0,0,0,255.54,255.54,0.01,406,0,39,314,99,133,7.79,100159,117.01
UTC 221222 104553 5 9 ,426,53.32847595,5.932524681,17.72,0,0,0,255.39,255.39,0.01,409,1,39,314,99,132,7.77,100162,117.01
UTC 221222 104554 5 9 ,427,53.32846832,5.932451248,17.67,0,0,0,255.35,255.35,0.01,406,0,39,314,99,132,7.76,100165,117.01
UTC 221222 104555 5 9 ,428,53.32845688,5.932383061,17.65,0,0,0,254.34,254.34,0.01,400,0,39,313,99,132,7.75,100163,117.01
UTC 221222 104556 5 9 ,429,53.32844925,5.932337284,17.58,0,0,0,265.32,265.32,0.01,402,0,39,315,99,133,7.74,100177,117.01
UTC 221222 104557 5 9 ,430,53.32846451,5.932299614,17.53,0,0,0,312.99,312.99,0.01,402,0,38,315,99,132,7.73,100178,117.01
UTC 221222 104558 5 9 ,431,53.32849503,5.932283402,17.46,0,0,0,343.13,343.13,0.01,416,2,39,314,99,132,7.78,100192,117.01
UTC 221222 104559 5 9 ,432,53.32852173,5.932287216,17.44,0,0,0,11.73,11.73,0.01,434,5,38,314,100,132,7.86,100197,117.01
UTC 221222 104600 5 9 ,433,53.32854462,5.932326317,17.47,0,0,0,62.85,62.85,0.01,425,3,39,314,99,132,7.92,100217,108.61
UTC 221222 104601 5 9 ,434,53.32855225,5.932374001,17.51,0,0,0,75.19,75.19,0.01,426,3,39,314,99,133,7.98,100218,108.61
UTC 221222 104602 5 9 ,435,53.32855988,5.932431698,17.56,0,0,0,75.64,75.64,0.01,434,5,39,313,99,133,8.03,100218,108.61
UTC 221222 104603 5 9 ,436,53.3285675,5.932497501,17.61,0,0,0,75.71,75.71,0.01,439,5,38,314,99,132,8.06,100219,108.61
UTC 221222 104604 5 9 ,437,53.32857513,5.932570934,17.69,0,0,0,75.94,75.94,0.01,451,7,38,313,99,132,8.1,100217,108.61
UTC 221222 104605 5 9 ,438,53.32858658,5.932646275,17.76,0,0,0,75.93,75.93,0.01,439,5,39,312,98,132,8.15,100215,108.61
UTC 221222 104606 5 9 ,439,53.32859802,5.932723522,17.84,0,0,0,76.15,76.15,0.01,443,6,38,313,98,132,8.2,100216,108.61
UTC 221222 104607 5 9 ,440,53.32860947,5.932796955,17.92,0,0,0,76.32,76.32,0.01,443,6,38,313,98,131,8.23,100212,108.61
UTC 221222 104608 5 9 ,441,53.32862091,5.932869911,17.99,0,0,0,75.92,75.92,0.01,443,6,39,313,98,132,8.27,100211,108.61
UTC 221222 104609 5 9 ,442,53.32862854,5.93294239,18.06,0,0,0,75.93,75.93,0,451,7,38,312,99,132,8.3,100211,108.61
UTC 221222 104610 5 9 ,443,53.32863998,5.933014393,18.14,0,0,0,76.15,76.15,0,447,7,38,312,99,131,8.35,100207,108.61
UTC 221222 104611 5 9 ,444,53.32865143,5.933089256,18.2,0,0,0,76,76,0,444,6,39,313,98,132,8.39,100206,108.61
UTC 221222 104612 5 9 ,445,53.32866287,5.933162212,18.27,0,0,0,75.95,75.95,0,447,7,38,313,98,132,8.42,100205,108.61
UTC 221222 104613 5 9 ,446,53.32867432,5.933235645,18.33,0,0,0,76.17,76.17,0,447,7,38,312,98,132,8.47,100205,108.61
UTC 221222 104614 5 9 ,447,53.32868576,5.933309078,18.39,0,0,0,76.2,76.2,0,454,8,38,312,98,131,8.52,100202,108.61
UTC 221222 104615 5 9 ,448,53.3286972,5.933382034,18.47,0,0,0,76.15,76.15,0,459,8,38,313,98,132,8.55,100202,108.61
UTC 221222 104616 5 9 ,449,53.32870483,5.933455944,18.54,0,0,0,76.06,76.06,0,451,7,38,313,98,132,8.57,100200,108.61
UTC 221222 104617 5 9 ,450,53.32871628,5.9335289,18.63,0,0,0,75.69,75.69,0,454,8,38,313,98,132,8.59,100202,108.61
UTC 221222 104618 5 9 ,451,53.32872772,5.933602333,18.7,0,0,0,75.85,75.85,0.01,462,9,38,314,98,133,8.64,100199,117.01
UTC 221222 104619 5 9 ,452,53.32873917,5.933675766,18.76,0,0,0,75.91,75.91,0.01,463,9,39,314,98,133,8.68,100198,117.01
UTC 221222 104620 5 9 ,453,53.32875061,5.933748722,18.84,0,0,0,76.62,76.62,0.01,481,12,39,314,98,133,8.7,100195,117.01
UTC 221222 104621 5 9 ,454,53.32876205,5.933822155,18.92,0,0,0,75.98,75.98,0.01,466,10,39,314,99,133,8.71,100198,117.01
UTC 221222 104622 5 9 ,455,53.32876968,5.933893204,18.98,0,0,0,76.2,76.2,0.01,473,11,39,314,99,134,8.74,100196,117.01
UTC 221222 104623 5 9 ,456,53.32878113,5.933966637,19.05,0,0,0,76.14,76.14,0.01,476,11,39,314,98,133,8.77,100198,117.01
UTC 221222 104623 5 9 ,457,53.32879257,5.934036732,19.12,0,0,0,76.06,76.06,0.01,481,12,39,315,98,134,8.8,100196,117.01
UTC 221222 104623 5 9 ,458,53.32880402,5.934108257,19.18,0,0,0,75.6,75.6,0.01,485,12,39,314,99,133,8.85,100192,117.01
UTC 221222 104626 5 9 ,459,53.32881546,5.934182167,19.25,0,0,0,75.71,75.71,0.01,476,11,39,314,99,134,8.89,100188,117.01
UTC 221222 104627 5 9 ,460,53.3288269,5.934255123,19.32,0,0,0,75.64,75.64,0.01,491,13,40,315,99,134,8.92,100190,117.01
UTC 221222 104628 5 9 ,461,53.32883835,5.934328079,19.39,0,0,0,76.03,76.03,0.01,486,13,39,315,99,134,8.94,100188,117.01
UTC 221222 104629 5 9 ,462,53.32884979,5.934401989,19.46,0,0,0,75.95,75.95,0.01,485,12,39,314,99,134,8.96,100191,117.01
UTC 221222 104630 5 9 ,463,53.32885742,5.934473515,19.52,0,0,0,75.85,75.85,0.01,486,13,39,315,99,134,8.99,100189,117.01
UTC 221222 104631 5 9 ,464,53.32886887,5.934548378,19.59,0,0,0,76.01,76.01,0.01,486,13,39,314,98,134,9.01,100187,117.01
UTC 221222 104632 5 9 ,465,53.32888031,5.934621811,19.66,0,0,0,75.83,75.83,0.01,495,14,40,314,98,135,9.04,100191,117.01
UTC 221222 104633 5 9 ,466,53.32889175,5.934694767,19.74,0,0,0,75.81,75.81,0.01,497,14,39,314,99,135,9.06,100189,117.01
UTC 221222 104634 5 9 ,467,53.3289032,5.9347682,19.81,0,0,0,76.09,76.09,0.01,486,13,39,314,99,134,9.07,100189,117.01
UTC 221222 104635 5 9 ,468,53.32891464,5.934840202,19.88,0,0,0,76.04,76.04,0.01,491,13,40,315,98,134,9.1,100186,117.01
UTC 221222 104636 5 9 ,469,53.32892609,5.934914589,19.95,0,0,0,75.84,75.84,0.01,495,14,40,315,98,134,9.13,100185,117.01
UTC 221222 104637 5 9 ,470,53.32893753,5.934987545,20.02,0,0,0,75.98,75.98,0.01,491,13,40,315,99,135,9.15,100184,117.01
UTC 221222 104638 5 9 ,471,53.32894516,5.935060501,20.08,0,0,0,75.92,75.92,0.01,501,15,40,314,98,134,9.15,100181,117.01
UTC 221222 104639 5 9 ,472,53.3289566,5.935130596,20.16,0,0,0,76.42,76.42,0.01,486,13,40,315,99,134,9.14,100185,117.01
UTC 221222 104640 5 9 ,473,53.32896423,5.935180664,20.19,0,0,0,72.69,72.69,0.01,486,13,39,314,98,134,9.17,100181,117.01
UTC 221222 104640 5 9 ,474,53.32898331,5.935208321,20.2,0,0,0,30.2,30.2,0.01,485,12,39,313,98,134,9.17,100163,117.01
UTC 221222 104642 5 9 ,475,53.32901001,5.93520546,20.18,0,0,0,346.65,346.65,0.01,476,11,40,313,98,134,9.18,100153,117.01
UTC 221222 104643 5 9 ,476,53.3290329,5.935186386,20.14,0,0,0,331.13,331.13,0.01,491,13,40,313,98,134,9.18,100148,117.01
UTC 221222 104644 5 9 ,477,53.32904816,5.935142994,20.07,0,0,0,285.4,285.4,0.01,463,9,39,311,98,134,9.11,100132,117.01
UTC 221222 104645 5 9 ,478,53.32904434,5.93509388,20.09,0,0,0,255.46,255.46,0.01,454,8,40,312,97,133,9.01,100144,117.01
UTC 221222 104646 5 9 ,479,53.32903671,5.935043812,19.97,0,0,0,254.99,254.99,0.01,447,7,39,310,98,132,8.95,100137,117.01
UTC 221222 104647 5 9 ,480,53.32902908,5.934984207,19.95,0,0,0,254.99,254.99,0.01,443,6,39,312,97,132,8.87,100139,117.01
UTC 221222 104648 5 9 ,481,53.32901764,5.934918404,19.9,0,0,0,254.78,254.78,0.01,444,6,39,312,97,132,8.78,100130,117.01
UTC 221222 104649 5 9 ,482,53.3290062,5.934845924,19.85,0,0,0,255,255,0.01,434,5,38,313,97,132,8.7,100132,117.01
UTC 221222 104650 5 9 ,483,53.32899475,5.934770107,19.81,0,0,0,255,255,0.01,425,3,39,310,97,131,8.63,100137,117.01
UTC 221222 104651 5 9 ,484,53.32898331,5.934693337,19.74,0,0,0,255.02,255.02,0.01,418,2,38,313,96,132,8.55,100140,117.01
UTC 221222 104652 5 9 ,485,53.32897568,5.934619427,19.7,0,0,0,255.05,255.05,0.01,422,3,38,313,97,131,8.51,100138,117.01
UTC 221222 104653 5 9 ,486,53.32896423,5.934545994,19.62,0,0,0,255.17,255.17,0.01,418,2,38,313,96,131,8.44,100143,117.01
UTC 221222 104654 5 9 ,487,53.32895279,5.934473515,19.56,0,0,0,255.04,255.04,0.01,425,3,38,313,96,132,8.39,100146,117.01
UTC 221222 104655 5 9 ,488,53.32894135,5.934400559,19.48,0,0,0,255.42,255.42,0.01,414,2,39,312,96,130,8.33,100140,117.01
UTC 221222 104656 5 9 ,489,53.3289299,5.934326172,19.4,0,0,0,255.16,255.16,0.01,414,2,38,313,97,132,8.28,100148,117.01
UTC 221222 104657 5 9 ,490,53.32891846,5.934253693,19.35,0,0,0,254.86,254.86,0.01,414,2,38,313,96,131,8.23,100145,117.01
UTC 221222 104658 5 9 ,491,53.32890701,5.934180737,19.29,0,0,0,255.02,255.02,0.01,414,2,39,312,96,131,8.19,100140,117.01
UTC 221222 104659 5 9 ,492,53.32889557,5.934107781,19.22,0,0,0,255.03,255.03,0.01,425,3,38,315,96,131,8.14,100147,117.01
UTC 221222 104700 5 9 ,493,53.32888794,5.934034348,19.14,0,0,0,254.94,254.94,0.01,414,2,39,315,97,132,8.1,100150,117.01
UTC 221222 104701 5 9 ,494,53.3288765,5.933960915,19.06,0,0,0,255.06,255.06,0.01,414,2,38,315,96,132,8.08,100149,117.01
UTC 221222 104702 5 9 ,495,53.32886505,5.933888435,18.98,0,0,0,255,255,0.01,416,2,38,314,96,132,8.05,100152,117.01
