TimeStamp (UTC)," ""TriggerID"""," ""Latitude"""," ""Longitude"""," ""Altitude (Meter AGL)""",Gimbal Roll," ""Gimbal Pitch"""," ""Gimbal Yaw"""," ""Drone Yaw"""," ""Combined Yaw""",HCHO (ppm),CO2 (ppm),TVOC (ppb),NO2 (ppm),C2H5OH (ppm),VOC (ppm),CO (ppm),Temp (Celcius),Pressure (pa),Altitude (meter)
UTC 221212 122754 5 9 ,351,53.32791138,5.934297085,0,0,0,0,326.7,326.7,0.01,406,0,143,285,180,147,12.57,101337,16.64
UTC 221212 122755 5 9 ,352,53.32791138,5.934297085,0,0,0,0,326.67,326.67,0.01,410,1,143,285,180,147,12.57,101333,16.64
UTC 221212 122756 5 9 ,353,53.32791138,5.934297085,0,0,0,0,326.6,326.6,0.01,410,1,144,284,180,147,12.57,101333,16.64
UTC 221212 122757 5 9 ,354,53.32791138,5.934297562,0,0,0,0,326.54,326.54,0.01,410,1,143,284,179,146,12.49,101331,16.64
UTC 221212 122758 5 9 ,355,53.32790756,5.934298039,0.72,0,0,0,325.78,325.78,0.01,400,0,141,282,179,145,12.35,101326,16.64
UTC 221212 122758 5 9 ,356,53.32790756,5.934296608,4.66,0,0,0,325.93,325.93,0.01,400,0,141,283,179,146,12.32,101275,24.96
UTC 221212 122800 5 9 ,357,53.32791138,5.934296131,8.33,0,0,0,326.47,326.47,0.01,400,0,140,282,178,145,12.33,101232,24.96
UTC 221212 122801 5 9 ,358,53.32791138,5.934296131,8.79,0,0,0,325.99,325.99,0.01,400,0,138,282,177,144,12.19,101219,24.96
UTC 221212 122802 5 9 ,359,53.32791138,5.934296608,8.73,0,0,0,326.23,326.23,0.01,403,0,136,281,177,145,12.1,101219,24.96
UTC 221212 122803 5 9 ,360,53.32790756,5.934297085,8.7,0,0,0,326.15,326.15,0.01,403,0,135,282,177,144,11.99,101219,24.96
UTC 221212 122803 5 9 ,361,53.32790756,5.934296608,8.7,0,0,0,326.37,326.37,0.01,400,0,134,282,176,143,11.89,101218,24.96
UTC 221212 122805 5 9 ,362,53.32790756,5.934296608,8.73,0,0,0,326.23,326.23,0.01,400,0,133,282,176,143,11.79,101218,24.96
UTC 221212 122806 5 9 ,363,53.32790756,5.934296131,8.96,0,0,0,326.15,326.15,0.01,405,0,130,281,175,143,11.65,101214,24.96
UTC 221212 122807 5 9 ,364,53.32790756,5.934295654,11.07,0,0,0,325.93,325.93,0.01,405,0,129,282,175,142,11.46,101189,33.3
UTC 221212 122807 5 9 ,365,53.32791138,5.934295654,14.31,0,0,0,326.41,326.41,0.01,403,0,127,282,174,142,11.34,101149,33.3
UTC 221212 122809 5 9 ,366,53.32791138,5.934295654,17.41,0,0,0,326.38,326.38,0.01,400,0,125,278,174,142,11.17,101115,33.3
UTC 221212 122810 5 9 ,367,53.32791138,5.934296131,20.34,0,0,0,326.24,326.24,0.01,400,0,123,279,172,142,10.97,101071,41.64
UTC 221212 122811 5 9 ,368,53.32791138,5.934296131,23.38,0,0,0,326.2,326.2,0.01,400,0,121,280,172,142,10.82,101031,41.64
UTC 221212 122811 5 9 ,369,53.32791138,5.934296608,26.52,0,0,0,326.32,326.32,0.01,407,1,120,281,171,141,10.68,100994,49.99
UTC 221212 122813 5 9 ,370,53.32791138,5.934297085,29.12,0,0,0,326.35,326.35,0.01,409,1,120,284,172,141,10.55,100959,49.99
UTC 221212 122814 5 9 ,371,53.32791138,5.934297085,29.4,0,0,0,357.37,357.37,0.01,400,0,118,283,171,141,10.52,100953,49.99
UTC 221212 122815 5 9 ,372,53.32791138,5.934295654,29.15,0,0,0,68.11,68.11,0.01,407,1,118,282,171,140,10.42,100968,49.99
UTC 221212 122815 5 9 ,373,53.32791138,5.934297085,29.06,0,0,0,68.82,68.82,0.01,409,1,118,282,171,141,10.37,100969,49.99
UTC 221212 122817 5 9 ,374,53.32791519,5.934316635,29.07,0,0,0,68.71,68.71,0.01,409,1,116,281,170,140,10.32,100973,49.99
UTC 221212 122818 5 9 ,375,53.32792282,5.934354782,29.07,0,0,0,68.81,68.81,0.01,418,2,116,281,169,140,10.3,100972,49.99
UTC 221212 122819 5 9 ,376,53.32793427,5.934407711,29.06,0,0,0,68.86,68.86,0.01,403,0,116,281,170,139,10.05,100971,49.99
UTC 221212 122820 5 9 ,377,53.32794952,5.934466362,29.04,0,0,0,68.96,68.96,0.01,405,0,115,281,169,139,9.89,100969,49.99
UTC 221212 122821 5 9 ,378,53.32796478,5.934530735,29.01,0,0,0,68.97,68.97,0.01,400,0,115,281,169,140,9.75,100966,49.99
UTC 221212 122822 5 9 ,379,53.32798386,5.934606552,29,0,0,0,69.14,69.14,0.01,405,0,115,282,169,140,9.63,100959,49.99
UTC 221212 122823 5 9 ,380,53.32799912,5.934678078,29.01,0,0,0,68.88,68.88,0.01,410,1,114,282,168,140,9.49,100960,49.99
UTC 221212 122824 5 9 ,381,53.32801437,5.93475008,29,0,0,0,69.13,69.13,0.01,401,0,115,283,168,139,9.36,100961,49.99
UTC 221212 122825 5 9 ,382,53.32802963,5.934820175,28.96,0,0,0,69.22,69.22,0.01,400,0,115,283,168,140,9.18,100955,49.99
UTC 221212 122826 5 9 ,383,53.32804489,5.934891224,28.95,0,0,0,69.02,69.02,0.01,403,0,114,284,167,140,9.03,100956,49.99
UTC 221212 122827 5 9 ,384,53.32806396,5.934960842,28.97,0,0,0,69.04,69.04,0.01,405,0,114,283,167,140,8.85,100951,49.99
UTC 221212 122828 5 9 ,385,53.32807922,5.935031414,28.92,0,0,0,68.51,68.51,0.01,400,0,114,283,167,140,8.65,100973,49.99
UTC 221212 122829 5 9 ,386,53.32809448,5.935101032,28.92,0,0,0,68.78,68.78,0.02,405,0,114,283,166,139,8.58,100973,49.99
UTC 221212 122830 5 9 ,387,53.32811356,5.935170174,28.93,0,0,0,68.73,68.73,0.02,408,1,112,283,166,139,8.49,100973,49.99
UTC 221212 122831 5 9 ,388,53.32812881,5.935237885,28.94,0,0,0,68.69,68.69,0.02,409,1,112,282,166,140,8.48,100975,49.99
UTC 221212 122831 5 9 ,389,53.32814407,5.935310364,28.95,0,0,0,68.78,68.78,0.02,408,1,113,282,166,139,8.47,100971,49.99
UTC 221212 122833 5 9 ,390,53.32816315,5.935379505,28.96,0,0,0,68.73,68.73,0.02,408,1,112,283,165,139,8.43,100971,49.99
UTC 221212 122834 5 9 ,391,53.32817841,5.9354496,28.95,0,0,0,68.82,68.82,0.02,408,1,111,282,165,139,8.39,100971,49.99
UTC 221212 122835 5 9 ,392,53.32819366,5.935520649,28.93,0,0,0,68.88,68.88,0.02,405,0,112,282,164,139,8.27,100974,49.99
UTC 221212 122836 5 9 ,393,53.32820892,5.935591698,28.94,0,0,0,68.98,68.98,0.02,413,1,111,282,164,139,8.18,100971,49.99
UTC 221212 122837 5 9 ,394,53.32822037,5.935646534,28.9,0,0,0,69.71,69.71,0.02,400,0,111,282,164,139,8.11,100971,49.99
UTC 221212 122838 5 9 ,395,53.32822418,5.93566227,28.85,0,0,0,35.97,35.97,0.02,405,0,111,282,164,139,8.11,100976,49.99
UTC 221212 122839 5 9 ,396,53.32822418,5.935656548,28.94,0,0,0,306.63,306.63,0.02,400,0,110,282,163,138,8.09,100956,49.99
UTC 221212 122840 5 9 ,397,53.32822037,5.935651779,28.99,0,0,0,256.43,256.43,0.02,402,0,110,282,163,139,8.08,100947,49.99
UTC 221212 122841 5 9 ,398,53.32822037,5.935642719,29.01,0,0,0,256.99,256.99,0.02,410,1,110,283,162,139,7.97,100948,49.99
UTC 221212 122841 5 9 ,399,53.32821655,5.935616016,29.03,0,0,0,256.66,256.66,0.01,401,0,109,282,163,138,7.78,100947,49.99
UTC 221212 122843 5 9 ,400,53.32820892,5.935574532,29,0,0,0,256.48,256.48,0.01,400,0,109,282,162,139,7.63,100945,49.99
UTC 221212 122844 5 9 ,401,53.32820129,5.93552208,28.99,0,0,0,256.6,256.6,0.01,400,0,109,282,162,139,7.41,100944,49.99
UTC 221212 122845 5 9 ,402,53.32819366,5.935459614,29,0,0,0,256.61,256.61,0.01,400,0,108,283,161,138,7.18,100942,49.99
UTC 221212 122846 5 9 ,403,53.32818604,5.935389042,29.01,0,0,0,256.55,256.55,0.01,405,0,107,282,161,138,6.95,100940,49.99
UTC 221212 122847 5 9 ,404,53.32817459,5.935313702,29,0,0,0,256.37,256.37,0,402,0,107,282,161,138,6.74,100939,49.99
UTC 221212 122847 5 9 ,405,53.32816315,5.935235977,28.99,0,0,0,256.43,256.43,0,400,0,106,282,161,139,6.53,100942,49.99
UTC 221212 122849 5 9 ,406,53.32815552,5.935161591,29,0,0,0,256.51,256.51,0,400,0,105,283,161,138,6.38,100942,49.99
UTC 221212 122850 5 9 ,407,53.32814407,5.935088635,29.02,0,0,0,256.44,256.44,0,400,0,104,283,160,138,6.21,100941,49.99
UTC 221212 122850 5 9 ,408,53.32813644,5.935013771,29.01,0,0,0,256.56,256.56,0,409,1,104,284,160,138,6.03,100941,49.99
UTC 221212 122852 5 9 ,409,53.328125,5.934939861,28.99,0,0,0,256.53,256.53,0,409,1,104,283,160,138,5.89,100946,49.99
UTC 221212 122853 5 9 ,410,53.32811737,5.934868813,29,0,0,0,256.62,256.62,0,400,0,103,284,160,138,5.73,100941,49.99
UTC 221212 122853 5 9 ,411,53.32810593,5.934794426,29.01,0,0,0,256.57,256.57,0,402,0,103,284,159,138,5.59,100943,49.99
UTC 221212 122855 5 9 ,412,53.3280983,5.93472147,29.02,0,0,0,256.51,256.51,0,402,0,102,283,159,138,5.49,100941,49.99
UTC 221212 122856 5 9 ,413,53.32808685,5.934649944,29.05,0,0,0,256.19,256.19,0,405,0,102,285,158,137,5.41,100938,49.99
UTC 221212 122856 5 9 ,414,53.32807541,5.934575558,29.04,0,0,0,256.67,256.67,0,418,2,103,285,158,138,5.34,100940,49.99
UTC 221212 122858 5 9 ,415,53.32806778,5.934501171,29.02,0,0,0,256.46,256.46,0,405,0,102,284,158,138,5.22,100943,49.99
UTC 221212 122859 5 9 ,416,53.32805634,5.934429646,29.05,0,0,0,256.62,256.62,0,405,0,102,284,158,138,5.11,100946,49.99
UTC 221212 122859 5 9 ,417,53.32804871,5.934354305,29.09,0,0,0,256.44,256.44,0,402,0,100,285,157,138,5.04,100942,49.99
UTC 221212 122901 5 9 ,418,53.32803726,5.934281349,29.12,0,0,0,256.65,256.65,0,402,0,100,285,157,138,4.94,100939,49.99
UTC 221212 122902 5 9 ,419,53.32802963,5.934211254,29.13,0,0,0,256.56,256.56,0,413,1,100,284,157,138,4.82,100938,49.99
UTC 221212 122902 5 9 ,420,53.32801819,5.93413496,29.13,0,0,0,256.58,256.58,0,402,0,99,285,156,138,4.72,100936,49.99
UTC 221212 122904 5 9 ,421,53.32801056,5.934061527,29.15,0,0,0,256.59,256.59,0,400,0,100,285,157,138,4.62,100938,49.99
UTC 221212 122905 5 9 ,422,53.32799912,5.933990955,29.16,0,0,0,256.62,256.62,0,402,0,99,285,157,138,4.51,100936,49.99
UTC 221212 122905 5 9 ,423,53.32799149,5.933915138,29.16,0,0,0,256.7,256.7,0,400,0,99,286,156,137,4.45,100934,49.99
UTC 221212 122907 5 9 ,424,53.32798004,5.933841229,29.16,0,0,0,256.61,256.61,0.01,407,1,98,285,156,138,4.36,100939,49.99
UTC 221212 122908 5 9 ,425,53.32797241,5.933769226,29.14,0,0,0,256.51,256.51,0.01,406,0,98,285,155,138,4.28,100940,49.99
UTC 221212 122908 5 9 ,426,53.32796097,5.933694363,29.14,0,0,0,256.49,256.49,0,403,0,97,285,156,137,4.2,100944,49.99
UTC 221212 122910 5 9 ,427,53.32794952,5.93362093,29.16,0,0,0,256.52,256.52,0,400,0,97,286,155,136,4.12,100938,49.99
UTC 221212 122911 5 9 ,428,53.32794189,5.933547974,29.18,0,0,0,256.5,256.5,0,403,0,97,286,155,137,4.06,100939,49.99
UTC 221212 122911 5 9 ,429,53.32793045,5.933474064,29.19,0,0,0,256.55,256.55,0,409,1,97,286,155,137,3.99,100937,49.99
UTC 221212 122913 5 9 ,430,53.32792282,5.933400631,29.19,0,0,0,256.64,256.64,0,407,1,96,286,155,137,3.92,100938,49.99
UTC 221212 122914 5 9 ,431,53.32791138,5.933328629,29.21,0,0,0,256.66,256.66,0,400,0,96,285,154,137,3.86,100934,49.99
UTC 221212 122914 5 9 ,432,53.32790375,5.933253288,29.22,0,0,0,256.57,256.57,0,400,0,94,285,154,137,3.81,100935,49.99
UTC 221212 122916 5 9 ,433,53.3278923,5.933179855,29.23,0,0,0,256.54,256.54,0,400,0,94,286,154,137,3.75,100935,49.99
UTC 221212 122917 5 9 ,434,53.32788467,5.93310833,29.23,0,0,0,256.7,256.7,0,406,0,94,286,154,137,3.7,100935,49.99
UTC 221212 122917 5 9 ,435,53.32787323,5.933033466,29.23,0,0,0,256.53,256.53,0,411,1,94,286,153,136,3.65,100936,49.99
UTC 221212 122919 5 9 ,436,53.32786179,5.93296051,29.26,0,0,0,256.63,256.63,0,402,0,93,286,152,136,3.61,100931,49.99
UTC 221212 122920 5 9 ,437,53.32785416,5.932888508,29.27,0,0,0,256.64,256.64,0,402,0,93,286,153,137,3.56,100935,49.99
UTC 221212 122921 5 9 ,438,53.32784271,5.932814121,29.28,0,0,0,256.69,256.69,0,400,0,93,287,153,137,3.52,100934,49.99
UTC 221212 122922 5 9 ,439,53.32783508,5.932740212,29.27,0,0,0,256.61,256.61,0,406,0,92,287,152,137,3.48,100938,49.99
UTC 221212 122923 5 9 ,440,53.32782364,5.93266964,29.27,0,0,0,256.65,256.65,0,414,2,92,287,152,137,3.43,100937,49.99
UTC 221212 122924 5 9 ,441,53.32781601,5.932592869,29.29,0,0,0,256.52,256.52,0,402,0,92,287,152,136,3.4,100938,49.99
UTC 221212 122925 5 9 ,442,53.32780457,5.932519436,29.3,0,0,0,256.43,256.43,0,402,0,92,287,152,137,3.37,100938,49.99
UTC 221212 122926 5 9 ,443,53.32779694,5.932448864,29.31,0,0,0,256.62,256.62,0,402,0,91,288,152,137,3.31,100935,49.99
UTC 221212 122927 5 9 ,444,53.32778549,5.93237257,29.32,0,0,0,256.44,256.44,0,406,0,91,288,152,137,3.28,100937,49.99
UTC 221212 122928 5 9 ,445,53.32777405,5.932299137,29.31,0,0,0,256.74,256.74,0,416,2,91,288,152,136,3.25,100939,49.99
UTC 221212 122929 5 9 ,446,53.32776642,5.932229042,29.3,0,0,0,256.58,256.58,0,406,0,91,288,151,136,3.21,100938,49.99
UTC 221212 122930 5 9 ,447,53.32775497,5.932152271,29.32,0,0,0,256.66,256.66,0,406,0,90,288,150,137,3.18,100936,49.99
UTC 221212 122931 5 9 ,448,53.32774735,5.932078362,29.34,0,0,0,256.58,256.58,0,406,0,91,288,151,136,3.15,100936,49.99
UTC 221212 122932 5 9 ,449,53.3277359,5.932007313,29.35,0,0,0,256.59,256.59,0,406,0,90,288,151,136,3.12,100940,49.99
UTC 221212 122933 5 9 ,450,53.32772446,5.931932449,29.35,0,0,0,256.47,256.47,0,416,2,90,288,150,136,3.08,100933,49.99
UTC 221212 122934 5 9 ,451,53.32771683,5.93185854,29.34,0,0,0,256.52,256.52,0,409,1,90,288,150,136,3.06,100939,49.99
UTC 221212 122935 5 9 ,452,53.3277092,5.931787968,29.34,0,0,0,256.54,256.54,0,409,1,90,288,150,136,3.03,100938,49.99
UTC 221212 122936 5 9 ,453,53.32769775,5.931711674,29.35,0,0,0,256.4,256.4,0,406,0,89,288,149,136,2.99,100938,49.99
UTC 221212 122937 5 9 ,454,53.32768631,5.931637287,29.36,0,0,0,256.53,256.53,0,406,0,89,288,150,137,2.96,100938,49.99
UTC 221212 122938 5 9 ,455,53.32767868,5.931567669,29.38,0,0,0,256.51,256.51,0,416,2,89,288,149,136,2.94,100937,49.99
UTC 221212 122939 5 9 ,456,53.32766724,5.931491375,29.39,0,0,0,256.5,256.5,0,411,1,89,288,149,136,2.92,100940,49.99
UTC 221212 122940 5 9 ,457,53.32765961,5.931417942,29.38,0,0,0,256.55,256.55,0,409,1,89,289,149,137,2.89,100939,49.99
UTC 221212 122941 5 9 ,458,53.32764816,5.931345463,29.4,0,0,0,256.56,256.56,0,409,1,89,288,149,136,2.87,100936,49.99
UTC 221212 122942 5 9 ,459,53.32764053,5.93127346,29.41,0,0,0,256.07,256.07,0,409,1,89,289,149,136,2.85,100942,49.99
UTC 221212 122943 5 9 ,460,53.32763672,5.931208611,29.35,0,0,0,277.56,277.56,0,416,2,88,289,149,136,2.83,100945,49.99
UTC 221212 122944 5 9 ,461,53.32765961,5.931152344,29.2,0,0,0,312.29,312.29,0,420,3,88,289,148,136,2.83,100950,49.99
UTC 221212 122945 5 9 ,462,53.32770157,5.931121349,29.04,0,0,0,344.71,344.71,0,416,2,88,289,148,137,2.88,100958,49.99
UTC 221212 122946 5 9 ,463,53.32774353,5.931112289,29,0,0,0,352.03,352.03,0,423,3,88,289,148,137,2.93,100964,49.99
UTC 221212 122947 5 9 ,464,53.32778168,5.931130409,28.93,0,0,0,24.96,24.96,0,427,4,88,289,148,136,2.98,100967,49.99
UTC 221212 122948 5 9 ,465,53.32781219,5.931179524,28.85,0,0,0,56.46,56.46,0,441,6,89,289,148,137,3.03,100970,49.99
UTC 221212 122948 5 9 ,466,53.32782745,5.931246758,28.89,0,0,0,76.56,76.56,0,448,7,89,289,147,137,3.1,100968,49.99
UTC 221212 122950 5 9 ,467,53.32783127,5.931315422,28.98,0,0,0,76.96,76.96,0,442,6,89,290,148,137,3.15,100970,49.99
UTC 221212 122951 5 9 ,468,53.3278389,5.931388855,28.98,0,0,0,77.27,77.27,0,441,6,89,289,147,136,3.17,100965,49.99
UTC 221212 122952 5 9 ,469,53.32784653,5.931466579,28.97,0,0,0,77.23,77.23,0,441,6,89,289,147,136,3.22,100968,49.99
UTC 221212 122953 5 9 ,470,53.32785797,5.93154192,28.97,0,0,0,77.26,77.26,0,445,6,88,289,147,136,3.26,100967,49.99
UTC 221212 122954 5 9 ,471,53.3278656,5.931612015,28.97,0,0,0,77.14,77.14,0,456,8,88,289,147,137,3.29,100969,49.99
UTC 221212 122955 5 9 ,472,53.32787704,5.931688786,28.98,0,0,0,77.17,77.17,0,445,6,87,288,147,136,3.31,100969,49.99
UTC 221212 122956 5 9 ,473,53.32788467,5.931762695,29,0,0,0,77.21,77.21,0,445,6,87,289,146,136,3.33,100971,49.99
UTC 221212 122957 5 9 ,474,53.32789612,5.931835175,28.99,0,0,0,77.27,77.27,0,445,6,87,288,146,136,3.37,100966,49.99
UTC 221212 122958 5 9 ,475,53.32790375,5.931906223,29,0,0,0,77.31,77.31,0,448,7,87,288,146,136,3.41,100968,49.99
UTC 221212 122958 5 9 ,476,53.32791519,5.931982994,29.01,0,0,0,77.19,77.19,0,460,9,87,289,145,136,3.43,100965,49.99
UTC 221212 123000 5 9 ,477,53.32792282,5.932056904,29.01,0,0,0,77.2,77.2,0,448,7,87,289,145,136,3.48,100966,49.99
UTC 221212 123001 5 9 ,478,53.32793427,5.932128429,28.99,0,0,0,77.26,77.26,0,451,7,87,288,145,136,3.51,100967,49.99
UTC 221212 123001 5 9 ,479,53.32794571,5.932202339,28.99,0,0,0,77.14,77.14,0,448,7,86,288,145,136,3.53,100970,49.99
UTC 221212 123003 5 9 ,480,53.32795334,5.932276726,29,0,0,0,77.1,77.1,0,451,7,86,288,145,136,3.58,100969,49.99
UTC 221212 123004 5 9 ,481,53.32796478,5.932350159,29.03,0,0,0,77.13,77.13,0,461,9,86,289,145,137,3.6,100973,49.99
UTC 221212 123005 5 9 ,482,53.32797241,5.932423592,29.03,0,0,0,77.27,77.27,0,456,8,86,288,145,136,3.64,100972,49.99
UTC 221212 123006 5 9 ,483,53.32798386,5.932496548,29.05,0,0,0,77.4,77.4,0,451,7,86,289,144,136,3.66,100971,49.99
UTC 221212 123007 5 9 ,484,53.32799149,5.932569504,29.06,0,0,0,77.29,77.29,0,448,7,86,290,145,136,3.68,100971,49.99
UTC 221212 123008 5 9 ,485,53.32800293,5.93264389,29.05,0,0,0,77.1,77.1,0,451,7,86,289,144,136,3.72,100971,49.99
UTC 221212 123009 5 9 ,486,53.32801056,5.932717323,29.04,0,0,0,77.12,77.12,0,464,9,87,289,144,135,3.75,100970,49.99
UTC 221212 123010 5 9 ,487,53.328022,5.932791233,29.04,0,0,0,77.24,77.24,0,461,9,87,289,144,135,3.76,100968,49.99
UTC 221212 123011 5 9 ,488,53.32803345,5.932863236,29.04,0,0,0,77.3,77.3,0,460,9,86,288,144,137,3.77,100971,49.99
UTC 221212 123012 5 9 ,489,53.32804108,5.932936668,29.04,0,0,0,77.28,77.28,0,470,10,86,289,144,136,3.79,100969,49.99
UTC 221212 123013 5 9 ,490,53.32805252,5.933011055,29.01,0,0,0,77.24,77.24,0,460,9,86,288,143,136,3.81,100969,49.99
UTC 221212 123014 5 9 ,491,53.32806015,5.933083057,29.03,0,0,0,77.14,77.14,0,456,8,85,288,143,136,3.83,100967,49.99
UTC 221212 123014 5 9 ,492,53.32807159,5.933156967,29.05,0,0,0,77.19,77.19,0,456,8,85,288,143,136,3.83,100967,49.99
UTC 221212 123016 5 9 ,493,53.32807922,5.933231354,29.08,0,0,0,77.2,77.2,0,460,9,85,289,143,136,3.83,100969,49.99
UTC 221212 123017 5 9 ,494,53.32809067,5.933303833,29.11,0,0,0,77.25,77.25,0,470,10,85,289,143,136,3.84,100966,49.99
UTC 221212 123018 5 9 ,495,53.3280983,5.933378696,29.12,0,0,0,77.23,77.23,0,456,8,85,289,142,136,3.85,100966,49.99
UTC 221212 123019 5 9 ,496,53.32810974,5.933452606,29.08,0,0,0,77.26,77.26,0,451,7,84,289,143,136,3.84,100964,49.99
UTC 221212 123020 5 9 ,497,53.32812119,5.933526039,29.09,0,0,0,77.28,77.28,0,456,8,85,289,143,136,3.85,100966,49.99
UTC 221212 123021 5 9 ,498,53.32812881,5.933598518,29.1,0,0,0,77.13,77.13,0,460,9,84,289,143,136,3.85,100966,49.99
UTC 221212 123022 5 9 ,499,53.32814026,5.933671475,29.1,0,0,0,77.23,77.23,0,470,10,85,288,142,136,3.86,100968,49.99
UTC 221212 123023 5 9 ,500,53.32814789,5.933745384,29.12,0,0,0,77.21,77.21,0,456,8,84,289,141,135,3.9,100970,49.99
UTC 221212 123024 5 9 ,501,53.32815933,5.933819294,29.13,0,0,0,77.23,77.23,0,456,8,85,288,142,135,3.95,100967,49.99
UTC 221212 123025 5 9 ,502,53.32816696,5.933893681,29.13,0,0,0,77.26,77.26,0,456,8,85,288,141,136,3.97,100968,49.99
UTC 221212 123026 5 9 ,503,53.32817841,5.933966637,29.11,0,0,0,77.23,77.23,0,456,8,84,289,141,136,3.99,100969,49.99
UTC 221212 123027 5 9 ,504,53.32818604,5.934038162,29.13,0,0,0,77.18,77.18,0,470,10,85,291,142,136,3.99,100967,49.99
UTC 221212 123027 5 9 ,505,53.32819748,5.934113026,29.14,0,0,0,77.26,77.26,0,461,9,86,290,141,136,3.98,100965,49.99
UTC 221212 123029 5 9 ,506,53.32820511,5.934186459,29.15,0,0,0,77.51,77.51,0,460,9,86,291,141,136,3.97,100963,49.99
UTC 221212 123030 5 9 ,507,53.32821655,5.934256554,29.14,0,0,0,77.15,77.15,0,456,8,86,291,141,136,3.94,100966,49.99
UTC 221212 123031 5 9 ,508,53.328228,5.934332848,29.14,0,0,0,77.15,77.15,0,456,8,87,290,142,136,3.92,100968,49.99
UTC 221212 123032 5 9 ,509,53.32823563,5.934406757,29.16,0,0,0,76.95,76.95,0,464,9,86,290,141,137,3.92,100969,49.99
UTC 221212 123033 5 9 ,510,53.32824707,5.934476852,29.15,0,0,0,77.26,77.26,0,461,9,86,290,141,137,3.92,100967,49.99
UTC 221212 123034 5 9 ,511,53.32825851,5.934553146,29.15,0,0,0,77.45,77.45,0,456,8,86,289,140,136,3.91,100967,49.99
UTC 221212 123035 5 9 ,512,53.32826614,5.934627056,29.13,0,0,0,77.39,77.39,0,460,9,85,290,141,136,3.91,100962,49.99
UTC 221212 123036 5 9 ,513,53.32827377,5.934700489,29.15,0,0,0,77.58,77.58,0,460,9,85,290,141,136,3.88,100963,49.99
UTC 221212 123037 5 9 ,514,53.32828522,5.934772492,29.18,0,0,0,77.61,77.61,0,461,9,86,290,140,137,3.86,100962,49.99
UTC 221212 123037 5 9 ,515,53.32829285,5.934845924,29.17,0,0,0,77.12,77.12,0,460,9,85,290,140,136,3.83,100965,49.99
UTC 221212 123039 5 9 ,516,53.32830429,5.934919834,29.14,0,0,0,77.19,77.19,0,451,7,85,289,140,136,3.82,100968,49.99
UTC 221212 123040 5 9 ,517,53.32831573,5.934993267,29.15,0,0,0,77.18,77.18,0,451,7,85,289,140,136,3.81,100966,49.99
UTC 221212 123041 5 9 ,518,53.32832336,5.935066223,29.16,0,0,0,77.12,77.12,0,451,7,85,289,140,137,3.79,100969,49.99
UTC 221212 123042 5 9 ,519,53.32833481,5.935139656,29.17,0,0,0,77.16,77.16,0,460,9,84,289,139,136,3.78,100968,49.99
UTC 221212 123043 5 9 ,520,53.32834625,5.935210705,29.16,0,0,0,77.24,77.24,0,464,9,84,289,139,136,3.79,100971,49.99
UTC 221212 123044 5 9 ,521,53.32835388,5.935286522,29.17,0,0,0,77.15,77.15,0,456,8,84,289,140,136,3.82,100970,49.99
UTC 221212 123045 5 9 ,522,53.32836533,5.935359955,29.18,0,0,0,77.14,77.14,0,451,7,84,289,139,136,3.86,100967,49.99
UTC 221212 123046 5 9 ,523,53.32837296,5.935431004,29.18,0,0,0,77.54,77.54,0,451,7,84,289,138,135,3.86,100965,49.99
UTC 221212 123047 5 9 ,524,53.3283844,5.9354949,29.19,0,0,0,67.93,67.93,0,451,7,84,288,139,135,3.89,100967,49.99
UTC 221212 123048 5 9 ,525,53.32841492,5.935544014,29.32,0,0,0,33.69,33.69,0,470,10,83,289,138,135,3.9,100965,49.99
UTC 221212 123049 5 9 ,526,53.32845306,5.935558796,29.43,0,0,0,1.63,1.63,0,456,8,83,289,138,136,3.92,100968,49.99
UTC 221212 123050 5 9 ,527,53.32849121,5.935546398,29.52,0,0,0,347.03,347.03,0,460,9,83,289,138,136,3.95,100961,49.99
UTC 221212 123050 5 9 ,528,53.32852936,5.935517311,29.63,0,0,0,328.3,328.3,0,461,9,83,289,138,135,3.96,100958,49.99
UTC 221212 123052 5 9 ,529,53.32855225,5.935469151,29.72,0,0,0,298.41,298.41,0,460,9,83,289,138,136,3.96,100946,49.99
UTC 221212 123053 5 9 ,530,53.32855988,5.93541193,29.73,0,0,0,271.28,271.28,0,460,9,82,289,138,136,3.89,100943,49.99
UTC 221212 123053 5 9 ,531,53.32855225,5.935350418,29.71,0,0,0,257.21,257.21,0,436,5,82,289,138,135,3.8,100938,49.99
UTC 221212 123055 5 9 ,532,53.3285408,5.935287476,29.68,0,0,0,256.54,256.54,0,432,4,82,288,137,136,3.71,100933,49.99
UTC 221212 123056 5 9 ,533,53.32853317,5.935223579,29.64,0,0,0,256.56,256.56,0,424,3,81,289,137,136,3.61,100933,49.99
UTC 221212 123056 5 9 ,534,53.32852173,5.935148716,29.63,0,0,0,256.51,256.51,0,423,3,82,289,137,135,3.52,100931,49.99
UTC 221212 123058 5 9 ,535,53.32851028,5.935072899,29.67,0,0,0,256.42,256.42,0,427,4,81,288,138,135,3.42,100929,49.99
UTC 221212 123059 5 9 ,536,53.32850266,5.935001373,29.67,0,0,0,256.58,256.58,0,414,2,81,289,137,135,3.32,100936,49.99
UTC 221212 123059 5 9 ,537,53.32849121,5.934923172,29.63,0,0,0,256.58,256.58,0,411,1,81,289,136,136,3.25,100936,49.99
UTC 221212 123101 5 9 ,538,53.32848358,5.934849262,29.6,0,0,0,256.59,256.59,0,411,1,80,290,137,135,3.16,100931,49.99
UTC 221212 123102 5 9 ,539,53.32847595,5.93477869,29.61,0,0,0,256.59,256.59,0,411,1,80,289,137,135,3.11,100929,49.99
UTC 221212 123102 5 9 ,540,53.32846451,5.93470192,29.62,0,0,0,256.54,256.54,0,416,2,81,290,136,135,3.05,100935,49.99
UTC 221212 123104 5 9 ,541,53.32845306,5.93462801,29.61,0,0,0,256.39,256.39,0,414,2,80,290,137,135,2.98,100929,49.99
UTC 221212 123105 5 9 ,542,53.32844543,5.934558392,29.59,0,0,0,256.45,256.45,0,406,0,80,290,137,135,2.92,100933,49.99
UTC 221212 123105 5 9 ,543,53.32843399,5.934481621,29.57,0,0,0,255.94,255.94,0,411,1,80,291,136,135,2.9,100941,49.99
UTC 221212 123107 5 9 ,544,53.32842255,5.934407711,29.54,0,0,0,256.55,256.55,0,411,1,80,291,136,136,2.85,100937,49.99
UTC 221212 123108 5 9 ,545,53.32841492,5.934336186,29.52,0,0,0,256.38,256.38,0,423,3,81,291,136,136,2.81,100941,49.99
UTC 221212 123108 5 9 ,546,53.32840347,5.934260368,29.52,0,0,0,256.48,256.48,0,420,3,81,291,136,136,2.78,100942,49.99
UTC 221212 123110 5 9 ,547,53.32839584,5.934186935,29.52,0,0,0,256.43,256.43,0,420,3,81,291,136,136,2.76,100938,49.99
UTC 221212 123111 5 9 ,548,53.3283844,5.934113979,29.49,0,0,0,256.42,256.42,0,416,2,80,292,135,136,2.71,100937,49.99
UTC 221212 123111 5 9 ,549,53.32837677,5.9340415,29.5,0,0,0,256.73,256.73,0,416,2,81,291,136,135,2.66,100932,49.99
UTC 221212 123113 5 9 ,550,53.32836533,5.933968544,29.51,0,0,0,256.84,256.84,0,416,2,81,291,136,136,2.62,100933,49.99
UTC 221212 123114 5 9 ,551,53.3283577,5.933897972,29.49,0,0,0,256.66,256.66,0,420,3,81,291,135,135,2.56,100939,49.99
UTC 221212 123114 5 9 ,552,53.32834625,5.933821678,29.47,0,0,0,256.62,256.62,0,411,1,80,291,135,135,2.51,100934,49.99
UTC 221212 123116 5 9 ,553,53.32833862,5.933747292,29.45,0,0,0,256.64,256.64,0,411,1,80,291,135,136,2.46,100934,49.99
UTC 221212 123117 5 9 ,554,53.32832718,5.933677197,29.45,0,0,0,256.66,256.66,0,409,1,80,291,135,136,2.42,100937,49.99
UTC 221212 123118 5 9 ,555,53.32831955,5.933600426,29.45,0,0,0,256.54,256.54,0,411,1,80,291,134,135,2.38,100934,49.99
UTC 221212 123119 5 9 ,556,53.32830811,5.933526993,29.41,0,0,0,256.74,256.74,0,416,2,80,291,134,136,2.36,100936,49.99
UTC 221212 123120 5 9 ,557,53.32830048,5.933455944,29.4,0,0,0,256.51,256.51,0,409,1,79,292,135,136,2.33,100934,49.99
UTC 221212 123121 5 9 ,558,53.32828903,5.93337965,29.35,0,0,0,256.73,256.73,0,406,0,79,291,135,136,2.3,100935,49.99
UTC 221212 123122 5 9 ,559,53.32827759,5.933306217,29.32,0,0,0,256.67,256.67,0,406,0,79,290,135,135,2.26,100933,49.99
UTC 221212 123123 5 9 ,560,53.32826996,5.933237076,29.32,0,0,0,256.71,256.71,0,406,0,78,290,134,135,2.23,100935,49.99
UTC 221212 123124 5 9 ,561,53.32825851,5.933160305,29.35,0,0,0,256.59,256.59,0,414,2,78,290,134,135,2.2,100935,49.99
UTC 221212 123125 5 9 ,562,53.32825089,5.933086872,29.34,0,0,0,256.55,256.55,0,402,0,78,291,134,135,2.17,100935,49.99
UTC 221212 123126 5 9 ,563,53.32823944,5.933012962,29.29,0,0,0,256.62,256.62,0,402,0,78,291,134,135,2.14,100933,49.99
UTC 221212 123127 5 9 ,564,53.328228,5.932940006,29.28,0,0,0,256.42,256.42,0,400,0,78,290,134,135,2.11,100937,49.99
UTC 221212 123128 5 9 ,565,53.32822037,5.93286705,29.3,0,0,0,256.54,256.54,0,402,0,78,291,133,134,2.08,100936,49.99
UTC 221212 123129 5 9 ,566,53.32820892,5.932796478,29.29,0,0,0,256.62,256.62,0,414,2,77,290,134,135,2.06,100935,49.99
UTC 221212 123130 5 9 ,567,53.32820129,5.932719708,29.27,0,0,0,256.47,256.47,0,402,0,77,291,133,135,2.04,100935,49.99
UTC 221212 123131 5 9 ,568,53.32818985,5.932645798,29.28,0,0,0,256.45,256.45,0,402,0,77,291,133,135,2.01,100934,49.99
UTC 221212 123132 5 9 ,569,53.32818222,5.932572365,29.27,0,0,0,256.58,256.58,0,400,0,77,291,133,135,2,100937,49.99
UTC 221212 123133 5 9 ,570,53.32817078,5.932498932,29.24,0,0,0,256.63,256.63,0,400,0,77,291,133,135,1.97,100937,49.99
UTC 221212 123134 5 9 ,571,53.32815933,5.932425022,29.21,0,0,0,256.58,256.58,0,414,2,77,291,133,134,1.95,100935,49.99
UTC 221212 123135 5 9 ,572,53.3281517,5.932354927,29.2,0,0,0,256.55,256.55,0,407,1,77,291,133,134,1.93,100931,49.99
UTC 221212 123136 5 9 ,573,53.32814026,5.932278633,29.18,0,0,0,256.59,256.59,0,405,0,77,291,133,135,1.9,100935,49.99
UTC 221212 123137 5 9 ,574,53.32813263,5.9322052,29.17,0,0,0,256.63,256.63,0,405,0,76,291,132,135,1.89,100934,49.99
UTC 221212 123138 5 9 ,575,53.32812119,5.932131767,29.16,0,0,0,256.5,256.5,0,407,1,76,291,132,135,1.87,100937,49.99
UTC 221212 123139 5 9 ,576,53.32811356,5.932058811,29.13,0,0,0,256.61,256.61,0,413,1,77,292,132,135,1.85,100939,49.99
UTC 221212 123140 5 9 ,577,53.32810211,5.931985378,29.12,0,0,0,256.58,256.58,0,409,1,77,291,132,135,1.84,100934,49.99
UTC 221212 123141 5 9 ,578,53.32809448,5.931912422,29.08,0,0,0,256.67,256.67,0,405,0,76,292,132,135,1.83,100939,49.99
UTC 221212 123142 5 9 ,579,53.32808304,5.931838512,29.08,0,0,0,256.5,256.5,0,405,0,77,292,132,134,1.82,100933,49.99
UTC 221212 123143 5 9 ,580,53.32807159,5.93176508,29.1,0,0,0,256.55,256.55,0,400,0,76,291,132,135,1.8,100938,49.99
UTC 221212 123144 5 9 ,581,53.32806396,5.931691647,29.09,0,0,0,256.7,256.7,0,409,1,76,292,132,135,1.78,100937,49.99
UTC 221212 123145 5 9 ,582,53.32805252,5.931618214,29.06,0,0,0,256.7,256.7,0,409,1,76,291,132,135,1.76,100937,49.99
UTC 221212 123146 5 9 ,583,53.32804489,5.931545258,29.03,0,0,0,256.62,256.62,0,405,0,75,292,132,135,1.76,100937,49.99
UTC 221212 123147 5 9 ,584,53.32803345,5.931471348,29.03,0,0,0,256.49,256.49,0,405,0,76,291,132,135,1.74,100939,49.99
UTC 221212 123148 5 9 ,585,53.32802582,5.931398869,29.04,0,0,0,256.52,256.52,0,400,0,76,292,132,135,1.72,100935,49.99
UTC 221212 123149 5 9 ,586,53.32801437,5.931324959,29.01,0,0,0,256.55,256.55,0,407,1,75,292,131,135,1.71,100940,49.99
UTC 221212 123150 5 9 ,587,53.32800293,5.931251526,28.99,0,0,0,256.54,256.54,0,413,1,76,292,131,134,1.7,100937,49.99
UTC 221212 123151 5 9 ,588,53.3279953,5.931179047,29,0,0,0,256.21,256.21,0,405,0,76,292,131,135,1.69,100939,49.99
UTC 221212 123151 5 9 ,589,53.32798767,5.931114674,28.97,0,0,0,265.83,265.83,0,407,1,75,292,130,134,1.68,100940,49.99
UTC 221212 123153 5 9 ,590,53.32800293,5.931049347,28.92,0,0,0,300.64,300.64,0,407,1,75,292,131,134,1.69,100952,49.99
UTC 221212 123154 5 9 ,591,53.32803726,5.931008816,28.85,0,0,0,336.21,336.21,0,416,2,75,291,130,135,1.72,100961,49.99
UTC 221212 123155 5 9 ,592,53.32807922,5.930993557,28.89,0,0,0,348.21,348.21,0,432,4,75,292,130,134,1.76,100969,49.99
UTC 221212 123156 5 9 ,593,53.32812119,5.930998802,28.93,0,0,0,11.91,11.91,0,423,3,76,291,130,134,1.84,100967,49.99
UTC 221212 123157 5 9 ,594,53.32815933,5.931041718,28.92,0,0,0,46.52,46.52,0,432,4,75,291,131,135,1.89,100968,49.99
UTC 221212 123157 5 9 ,595,53.32817459,5.931105614,28.94,0,0,0,72.92,72.92,0,433,5,76,291,131,134,1.94,100972,49.99
UTC 221212 123159 5 9 ,596,53.32818222,5.931171894,29.04,0,0,0,76.74,76.74,0,436,5,76,292,130,135,1.97,100971,49.99
UTC 221212 123200 5 9 ,597,53.32818985,5.931243897,29.1,0,0,0,77.09,77.09,0,448,7,77,292,130,135,1.99,100970,49.99
UTC 221212 123201 5 9 ,598,53.32819748,5.931320667,29.11,0,0,0,77.19,77.19,0,439,5,77,292,130,134,2.05,100969,49.99
UTC 221212 123202 5 9 ,599,53.32820892,5.931397915,29.11,0,0,0,77.3,77.3,0,444,6,76,292,130,135,2.08,100968,49.99
UTC 221212 123203 5 9 ,600,53.32821655,5.931472302,29.11,0,0,0,77.21,77.21,0,447,7,76,292,130,135,2.13,100966,49.99
UTC 221212 123204 5 9 ,601,53.32822418,5.93154335,29.1,0,0,0,77.28,77.28,0,448,7,76,292,129,135,2.17,100965,49.99
UTC 221212 123205 5 9 ,602,53.32823563,5.931619644,29.14,0,0,0,77.26,77.26,0,466,10,77,292,130,135,2.22,100968,49.99
UTC 221212 123206 5 9 ,603,53.32824707,5.931693554,29.19,0,0,0,77.28,77.28,0,447,7,76,292,129,135,2.26,100964,49.99
UTC 221212 123207 5 9 ,604,53.3282547,5.931766987,29.24,0,0,0,77.32,77.32,0,447,7,77,292,130,135,2.31,100964,49.99
UTC 221212 123208 5 9 ,605,53.32826233,5.931836605,29.26,0,0,0,77.23,77.23,0,447,7,77,292,129,135,2.33,100966,49.99
UTC 221212 123208 5 9 ,606,53.32827377,5.931913376,29.24,0,0,0,77.3,77.3,0,452,7,76,292,130,134,2.37,100963,49.99
UTC 221212 123210 5 9 ,607,53.32828522,5.931986809,29.27,0,0,0,77.19,77.19,0,463,7,77,292,129,135,2.41,100966,49.99
UTC 221212 123211 5 9 ,608,53.32829285,5.932058811,29.31,0,0,0,77.24,77.24,0,452,7,77,291,130,135,2.43,100963,49.99
UTC 221212 123212 5 9 ,609,53.32830429,5.932132244,29.34,0,0,0,77.15,77.15,0,463,9,77,292,129,135,2.47,100964,49.99
UTC 221212 123212 5 9 ,610,53.32831192,5.932207584,29.35,0,0,0,77.19,77.19,0,459,8,77,292,129,135,2.52,100963,49.99
UTC 221212 123214 5 9 ,611,53.32832336,5.932281017,29.39,0,0,0,77.31,77.31,0,456,8,77,292,129,135,2.57,100965,49.99
UTC 221212 123215 5 9 ,612,53.32833099,5.93235302,29.43,0,0,0,77.25,77.25,0.01,452,7,77,291,129,135,2.61,100965,49.99
UTC 221212 123216 5 9 ,613,53.32834244,5.932427883,29.45,0,0,0,77.16,77.16,0.01,456,8,77,291,129,134,2.63,100964,49.99
UTC 221212 123217 5 9 ,614,53.32835388,5.932500839,29.47,0,0,0,77.27,77.27,0.01,459,8,77,291,128,135,2.66,100964,49.99
UTC 221212 123218 5 9 ,615,53.32836151,5.932574749,29.5,0,0,0,77.31,77.31,0.01,459,8,77,292,129,134,2.68,100962,49.99
UTC 221212 123219 5 9 ,616,53.32837296,5.932646751,29.5,0,0,0,77.24,77.24,0.01,456,8,77,291,129,134,2.69,100961,49.99
UTC 221212 123220 5 9 ,617,53.32838058,5.932722092,29.52,0,0,0,77.07,77.07,0.01,456,8,77,292,128,135,2.73,100964,49.99
UTC 221212 123221 5 9 ,618,53.32839203,5.932795525,29.55,0,0,0,77.27,77.27,0.01,456,8,76,292,128,134,2.77,100964,49.99
UTC 221212 123222 5 9 ,619,53.32839966,5.932868958,29.56,0,0,0,77.2,77.2,0,463,9,76,292,128,135,2.79,100965,49.99
UTC 221212 123223 5 9 ,620,53.3284111,5.932943344,29.55,0,0,0,77.3,77.3,0,466,10,77,291,128,134,2.81,100960,49.99
UTC 221212 123224 5 9 ,621,53.32841873,5.933015823,29.55,0,0,0,77.27,77.27,0,456,8,77,291,129,135,2.82,100959,49.99
UTC 221212 123225 5 9 ,622,53.32843018,5.933089733,29.6,0,0,0,77.39,77.39,0,456,8,77,292,128,135,2.84,100958,49.99
UTC 221212 123226 5 9 ,623,53.32843781,5.933160305,29.64,0,0,0,77.41,77.41,0,456,8,77,292,128,135,2.83,100954,49.99
UTC 221212 123227 5 9 ,624,53.32844925,5.933235645,29.64,0,0,0,77.33,77.33,0,459,8,77,292,128,136,2.84,100954,49.99
UTC 221212 123228 5 9 ,625,53.32846069,5.933309078,29.67,0,0,0,77.31,77.31,0,466,10,77,292,128,135,2.83,100954,49.99
UTC 221212 123229 5 9 ,626,53.32846832,5.933383465,29.72,0,0,0,77.43,77.43,0,456,8,77,292,127,135,2.84,100960,49.99
UTC 221212 123230 5 9 ,627,53.32847977,5.93345499,29.75,0,0,0,77.18,77.18,0,456,8,77,292,127,136,2.84,100956,49.99
UTC 221212 123231 5 9 ,628,53.3284874,5.933529377,29.76,0,0,0,77.05,77.05,0,452,7,77,292,127,135,2.84,100957,49.99
UTC 221212 123232 5 9 ,629,53.32849884,5.93360281,29.76,0,0,0,77.24,77.24,0,452,7,77,293,128,135,2.84,100955,49.99
UTC 221212 123233 5 9 ,630,53.32850647,5.933676243,29.79,0,0,0,77.3,77.3,0,470,10,77,293,128,135,2.83,100951,49.99
UTC 221212 123234 5 9 ,631,53.32851791,5.933747292,29.84,0,0,0,77.38,77.38,0,452,7,78,293,128,135,2.83,100954,49.99
UTC 221212 123234 5 9 ,632,53.32852936,5.933823109,29.87,0,0,0,77.31,77.31,0,456,8,77,293,128,136,2.83,100955,49.99
UTC 221212 123236 5 9 ,633,53.32853699,5.933896065,29.88,0,0,0,77.57,77.57,0,456,8,77,293,127,135,2.83,100951,49.99
UTC 221212 123237 5 9 ,634,53.32854843,5.933968544,29.88,0,0,0,77,77,0,456,8,77,292,127,135,2.84,100955,49.99
UTC 221212 123238 5 9 ,635,53.32855606,5.9340415,29.92,0,0,0,77.16,77.16,0,466,10,77,292,127,136,2.85,100954,49.99
UTC 221212 123238 5 9 ,636,53.3285675,5.934116364,29.94,0,0,0,77.15,77.15,0,452,7,77,292,126,135,2.87,100957,49.99
UTC 221212 123240 5 9 ,637,53.32857895,5.934189796,29.97,0,0,0,77.23,77.23,0,452,7,77,291,127,135,2.87,100958,49.99
UTC 221212 123241 5 9 ,638,53.32858658,5.934261799,30.01,0,0,0,77.14,77.14,0,456,8,77,292,126,135,2.88,100952,49.99
UTC 221212 123242 5 9 ,639,53.32859802,5.934336662,30.03,0,0,0,77.27,77.27,0,456,8,77,291,126,135,2.92,100955,49.99
UTC 221212 123243 5 9 ,640,53.32860565,5.934410572,30.03,0,0,0,77.31,77.31,0,470,10,76,292,126,135,2.95,100957,49.99
UTC 221212 123244 5 9 ,641,53.3286171,5.934482575,30.05,0,0,0,77.22,77.22,0,459,8,76,291,126,135,2.94,100952,49.99
UTC 221212 123245 5 9 ,642,53.32862473,5.934557915,30.09,0,0,0,77.32,77.32,0,456,8,77,291,126,136,2.96,100955,49.99
UTC 221212 123246 5 9 ,643,53.32863617,5.934630871,30.11,0,0,0,77.57,77.57,0,459,8,76,292,127,136,2.97,100949,49.99
UTC 221212 123247 5 9 ,644,53.3286438,5.934703827,30.14,0,0,0,76.98,76.98,0,459,8,76,292,126,136,2.98,100953,49.99
UTC 221212 123248 5 9 ,645,53.32865524,5.934776306,30.16,0,0,0,77.22,77.22,0,470,10,76,292,126,136,2.99,100952,49.99
UTC 221212 123248 5 9 ,646,53.32866669,5.934850693,30.15,0,0,0,77.13,77.13,0,459,8,77,292,126,136,3,100954,49.99
UTC 221212 123250 5 9 ,647,53.32867432,5.934923649,30.16,0,0,0,77.72,77.72,0,459,8,77,292,126,136,3.01,100947,49.99
UTC 221212 123251 5 9 ,648,53.32868576,5.934997082,30.21,0,0,0,77.73,77.73,0,459,8,77,292,126,135,2.99,100945,49.99
UTC 221212 123252 5 9 ,649,53.32869339,5.935070992,30.25,0,0,0,77.63,77.63,0,456,8,76,292,126,136,2.96,100936,49.99
UTC 221212 123253 5 9 ,650,53.32870483,5.935143471,30.28,0,0,0,77.22,77.22,0,463,9,77,292,125,136,2.94,100940,49.99
UTC 221212 123254 5 9 ,651,53.32871246,5.93521452,30.29,0,0,0,77.32,77.32,0,452,7,76,292,125,135,2.91,100941,49.99
UTC 221212 123254 5 9 ,652,53.32872391,5.935290337,30.3,0,0,0,77.48,77.48,0,448,7,76,292,126,136,2.9,100941,49.99
UTC 221212 123256 5 9 ,653,53.32873154,5.93535471,30.3,0,0,0,72.48,72.48,0,448,7,76,293,125,135,2.89,100946,49.99
UTC 221212 123257 5 9 ,654,53.32875824,5.935406685,30.43,0,0,0,42.14,42.14,0,456,8,77,293,125,136,2.92,100947,49.99
UTC 221212 123258 5 9 ,655,53.3288002,5.93543005,30.57,0,0,0,4.94,4.94,0,466,10,76,293,125,136,2.94,100942,49.99
UTC 221212 123259 5 9 ,656,53.32884216,5.93541956,30.66,0,0,0,346.91,346.91,0,463,9,77,292,125,136,2.94,100942,49.99
UTC 221212 123300 5 9 ,657,53.3288765,5.935394764,30.74,0,0,0,331.96,331.96,0,456,8,77,292,125,135,2.92,100937,49.99
UTC 221212 123301 5 9 ,658,53.3289032,5.935342312,30.86,0,0,0,299.38,299.38,0,452,7,77,292,125,135,2.91,100928,49.99
UTC 221212 123302 5 9 ,659,53.32891083,5.9352808,30.85,0,0,0,270.24,270.24,0,447,7,77,293,125,135,2.87,100925,49.99
UTC 221212 123303 5 9 ,660,53.3289032,5.935221195,30.84,0,0,0,256.95,256.95,0,448,7,77,292,125,136,2.82,100922,49.99
UTC 221212 123304 5 9 ,661,53.32889175,5.935153484,30.78,0,0,0,256.44,256.44,0,447,7,77,293,125,135,2.75,100919,49.99
UTC 221212 123305 5 9 ,662,53.32888031,5.935083389,30.73,0,0,0,256.23,256.23,0,439,5,76,292,125,136,2.71,100923,49.99
UTC 221212 123306 5 9 ,663,53.32887268,5.935009956,30.7,0,0,0,256.7,256.7,0,436,5,76,293,125,135,2.67,100920,49.99
UTC 221212 123307 5 9 ,664,53.32886124,5.934932709,30.68,0,0,0,256.63,256.63,0,433,5,76,291,124,135,2.59,100919,49.99
UTC 221212 123308 5 9 ,665,53.32885361,5.934857845,30.67,0,0,0,256.67,256.67,0,433,5,75,291,125,135,2.53,100916,49.99
UTC 221212 123309 5 9 ,666,53.32884216,5.934787273,30.61,0,0,0,256.58,256.58,0,436,5,76,290,124,135,2.47,100919,49.99
UTC 221212 123310 5 9 ,667,53.32883453,5.93471098,30.56,0,0,0,256.68,256.68,0,418,2,75,292,124,135,2.43,100928,49.99
UTC 221212 123311 5 9 ,668,53.32882309,5.93463707,30.55,0,0,0,256.58,256.58,0,421,3,75,292,124,136,2.37,100927,49.99
UTC 221212 123312 5 9 ,669,53.32881165,5.93456316,30.53,0,0,0,256.8,256.8,0,421,3,75,292,123,135,2.33,100920,49.99
UTC 221212 123313 5 9 ,670,53.32880402,5.934489727,30.51,0,0,0,256.59,256.59,0,421,3,74,292,123,135,2.28,100926,49.99
UTC 221212 123314 5 9 ,671,53.32879257,5.934416771,30.5,0,0,0,256.4,256.4,0,426,3,74,291,123,136,2.23,100915,49.99
UTC 221212 123315 5 9 ,672,53.32878494,5.934343815,30.44,0,0,0,256.66,256.66,0,413,1,73,291,123,135,2.17,100919,49.99
UTC 221212 123316 5 9 ,673,53.3287735,5.934270382,30.38,0,0,0,256.6,256.6,0,409,1,73,291,123,134,2.12,100921,49.99
UTC 221212 123316 5 9 ,674,53.32876587,5.934196949,30.35,0,0,0,256.55,256.55,0,407,1,73,291,123,135,2.09,100922,49.99
UTC 221212 123318 5 9 ,675,53.32875443,5.934122562,30.33,0,0,0,256.5,256.5,0,409,1,72,291,122,135,2.05,100925,49.99
UTC 221212 123319 5 9 ,676,53.32874298,5.93405056,30.31,0,0,0,256.54,256.54,0,418,2,72,291,122,134,2.01,100923,49.99
UTC 221212 123319 5 9 ,677,53.32873535,5.93397522,30.28,0,0,0,256.44,256.44,0,407,1,73,292,123,134,1.98,100923,49.99
UTC 221212 123321 5 9 ,678,53.32872391,5.933901787,30.24,0,0,0,256.45,256.45,0,407,1,73,293,123,134,1.97,100929,49.99
UTC 221212 123322 5 9 ,679,53.32871628,5.933831692,30.2,0,0,0,256.46,256.46,0,409,1,73,293,123,135,1.94,100926,49.99
UTC 221212 123322 5 9 ,680,53.32870483,5.933753967,30.16,0,0,0,256.45,256.45,0,407,1,72,293,123,135,1.89,100924,49.99
UTC 221212 123324 5 9 ,681,53.32869339,5.933680534,30.13,0,0,0,256.46,256.46,0,423,3,73,293,123,135,1.87,100929,49.99
UTC 221212 123325 5 9 ,682,53.32868576,5.933610439,30.11,0,0,0,256.46,256.46,0,413,1,73,293,123,134,1.86,100927,49.99
UTC 221212 123325 5 9 ,683,53.32867432,5.933534145,30.1,0,0,0,256.5,256.5,0,407,1,73,293,122,134,1.83,100923,49.99
UTC 221212 123327 5 9 ,684,53.32866669,5.933461666,30.06,0,0,0,256.63,256.63,0,409,1,73,293,123,134,1.8,100926,49.99
UTC 221212 123328 5 9 ,685,53.32865524,5.933391094,30.02,0,0,0,256.58,256.58,0,409,1,73,293,123,134,1.77,100922,49.99
UTC 221212 123328 5 9 ,686,53.32864761,5.933313847,29.98,0,0,0,256.57,256.57,0,421,3,72,293,122,135,1.74,100927,49.99
UTC 221212 123330 5 9 ,687,53.32863617,5.933239937,29.94,0,0,0,256.68,256.68,0,413,1,73,293,122,134,1.73,100931,49.99
UTC 221212 123331 5 9 ,688,53.32862854,5.933166504,29.89,0,0,0,256.69,256.69,0,413,1,73,293,123,134,1.72,100929,49.99
UTC 221212 123332 5 9 ,689,53.3286171,5.933091641,29.89,0,0,0,256.72,256.72,0,416,2,73,293,123,135,1.71,100928,49.99
UTC 221212 123333 5 9 ,690,53.32860947,5.933018684,29.89,0,0,0,256.66,256.66,0,413,1,73,293,122,134,1.7,100924,49.99
UTC 221212 123334 5 9 ,691,53.32859802,5.932947159,29.86,0,0,0,256.62,256.62,0,423,3,73,293,123,134,1.69,100924,49.99
UTC 221212 123335 5 9 ,692,53.32859039,5.932872772,29.79,0,0,0,256.32,256.32,0.01,421,3,72,293,122,135,1.69,100927,49.99
UTC 221212 123336 5 9 ,693,53.32857895,5.932800293,29.74,0,0,0,256.48,256.48,0.01,413,1,72,294,122,135,1.68,100930,49.99
UTC 221212 123337 5 9 ,694,53.3285675,5.932728767,29.74,0,0,0,256.39,256.39,0.01,413,1,72,293,122,135,1.66,100929,49.99
UTC 221212 123338 5 9 ,695,53.32855988,5.932653904,29.71,0,0,0,256.64,256.64,0.01,413,1,72,293,122,135,1.65,100926,49.99
UTC 221212 123339 5 9 ,696,53.32854843,5.932580948,29.67,0,0,0,256.49,256.49,0.01,418,2,72,294,122,135,1.64,100931,49.99
UTC 221212 123340 5 9 ,697,53.3285408,5.932509422,29.63,0,0,0,256.45,256.45,0.01,416,2,72,293,122,135,1.62,100928,49.99
UTC 221212 123341 5 9 ,698,53.32852936,5.932434559,29.62,0,0,0,256.77,256.77,0.01,413,1,72,293,122,135,1.61,100929,49.99
UTC 221212 123342 5 9 ,699,53.32851791,5.932360172,29.6,0,0,0,256.61,256.61,0.01,413,1,72,293,121,135,1.59,100928,49.99
UTC 221212 123343 5 9 ,700,53.32851028,5.93228817,29.56,0,0,0,256.6,256.6,0.01,409,1,72,293,121,135,1.59,100925,49.99
UTC 221212 123344 5 9 ,701,53.32849884,5.932213783,29.52,0,0,0,256.51,256.51,0.01,416,2,72,293,121,135,1.57,100930,49.99
UTC 221212 123345 5 9 ,702,53.32849121,5.93214035,29.49,0,0,0,256.58,256.58,0.01,418,2,72,293,121,135,1.57,100928,49.99
UTC 221212 123346 5 9 ,703,53.32847977,5.932068348,29.46,0,0,0,256.67,256.67,0.01,409,1,72,293,122,134,1.57,100931,49.99
UTC 221212 123347 5 9 ,704,53.32847214,5.931993961,29.42,0,0,0,256.6,256.6,0.01,409,1,71,293,121,135,1.55,100929,49.99
UTC 221212 123348 5 9 ,705,53.32846069,5.931920052,29.39,0,0,0,256.6,256.6,0.01,413,1,72,293,121,134,1.55,100933,49.99
UTC 221212 123349 5 9 ,706,53.32844925,5.931846142,29.35,0,0,0,256.56,256.56,0.01,416,2,71,294,122,134,1.54,100929,49.99
UTC 221212 123350 5 9 ,707,53.32844162,5.931773186,29.31,0,0,0,256.6,256.6,0.01,421,3,71,292,121,135,1.54,100936,49.99
UTC 221212 123351 5 9 ,708,53.32843018,5.931699276,29.26,0,0,0,256.64,256.64,0.01,407,1,71,293,121,135,1.53,100931,49.99
UTC 221212 123352 5 9 ,709,53.32842255,5.931629181,29.24,0,0,0,256.55,256.55,0.01,407,1,71,292,121,134,1.52,100934,49.99
UTC 221212 123353 5 9 ,710,53.3284111,5.931554318,29.22,0,0,0,256.61,256.61,0.01,407,1,70,292,120,134,1.52,100934,49.99
UTC 221212 123353 5 9 ,711,53.32840347,5.9314785,29.2,0,0,0,256.64,256.64,0.01,413,1,71,292,121,134,1.51,100933,49.99
UTC 221212 123355 5 9 ,712,53.32839203,5.931406021,29.15,0,0,0,256.44,256.44,0.01,421,3,70,293,121,134,1.51,100934,49.99
UTC 221212 123356 5 9 ,713,53.32838058,5.931334496,29.1,0,0,0,256.66,256.66,0.01,407,1,70,292,120,134,1.5,100936,49.99
UTC 221212 123356 5 9 ,714,53.32837296,5.931259632,29.06,0,0,0,256.69,256.69,0.01,407,1,70,292,120,134,1.5,100934,49.99
UTC 221212 123358 5 9 ,715,53.32836151,5.931186199,29.05,0,0,0,256.52,256.52,0.01,407,1,70,293,120,134,1.49,100935,49.99
UTC 221212 123359 5 9 ,716,53.32835388,5.931115151,29.01,0,0,0,256.55,256.55,0.01,409,1,69,292,120,134,1.49,100931,49.99
UTC 221212 123359 5 9 ,717,53.32834244,5.931040764,28.96,0,0,0,256.22,256.22,0.01,423,3,69,293,120,134,1.49,100933,49.99
UTC 221212 123401 5 9 ,718,53.32834244,5.930976868,28.92,0,0,0,274.7,274.7,0.01,409,1,69,292,120,134,1.5,100938,49.99
UTC 221212 123402 5 9 ,719,53.32836151,5.93091774,28.81,0,0,0,309.21,309.21,0.01,413,1,69,293,120,134,1.52,100948,49.99
UTC 221212 123402 5 9 ,720,53.32839966,5.930884361,28.69,0,0,0,342.69,342.69,0.01,416,2,70,292,120,135,1.56,100962,49.99
UTC 221212 123404 5 9 ,721,53.32844162,5.930872917,28.69,0,0,0,350.52,350.52,0.01,423,3,70,293,119,134,1.62,100969,49.99
UTC 221212 123405 5 9 ,722,53.32847977,5.930886269,28.69,0,0,0,19.81,19.81,0.01,444,6,70,293,120,134,1.69,100969,49.99
UTC 221212 123406 5 9 ,723,53.3285141,5.930932999,28.68,0,0,0,52.39,52.39,0.01,433,5,70,292,120,134,1.73,100970,49.99
UTC 221212 123407 5 9 ,724,53.32852936,5.93099308,28.68,0,0,0,74.42,74.42,0.01,433,5,70,293,120,134,1.76,100972,49.99
UTC 221212 123408 5 9 ,725,53.32853699,5.931055546,28.75,0,0,0,76.84,76.84,0.01,433,5,70,293,119,134,1.77,100970,49.99
UTC 221212 123409 5 9 ,726,53.3285408,5.931128025,28.82,0,0,0,77.07,77.07,0.01,433,5,71,293,120,134,1.79,100970,49.99
UTC 221212 123410 5 9 ,727,53.32855225,5.931204319,28.82,0,0,0,77.22,77.22,0.01,448,7,71,293,119,134,1.84,100969,49.99
UTC 221212 123411 5 9 ,728,53.32855988,5.931276321,28.8,0,0,0,77.18,77.18,0.01,439,5,70,293,120,134,1.9,100967,49.99
UTC 221212 123412 5 9 ,729,53.32857132,5.931354046,28.8,0,0,0,77.21,77.21,0.01,436,5,71,293,119,134,1.93,100972,49.99
UTC 221212 123413 5 9 ,730,53.32857895,5.931427479,28.85,0,0,0,77.13,77.13,0.01,439,7,71,292,119,134,1.95,100969,49.99
UTC 221212 123414 5 9 ,731,53.32859039,5.931498528,28.89,0,0,0,77.11,77.11,0.01,439,5,70,292,119,135,1.98,100968,49.99
UTC 221212 123415 5 9 ,732,53.32859802,5.931574822,28.91,0,0,0,77.3,77.3,0.01,439,5,71,293,118,134,2,100972,49.99
UTC 221212 123416 5 9 ,733,53.32860947,5.931648254,28.94,0,0,0,77.32,77.32,0.01,444,6,71,292,119,134,2.02,100970,49.99
UTC 221212 123417 5 9 ,734,53.3286171,5.931722164,28.98,0,0,0,77.31,77.31,0.01,447,7,70,292,118,134,2.03,100970,49.99
UTC 221212 123418 5 9 ,735,53.32862854,5.93179512,29,0,0,0,77.24,77.24,0.01,452,7,70,292,119,134,2.05,100967,49.99
UTC 221212 123418 5 9 ,736,53.32863617,5.931870937,29.03,0,0,0,77.3,77.3,0.01,444,6,71,292,118,134,2.07,100965,49.99
UTC 221212 123420 5 9 ,737,53.32864761,5.93194437,29.1,0,0,0,77.21,77.21,0.01,444,6,70,292,119,134,2.12,100962,49.99
UTC 221212 123421 5 9 ,738,53.32865524,5.932017803,29.17,0,0,0,77.33,77.33,0.01,447,7,71,292,119,135,2.17,100963,49.99
UTC 221212 123422 5 9 ,739,53.32866669,5.932090759,29.2,0,0,0,77.2,77.2,0.01,452,7,70,293,119,134,2.23,100964,49.99
UTC 221212 123423 5 9 ,740,53.32867432,5.932164192,29.22,0,0,0,77.22,77.22,0.01,459,8,70,293,118,134,2.24,100964,49.99
UTC 221212 123424 5 9 ,741,53.32868576,5.932234764,29.24,0,0,0,77.24,77.24,0.01,447,7,71,292,119,134,2.25,100966,49.99
UTC 221212 123425 5 9 ,742,53.3286972,5.932311058,29.29,0,0,0,77.28,77.28,0.01,448,7,71,293,119,134,2.28,100961,49.99
UTC 221212 123426 5 9 ,743,53.32870483,5.932384491,29.32,0,0,0,77.39,77.39,0.01,452,7,71,293,118,134,2.33,100962,49.99
UTC 221212 123427 5 9 ,744,53.32871628,5.932455063,29.32,0,0,0,77.26,77.26,0.01,456,8,71,293,118,135,2.38,100961,49.99
UTC 221212 123428 5 9 ,745,53.32872391,5.93252945,29.33,0,0,0,77.61,77.61,0.01,466,10,71,293,118,134,2.4,100957,49.99
UTC 221212 123428 5 9 ,746,53.32873535,5.932604313,29.36,0,0,0,77.21,77.21,0.01,448,7,72,293,118,135,2.4,100961,49.99
UTC 221212 123430 5 9 ,747,53.32874298,5.932677746,29.4,0,0,0,77.25,77.25,0.01,452,7,72,293,119,135,2.41,100958,49.99
UTC 221212 123431 5 9 ,748,53.32875443,5.932748318,29.43,0,0,0,77.19,77.19,0.01,448,7,72,293,118,134,2.42,100961,49.99
UTC 221212 123431 5 9 ,749,53.32876205,5.932825089,29.45,0,0,0,77.33,77.33,0.01,452,7,72,293,118,134,2.45,100959,49.99
UTC 221212 123433 5 9 ,750,53.3287735,5.932898998,29.48,0,0,0,77.23,77.23,0.01,466,10,71,292,118,134,2.46,100958,49.99
UTC 221212 123434 5 9 ,751,53.32878494,5.932970524,29.52,0,0,0,77.15,77.15,0.01,448,7,72,293,118,134,2.48,100960,49.99
UTC 221212 123435 5 9 ,752,53.32879257,5.93304491,29.55,0,0,0,77.17,77.17,0.01,452,7,72,293,118,134,2.5,100960,49.99
UTC 221212 123436 5 9 ,753,53.32880402,5.933118343,29.59,0,0,0,77.25,77.25,0.01,452,7,72,293,117,135,2.53,100959,49.99
UTC 221212 123437 5 9 ,754,53.32881165,5.933191776,29.65,0,0,0,77.23,77.23,0.01,456,8,71,293,118,134,2.55,100957,49.99
UTC 221212 123438 5 9 ,755,53.32882309,5.933265209,29.67,0,0,0,77.22,77.22,0.01,470,10,71,293,118,134,2.59,100960,49.99
UTC 221212 123439 5 9 ,756,53.32883453,5.933338642,29.69,0,0,0,77.24,77.24,0.01,452,7,71,292,117,135,2.62,100957,49.99
UTC 221212 123440 5 9 ,757,53.32884216,5.93340826,29.73,0,0,0,77.19,77.19,0.01,452,7,71,292,117,135,2.64,100957,49.99
UTC 221212 123441 5 9 ,758,53.32885361,5.933484554,29.75,0,0,0,77.16,77.16,0.01,452,7,71,292,117,135,2.66,100958,49.99
UTC 221212 123442 5 9 ,759,53.32886124,5.933558464,29.75,0,0,0,77.25,77.25,0.01,452,7,71,292,117,135,2.66,100960,49.99
UTC 221212 123443 5 9 ,760,53.32887268,5.933631897,29.8,0,0,0,77.16,77.16,0.01,463,9,71,291,117,135,2.63,100958,49.99
UTC 221212 123444 5 9 ,761,53.32888031,5.933701992,29.88,0,0,0,77.3,77.3,0.01,452,7,71,291,117,135,2.64,100954,49.99
UTC 221212 123444 5 9 ,762,53.32889175,5.933778286,29.94,0,0,0,77.33,77.33,0.01,448,7,71,292,117,135,2.67,100958,49.99
UTC 221212 123446 5 9 ,763,53.3289032,5.933851719,29.94,0,0,0,77.21,77.21,0.01,448,7,71,292,117,135,2.66,100955,49.99
UTC 221212 123447 5 9 ,764,53.32891083,5.933922291,29.95,0,0,0,77.3,77.3,0.01,448,7,71,293,116,134,2.67,100952,49.99
UTC 221212 123448 5 9 ,765,53.32892227,5.933999062,29.98,0,0,0,77.28,77.28,0.01,466,10,71,292,117,135,2.71,100952,49.99
UTC 221212 123449 5 9 ,766,53.3289299,5.934072971,30.01,0,0,0,77.41,77.41,0.01,456,8,71,292,117,135,2.7,100951,49.99
UTC 221212 123450 5 9 ,767,53.32894135,5.934144497,30.04,0,0,0,77.2,77.2,0.01,452,7,71,293,116,135,2.74,100949,49.99
UTC 221212 123451 5 9 ,768,53.32894897,5.934219837,30.07,0,0,0,77.17,77.17,0.01,452,7,70,292,116,135,2.76,100951,49.99
UTC 221212 123452 5 9 ,769,53.32896042,5.93429327,30.11,0,0,0,77.14,77.14,0.01,452,7,71,293,116,135,2.78,100951,49.99
UTC 221212 123453 5 9 ,770,53.32896805,5.934366226,30.14,0,0,0,77.13,77.13,0.01,466,10,71,292,116,135,2.8,100956,49.99
UTC 221212 123454 5 9 ,771,53.32897949,5.934437752,30.15,0,0,0,77.27,77.27,0.01,459,8,71,293,117,135,2.82,100952,49.99
UTC 221212 123455 5 9 ,772,53.32899094,5.934512615,30.17,0,0,0,77.26,77.26,0.01,452,7,70,292,116,135,2.85,100950,49.99
UTC 221212 123456 5 9 ,773,53.32899857,5.934586048,30.21,0,0,0,77.26,77.26,0.01,452,7,71,291,117,134,2.87,100951,49.99
UTC 221212 123457 5 9 ,774,53.32901001,5.934660435,30.26,0,0,0,77.32,77.32,0.01,456,8,71,292,116,135,2.86,100950,49.99
UTC 221212 123458 5 9 ,775,53.32901764,5.934731007,30.29,0,0,0,77.3,77.3,0.01,459,8,70,292,116,134,2.84,100952,49.99
UTC 221212 123459 5 9 ,776,53.32902908,5.934807777,30.33,0,0,0,77.42,77.42,0.01,456,8,70,292,116,135,2.82,100952,49.99
UTC 221212 123500 5 9 ,777,53.32903671,5.934880734,30.4,0,0,0,77.66,77.66,0.01,448,7,70,292,116,135,2.8,100944,49.99
UTC 221212 123501 5 9 ,778,53.32904816,5.93495369,30.41,0,0,0,77.75,77.75,0.01,452,7,71,292,116,135,2.81,100943,49.99
UTC 221212 123502 5 9 ,779,53.32905579,5.935024262,30.44,0,0,0,77.47,77.47,0.01,448,7,71,292,116,135,2.79,100942,49.99
UTC 221212 123502 5 9 ,780,53.32906723,5.935100079,30.46,0,0,0,77.07,77.07,0.01,452,7,71,292,115,135,2.78,100945,49.99
UTC 221212 123504 5 9 ,781,53.32907486,5.935173035,30.49,0,0,0,77.24,77.24,0.01,456,8,70,292,116,135,2.79,100950,49.99
UTC 221212 123505 5 9 ,782,53.3290863,5.935233116,30.48,0,0,0,69.59,69.59,0.01,447,7,71,292,116,135,2.81,100946,49.99
UTC 221212 123506 5 9 ,783,53.32911682,5.935286045,30.47,0,0,0,35.26,35.26,0.01,447,7,70,292,115,134,2.8,100946,49.99
UTC 221212 123506 5 9 ,784,53.32915878,5.935301781,30.33,0,0,0,0.08,0.08,0.01,456,8,71,292,115,135,2.83,100946,49.99
UTC 221212 123508 5 9 ,785,53.32920074,5.935288906,30.15,0,0,0,346.57,346.57,0.01,459,8,71,292,115,135,2.83,100945,49.99
UTC 221212 123509 5 9 ,786,53.32923126,5.935259342,30.04,0,0,0,326.72,326.72,0.01,463,9,71,292,115,134,2.86,100940,49.99
UTC 221212 123510 5 9 ,787,53.32925797,5.935202122,29.96,0,0,0,293.91,293.91,0.01,447,7,71,292,116,135,2.85,100937,49.99
UTC 221212 123511 5 9 ,788,53.32926178,5.935138226,29.94,0,0,0,265.93,265.93,0.01,436,5,71,292,116,135,2.8,100934,49.99
UTC 221212 123512 5 9 ,789,53.32925034,5.93507576,29.9,0,0,0,256.72,256.72,0.01,433,5,71,292,116,135,2.72,100933,49.99
UTC 221212 123513 5 9 ,790,53.32923889,5.935007572,29.84,0,0,0,256.43,256.43,0.01,433,5,70,292,115,134,2.67,100926,49.99
UTC 221212 123514 5 9 ,791,53.32922745,5.934933662,29.81,0,0,0,256.53,256.53,0.01,439,5,70,292,115,135,2.58,100929,49.99
UTC 221212 123515 5 9 ,792,53.32921982,5.934858322,29.8,0,0,0,256.42,256.42,0.01,418,2,70,292,115,135,2.5,100924,49.99
UTC 221212 123516 5 9 ,793,53.32920837,5.934783936,29.77,0,0,0,256.6,256.6,0.01,416,2,70,292,114,134,2.42,100928,49.99
UTC 221212 123516 5 9 ,794,53.32920074,5.934709072,29.74,0,0,0,256.56,256.56,0.01,413,1,69,291,115,135,2.36,100928,49.99
UTC 221212 123518 5 9 ,795,53.3291893,5.934635162,29.74,0,0,0,256.58,256.58,0.01,409,1,69,291,115,135,2.3,100930,49.99
UTC 221212 123519 5 9 ,796,53.32918167,5.93456316,29.74,0,0,0,256.53,256.53,0.01,421,3,69,292,114,135,2.24,100924,49.99
UTC 221212 123520 5 9 ,797,53.32917023,5.934488773,29.71,0,0,0,256.52,256.52,0.01,405,0,69,293,115,134,2.18,100924,49.99
UTC 221212 123521 5 9 ,798,53.32915878,5.93441534,29.68,0,0,0,256.45,256.45,0.01,405,0,69,292,115,134,2.13,100930,49.99
UTC 221212 123522 5 9 ,799,53.32915115,5.934341431,29.65,0,0,0,256.48,256.48,0.01,400,0,69,293,114,134,2.07,100927,49.99
UTC 221212 123523 5 9 ,800,53.32914352,5.934270382,29.62,0,0,0,256.61,256.61,0.01,407,1,69,292,115,134,2.01,100931,49.99
UTC 221212 123523 5 9 ,801,53.32913208,5.934193134,29.59,0,0,0,256.66,256.66,0.01,415,2,68,292,114,134,1.97,100928,49.99
UTC 221212 123525 5 9 ,802,53.32912064,5.934119701,29.57,0,0,0,256.62,256.62,0.01,400,0,68,291,114,134,1.94,100926,49.99
UTC 221212 123526 5 9 ,803,53.32911301,5.93404913,29.55,0,0,0,256.72,256.72,0.01,400,0,68,292,114,134,1.89,100926,49.99
UTC 221212 123527 5 9 ,804,53.32910156,5.933974266,29.52,0,0,0,256.76,256.76,0.01,400,0,67,292,114,134,1.86,100926,49.99
UTC 221212 123528 5 9 ,805,53.32909393,5.93389988,29.49,0,0,0,256.57,256.57,0.01,400,0,67,292,114,134,1.83,100922,49.99
UTC 221212 123529 5 9 ,806,53.32908249,5.933825493,29.45,0,0,0,256.63,256.63,0.01,413,1,68,291,113,134,1.81,100927,49.99
UTC 221212 123530 5 9 ,807,53.32907104,5.93375206,29.43,0,0,0,256.64,256.64,0.01,406,0,67,292,114,133,1.78,100929,49.99
UTC 221212 123530 5 9 ,808,53.32906342,5.933678627,29.42,0,0,0,256.58,256.58,0.01,401,0,67,292,114,134,1.75,100929,49.99
UTC 221212 123532 5 9 ,809,53.32905197,5.933605194,29.38,0,0,0,256.6,256.6,0.01,401,0,67,292,114,134,1.73,100927,49.99
UTC 221212 123533 5 9 ,810,53.32904434,5.933535099,29.34,0,0,0,256.53,256.53,0.01,401,0,67,291,114,134,1.71,100930,49.99
UTC 221212 123534 5 9 ,811,53.3290329,5.933458805,29.3,0,0,0,256.59,256.59,0.01,407,1,67,292,114,133,1.69,100927,49.99
UTC 221212 123535 5 9 ,812,53.32902527,5.933385372,29.28,0,0,0,256.61,256.61,0.01,405,0,66,291,113,133,1.66,100931,49.99
UTC 221212 123536 5 9 ,813,53.32901382,5.933311939,29.27,0,0,0,256.56,256.56,0.01,400,0,66,292,113,133,1.64,100926,49.99
UTC 221212 123537 5 9 ,814,53.3290062,5.933241367,29.24,0,0,0,256.53,256.53,0.01,400,0,66,292,113,133,1.63,100929,49.99
UTC 221212 123537 5 9 ,815,53.32899475,5.933164597,29.2,0,0,0,256.39,256.39,0.01,401,0,66,291,114,133,1.6,100934,49.99
UTC 221212 123539 5 9 ,816,53.32898331,5.933091641,29.18,0,0,0,256.39,256.39,0.01,407,1,65,292,114,134,1.59,100932,49.99
UTC 221212 123540 5 9 ,817,53.32897568,5.933021545,29.17,0,0,0,256.52,256.52,0.01,408,1,66,293,113,133,1.58,100931,49.99
UTC 221212 123541 5 9 ,818,53.32896423,5.932944775,29.17,0,0,0,256.52,256.52,0.01,403,0,66,293,113,134,1.56,100938,49.99
UTC 221212 123542 5 9 ,819,53.32895279,5.932871819,29.14,0,0,0,256.53,256.53,0.01,403,0,66,293,113,134,1.54,100933,49.99
UTC 221212 123543 5 9 ,820,53.32894516,5.932801247,29.1,0,0,0,256.54,256.54,0.01,405,0,66,293,113,133,1.53,100938,49.99
UTC 221212 123544 5 9 ,821,53.32893372,5.932725906,29.09,0,0,0,256.59,256.59,0.01,410,1,66,293,113,133,1.51,100937,49.99
UTC 221212 123544 5 9 ,822,53.32892609,5.93265152,29.07,0,0,0,256.7,256.7,0.01,408,1,66,293,113,134,1.49,100931,49.99
UTC 221212 123546 5 9 ,823,53.32891464,5.932578087,29.03,0,0,0,256.53,256.53,0.01,400,0,66,293,112,133,1.48,100932,49.99
UTC 221212 123547 5 9 ,824,53.32890701,5.932507992,29,0,0,0,256.54,256.54,0.01,405,0,66,292,113,133,1.47,100931,49.99
UTC 221212 123548 5 9 ,825,53.32889557,5.932431221,28.99,0,0,0,256.56,256.56,0.01,403,0,65,292,113,133,1.46,100932,49.99
UTC 221212 123549 5 9 ,826,53.32888794,5.932357311,28.96,0,0,0,256.52,256.52,0.01,405,0,66,292,113,133,1.45,100934,49.99
UTC 221212 123550 5 9 ,827,53.3288765,5.932286739,28.93,0,0,0,256.62,256.62,0.01,410,1,65,293,113,134,1.44,100932,49.99
UTC 221212 123551 5 9 ,828,53.32886887,5.932211876,28.91,0,0,0,256.61,256.61,0.01,403,0,65,293,113,133,1.43,100930,49.99
UTC 221212 123551 5 9 ,829,53.32885742,5.932137013,28.87,0,0,0,256.63,256.63,0.01,405,0,65,292,112,134,1.42,100933,49.99
UTC 221212 123553 5 9 ,830,53.32884979,5.93206358,28.82,0,0,0,256.57,256.57,0.01,405,0,65,293,113,133,1.42,100933,49.99
UTC 221212 123554 5 9 ,831,53.32883835,5.931990147,28.79,0,0,0,256.51,256.51,0.01,405,0,65,293,112,132,1.42,100934,49.99
UTC 221212 123554 5 9 ,832,53.3288269,5.931917667,28.78,0,0,0,256.56,256.56,0.01,415,2,65,293,112,133,1.41,100934,49.99
UTC 221212 123556 5 9 ,833,53.32881927,5.931844711,28.76,0,0,0,256.52,256.52,0.01,403,0,65,293,112,133,1.4,100934,49.99
UTC 221212 123557 5 9 ,834,53.32880783,5.931774139,28.74,0,0,0,256.45,256.45,0.01,405,0,65,294,112,133,1.39,100934,49.99
UTC 221212 123558 5 9 ,835,53.3288002,5.931697369,28.7,0,0,0,256.56,256.56,0.01,403,0,65,294,112,133,1.39,100934,49.99
UTC 221212 123558 5 9 ,836,53.32878876,5.931622982,28.67,0,0,0,256.66,256.66,0.01,408,1,66,294,112,133,1.39,100940,49.99
UTC 221212 123600 5 9 ,837,53.32877731,5.931550026,28.64,0,0,0,256.63,256.63,0.01,417,2,65,292,112,133,1.38,100937,49.99
UTC 221212 123601 5 9 ,838,53.32876968,5.931479931,28.61,0,0,0,256.64,256.64,0.01,405,0,65,293,112,132,1.37,100940,49.99
UTC 221212 123601 5 9 ,839,53.32875824,5.931404114,28.59,0,0,0,256.53,256.53,0.01,403,0,65,293,112,133,1.37,100938,49.99
UTC 221212 123603 5 9 ,840,53.32875061,5.931331158,28.57,0,0,0,256.53,256.53,0.01,403,0,65,293,112,133,1.36,100939,49.99
UTC 221212 123604 5 9 ,841,53.32873917,5.931260109,28.55,0,0,0,256.51,256.51,0.01,403,0,65,294,111,133,1.35,100939,49.99
UTC 221212 123605 5 9 ,842,53.32873154,5.931183338,28.52,0,0,0,256.49,256.49,0.01,420,3,65,293,112,133,1.35,100937,49.99
UTC 221212 123606 5 9 ,843,53.32872009,5.931109428,28.49,0,0,0,256.53,256.53,0.01,405,0,65,293,111,133,1.33,100940,49.99
UTC 221212 123607 5 9 ,844,53.32870865,5.931035996,28.46,0,0,0,256.62,256.62,0.01,403,0,65,293,111,132,1.33,100939,49.99
UTC 221212 123608 5 9 ,845,53.32870102,5.930966377,28.43,0,0,0,256.56,256.56,0.01,405,0,64,294,112,133,1.33,100946,49.99
UTC 221212 123608 5 9 ,846,53.32869339,5.930896759,28.41,0,0,0,259.01,259.01,0.01,405,0,64,293,112,132,1.32,100945,49.99
UTC 221212 123610 5 9 ,847,53.3286972,5.930831432,28.34,0,0,0,289.06,289.06,0.01,420,3,65,293,111,133,1.33,100945,49.99
UTC 221212 123611 5 9 ,848,53.32872772,5.930782795,28.2,0,0,0,323.87,323.87,0.01,415,2,65,293,112,133,1.35,100960,49.99
UTC 221212 123612 5 9 ,849,53.32876968,5.930760384,28.08,0,0,0,347.32,347.32,0.01,417,2,65,293,111,133,1.38,100964,49.99
UTC 221212 123613 5 9 ,850,53.32880783,5.930756092,28.09,0,0,0,358.77,358.77,0.01,423,3,65,293,111,133,1.44,100969,49.99
UTC 221212 123614 5 9 ,851,53.32884598,5.930781841,28.07,0,0,0,32.25,32.25,0.01,428,4,65,293,111,133,1.49,100971,49.99
