TimeStamp (UTC)," ""TriggerID"""," ""Latitude"""," ""Longitude"""," ""Altitude (Meter AGL)""",Gimbal Roll," ""Gimbal Pitch"""," ""Gimbal Yaw"""," ""Drone Yaw"""," ""Combined Yaw""",HCHO (ppm),CO2 (ppm),TVOC (ppb),NO2 (ppm),C2H5OH (ppm),VOC (ppm),CO (ppm),Temp (Celcius),Pressure (pa),Altitude (meter)
UTC 221212 105605 5 9 ,41,53.3278923,5.934297562,0,0,0,0,309.29,309.29,0.01,759,54,143,302,169,152,3.04,101350,16.64
UTC 221212 105606 5 9 ,42,53.3278923,5.934297562,0,0,0,0,309.28,309.28,0.01,759,54,142,302,169,151,3.09,101352,16.64
UTC 221212 105607 5 9 ,43,53.3278923,5.934297562,0,0,0,0,309.28,309.28,0.01,740,51,142,302,169,151,3.12,101353,16.64
UTC 221212 105608 5 9 ,44,53.3278923,5.934297562,0,0,0,0,309.29,309.29,0.01,740,51,141,302,169,151,3.12,101357,16.64
UTC 221212 105609 5 9 ,45,53.3278923,5.934297562,0,0,0,0,309.3,309.3,0.01,748,53,140,301,169,150,3.14,101350,16.64
UTC 221212 105610 5 9 ,46,53.3278923,5.934297562,0,0,0,0,309.27,309.27,0.01,740,51,140,301,169,150,3.17,101348,16.64
UTC 221212 105611 5 9 ,47,53.3278923,5.934297562,0,0,0,0,309.29,309.29,0.01,732,50,139,301,169,150,3.16,101346,16.64
UTC 221212 105612 5 9 ,48,53.3278923,5.934297562,0.02,0,0,0,308.33,308.33,0.01,748,53,137,301,168,150,3.17,101346,16.64
UTC 221212 105613 5 9 ,49,53.3278923,5.934297085,0.58,0,0,0,308.12,308.12,0.01,697,45,136,300,168,150,3.16,101341,16.64
UTC 221212 105614 5 9 ,50,53.3278923,5.934296608,1.05,0,0,0,308.02,308.02,0.01,688,43,135,300,168,149,3.14,101334,16.64
UTC 221212 105615 5 9 ,51,53.3278923,5.934296131,1.86,0,0,0,307.75,307.75,0.01,688,43,134,299,168,148,3.17,101324,16.64
UTC 221212 105616 5 9 ,52,53.3278923,5.934296131,4.81,0,0,0,308.04,308.04,0.01,678,42,132,300,167,149,3.16,101282,24.96
UTC 221212 105616 5 9 ,53,53.3278923,5.934295654,7.98,0,0,0,308.13,308.13,0.01,688,43,132,302,167,148,3.12,101240,24.96
UTC 221212 105618 5 9 ,54,53.3278923,5.934296131,11.05,0,0,0,308.07,308.07,0.01,660,39,131,301,167,148,3.14,101208,24.96
UTC 221212 105619 5 9 ,55,53.3278923,5.934296608,14.08,0,0,0,308.28,308.28,0.01,671,41,131,300,167,149,3.17,101167,33.3
UTC 221212 105620 5 9 ,56,53.3278923,5.934296608,17.1,0,0,0,308.17,308.17,0.01,643,37,129,301,167,148,3.15,101132,33.3
UTC 221212 105620 5 9 ,57,53.3278923,5.934296131,19.25,0,0,0,308.29,308.29,0.01,643,37,129,302,166,148,3.09,101101,33.3
UTC 221212 105622 5 9 ,58,53.3278923,5.934295178,19.32,0,0,0,356.61,356.61,0.01,671,41,128,302,166,149,3.11,101102,33.3
UTC 221212 105623 5 9 ,59,53.3278923,5.934294701,19.12,0,0,0,68.44,68.44,0.01,643,37,127,301,166,149,3.09,101107,33.3
UTC 221212 105624 5 9 ,60,53.3278923,5.934296131,19.01,0,0,0,68.94,68.94,0.01,650,38,127,301,166,149,3.12,101109,33.3
UTC 221212 105625 5 9 ,61,53.32789612,5.934316635,18.96,0,0,0,68.74,68.74,0.01,650,38,126,301,166,149,3.16,101110,33.3
UTC 221212 105626 5 9 ,62,53.32790756,5.934356213,18.95,0,0,0,69.13,69.13,0.01,643,37,125,300,165,148,3.12,101102,33.3
UTC 221212 105627 5 9 ,63,53.32791901,5.934405327,18.93,0,0,0,68.68,68.68,0.01,660,39,125,300,165,148,3.04,101103,33.3
UTC 221212 105628 5 9 ,64,53.32793045,5.934463501,18.89,0,0,0,68.7,68.7,0.01,633,35,125,300,166,148,3.01,101104,33.3
UTC 221212 105629 5 9 ,65,53.32794952,5.934533596,18.87,0,0,0,68.59,68.59,0.01,637,36,124,300,166,148,2.98,101111,33.3
UTC 221212 105630 5 9 ,66,53.32796478,5.934607983,18.87,0,0,0,70.23,70.23,0.01,633,35,123,300,165,147,2.93,101096,41.64
UTC 221212 105631 5 9 ,67,53.32798004,5.934678555,18.88,0,0,0,69.19,69.19,0.01,623,33,124,300,165,146,2.88,101088,41.64
UTC 221212 105632 5 9 ,68,53.32799912,5.934751034,18.85,0,0,0,68.55,68.55,0.01,633,35,123,299,165,147,2.8,101100,33.3
UTC 221212 105632 5 9 ,69,53.32801437,5.934821606,18.83,0,0,0,68.63,68.63,0.01,623,33,122,299,164,146,2.75,101110,33.3
UTC 221212 105634 5 9 ,70,53.32803345,5.934891224,18.82,0,0,0,68.97,68.97,0.01,615,32,123,298,165,146,2.73,101103,33.3
UTC 221212 105635 5 9 ,71,53.32804871,5.934957027,18.85,0,0,0,68.96,68.96,0.01,607,31,122,299,165,146,2.67,101105,33.3
UTC 221212 105635 5 9 ,72,53.32806396,5.935029507,18.85,0,0,0,69.04,69.04,0.01,607,31,122,298,164,145,2.64,101106,33.3
UTC 221212 105637 5 9 ,73,53.32807922,5.935097694,18.85,0,0,0,68.99,68.99,0.01,615,32,121,298,163,145,2.6,101099,41.64
UTC 221212 105638 5 9 ,74,53.3280983,5.93516922,18.86,0,0,0,69.12,69.12,0.01,607,31,121,299,164,145,2.54,101096,41.64
UTC 221212 105639 5 9 ,75,53.32811356,5.935239792,18.86,0,0,0,68.87,68.87,0.01,594,29,120,298,164,145,2.52,101104,33.3
UTC 221212 105640 5 9 ,76,53.32812881,5.935310841,18.86,0,0,0,68.93,68.93,0.01,594,29,121,298,163,144,2.48,101105,33.3
UTC 221212 105641 5 9 ,77,53.32814407,5.935381413,18.85,0,0,0,68.74,68.74,0.01,588,28,120,297,163,144,2.49,101112,33.3
UTC 221212 105641 5 9 ,78,53.32816315,5.935450554,18.85,0,0,0,68.42,68.42,0.01,600,30,118,297,162,144,2.46,101110,33.3
UTC 221212 105643 5 9 ,79,53.32817841,5.935518265,18.85,0,0,0,68.85,68.85,0.01,607,31,118,297,163,144,2.46,101110,33.3
UTC 221212 105644 5 9 ,80,53.32819366,5.935577393,18.85,0,0,0,69.9,69.9,0.01,588,28,117,297,163,144,2.47,101107,33.3
UTC 221212 105645 5 9 ,81,53.32819748,5.935594559,18.78,0,0,0,43.42,43.42,0.01,588,28,117,297,161,144,2.5,101113,33.3
UTC 221212 105646 5 9 ,82,53.32819366,5.935589314,18.78,0,0,0,313.84,313.84,0.01,588,28,116,297,162,144,2.53,101095,41.64
UTC 221212 105647 5 9 ,83,53.32819366,5.935583115,18.79,0,0,0,254.78,254.78,0.01,588,28,116,297,161,144,2.56,101092,41.64
UTC 221212 105648 5 9 ,84,53.32818985,5.935575485,18.8,0,0,0,255.22,255.22,0.01,600,30,116,297,161,144,2.57,101094,41.64
UTC 221212 105649 5 9 ,85,53.32818604,5.935551167,18.85,0,0,0,255.27,255.27,0.01,588,28,116,297,162,143,2.56,101082,41.64
UTC 221212 105650 5 9 ,86,53.32817841,5.935508728,18.87,0,0,0,255.25,255.25,0.01,577,26,115,296,161,144,2.52,101088,41.64
UTC 221212 105650 5 9 ,87,53.32817078,5.935455799,18.91,0,0,0,254.99,254.99,0.01,561,24,115,297,161,143,2.47,101084,41.64
UTC 221212 105652 5 9 ,88,53.32815933,5.935388565,18.95,0,0,0,254.93,254.93,0.01,561,24,115,297,161,143,2.39,101088,41.64
UTC 221212 105653 5 9 ,89,53.32814789,5.935312271,19,0,0,0,254.78,254.78,0.01,577,26,115,297,161,143,2.32,101082,41.64
UTC 221212 105654 5 9 ,90,53.32813644,5.93523407,19.04,0,0,0,254.7,254.7,0.01,553,23,115,297,161,143,2.22,101079,41.64
UTC 221212 105655 5 9 ,91,53.328125,5.93515873,19.08,0,0,0,254.9,254.9,0.01,551,23,114,297,161,143,2.15,101079,41.64
UTC 221212 105656 5 9 ,92,53.32811737,5.93508482,19.11,0,0,0,255.24,255.24,0.01,551,23,114,297,161,143,2.08,101080,41.64
UTC 221212 105657 5 9 ,93,53.32810593,5.93501091,19.16,0,0,0,255.27,255.27,0.01,551,23,114,297,161,142,2.01,101073,41.64
UTC 221212 105658 5 9 ,94,53.32809448,5.934937,19.21,0,0,0,255.49,255.49,0.01,553,23,114,297,160,142,1.98,101075,41.64
UTC 221212 105659 5 9 ,95,53.32808304,5.934863567,19.25,0,0,0,255.39,255.39,0.01,542,21,113,296,160,142,1.96,101071,41.64
UTC 221212 105700 5 9 ,96,53.32807541,5.934792996,19.28,0,0,0,254.84,254.84,0.01,536,20,113,296,160,143,1.91,101072,41.64
UTC 221212 105701 5 9 ,97,53.32806396,5.934720039,19.37,0,0,0,254.76,254.76,0.01,542,21,113,297,160,143,1.86,101083,41.64
UTC 221212 105701 5 9 ,98,53.32804871,5.934648514,19.4,0,0,0,254.77,254.77,0.01,551,23,112,297,160,142,1.84,101084,41.64
UTC 221212 105703 5 9 ,99,53.32803726,5.93457365,19.44,0,0,0,254.46,254.46,0.01,561,24,111,297,159,142,1.82,101085,41.64
UTC 221212 105704 5 9 ,100,53.32802963,5.934500217,19.46,0,0,0,255.18,255.18,0.01,561,24,112,297,159,143,1.81,101086,41.64
UTC 221212 105705 5 9 ,101,53.32801819,5.934426308,19.51,0,0,0,255.02,255.02,0.01,553,23,111,297,159,142,1.77,101084,41.64
UTC 221212 105706 5 9 ,102,53.32800674,5.934352875,19.55,0,0,0,255.17,255.17,0.01,551,23,112,297,159,142,1.74,101081,41.64
UTC 221212 105707 5 9 ,103,53.3279953,5.934280396,19.59,0,0,0,255.1,255.1,0.01,551,23,110,297,158,143,1.7,101080,41.64
UTC 221212 105708 5 9 ,104,53.32798767,5.934208393,19.65,0,0,0,254.79,254.79,0.01,561,24,111,297,159,143,1.68,101082,41.64
UTC 221212 105709 5 9 ,105,53.32797623,5.93413496,19.7,0,0,0,254.94,254.94,0.01,553,23,111,297,158,143,1.67,101075,41.64
UTC 221212 105709 5 9 ,106,53.32796478,5.934062958,19.74,0,0,0,254.74,254.74,0.01,553,23,110,298,159,142,1.64,101073,41.64
UTC 221212 105711 5 9 ,107,53.32795334,5.933990479,19.8,0,0,0,254.41,254.41,0.01,553,23,110,298,159,143,1.63,101074,41.64
UTC 221212 105712 5 9 ,108,53.32794571,5.933930397,19.8,0,0,0,254.13,254.13,0.01,553,23,109,298,158,143,1.59,101080,41.64
UTC 221212 105713 5 9 ,109,53.32794189,5.933914185,19.74,0,0,0,256.03,256.03,0.01,561,24,110,298,158,143,1.6,101086,41.64
UTC 221212 105714 5 9 ,110,53.32794189,5.933904648,19.71,0,0,0,255.93,255.93,0.01,577,26,109,298,158,143,1.64,101084,41.64
UTC 221212 105715 5 9 ,111,53.32793427,5.933857918,19.66,0,0,0,254.68,254.68,0.01,561,24,109,297,158,142,1.62,101074,41.64
UTC 221212 105716 5 9 ,112,53.32792664,5.933800221,19.56,0,0,0,255.31,255.31,0.01,553,23,109,297,158,142,1.59,101072,41.64
UTC 221212 105717 5 9 ,113,53.32791901,5.933739185,19.48,0,0,0,255.21,255.21,0.01,551,23,109,297,157,143,1.57,101072,41.64
UTC 221212 105717 5 9 ,114,53.32790756,5.933674812,19.4,0,0,0,255.23,255.23,0.01,551,23,108,297,157,142,1.57,101070,41.64
UTC 221212 105719 5 9 ,115,53.32789993,5.933609486,19.32,0,0,0,255.37,255.37,0.01,561,24,108,297,158,142,1.56,101072,41.64
UTC 221212 105720 5 9 ,116,53.32788849,5.933543205,19.24,0,0,0,255.36,255.36,0.01,536,20,107,296,158,141,1.55,101072,41.64
UTC 221212 105721 5 9 ,117,53.32787704,5.933475971,19.16,0,0,0,255.25,255.25,0.01,542,21,107,296,157,142,1.55,101066,41.64
UTC 221212 105722 5 9 ,118,53.32786942,5.933403492,19.08,0,0,0,255.2,255.2,0.01,536,20,107,296,157,141,1.53,101068,41.64
UTC 221212 105723 5 9 ,119,53.32785797,5.933331013,19,0,0,0,255.49,255.49,0.01,536,20,106,296,157,141,1.52,101069,41.64
UTC 221212 105724 5 9 ,120,53.32784653,5.933256626,18.9,0,0,0,255.2,255.2,0.01,553,23,105,297,156,141,1.51,101069,41.64
UTC 221212 105725 5 9 ,121,53.32783508,5.933181763,18.78,0,0,0,255.15,255.15,0.01,536,20,106,296,157,141,1.51,101076,41.64
UTC 221212 105726 5 9 ,122,53.32782364,5.93310976,18.68,0,0,0,255.24,255.24,0.01,536,20,105,296,156,141,1.51,101077,41.64
UTC 221212 105727 5 9 ,123,53.32781219,5.93303442,18.57,0,0,0,255.14,255.14,0.01,527,19,105,296,156,141,1.51,101072,41.64
UTC 221212 105728 5 9 ,124,53.32780075,5.932961464,18.46,0,0,0,255.17,255.17,0.01,530,19,105,296,156,141,1.5,101079,41.64
UTC 221212 105729 5 9 ,125,53.32778931,5.932890415,18.37,0,0,0,255.03,255.03,0.01,551,23,104,297,156,141,1.5,101080,41.64
UTC 221212 105730 5 9 ,126,53.32777786,5.932816029,18.27,0,0,0,255.06,255.06,0.01,530,19,104,296,155,141,1.5,101084,41.64
UTC 221212 105731 5 9 ,127,53.32776642,5.932743073,18.17,0,0,0,255.06,255.06,0.01,518,17,104,296,156,140,1.5,101085,41.64
UTC 221212 105731 5 9 ,128,53.32775879,5.932670593,18.08,0,0,0,254.4,254.4,0.01,530,19,103,296,155,140,1.5,101092,41.64
UTC 221212 105733 5 9 ,129,53.32775116,5.932622433,18,0,0,0,254.39,254.39,0.01,530,19,103,296,155,140,1.5,101095,41.64
UTC 221212 105734 5 9 ,130,53.32775116,5.932615757,17.98,0,0,0,305.98,305.98,0.01,542,21,103,297,154,141,1.54,101101,33.3
UTC 221212 105735 5 9 ,131,53.3277626,5.932620049,18,0,0,0,342.7,342.7,0.01,542,21,103,297,155,140,1.6,101121,33.3
UTC 221212 105736 5 9 ,132,53.32779312,5.932617188,18,0,0,0,343.37,343.37,0.01,553,23,104,297,155,141,1.64,101122,33.3
UTC 221212 105737 5 9 ,133,53.32782364,5.932608604,17.99,0,0,0,343.25,343.25,0.01,553,23,104,297,155,141,1.68,101124,33.3
UTC 221212 105738 5 9 ,134,53.32784653,5.932600498,17.96,0,0,0,343.37,343.37,0.01,561,24,104,296,154,140,1.74,101120,33.3
UTC 221212 105739 5 9 ,135,53.32785034,5.932600975,17.95,0,0,0,39.61,39.61,0.01,580,27,105,297,154,140,1.78,101124,33.3
UTC 221212 105740 5 9 ,136,53.32785034,5.932623386,18,0,0,0,75.65,75.65,0.01,580,27,104,296,155,140,1.84,101118,33.3
UTC 221212 105741 5 9 ,137,53.32785034,5.93266201,18.08,0,0,0,75.48,75.48,0.01,577,26,105,296,155,141,1.86,101123,33.3
UTC 221212 105742 5 9 ,138,53.32785797,5.932713509,18.15,0,0,0,75.65,75.65,0.01,561,24,104,296,154,140,1.84,101125,33.3
UTC 221212 105743 5 9 ,139,53.3278656,5.932771206,18.23,0,0,0,75.46,75.46,0.01,577,26,103,297,154,140,1.83,101121,33.3
UTC 221212 105744 5 9 ,140,53.32787704,5.93283844,18.32,0,0,0,75.22,75.22,0.01,577,26,103,296,154,140,1.84,101122,33.3
UTC 221212 105745 5 9 ,141,53.32788849,5.932910919,18.42,0,0,0,75.54,75.54,0.01,577,26,104,296,154,140,1.87,101116,33.3
UTC 221212 105746 5 9 ,142,53.32789612,5.932984352,18.53,0,0,0,75.85,75.85,0.01,567,25,103,296,154,140,1.86,101111,33.3
UTC 221212 105747 5 9 ,143,53.32790756,5.933060169,18.63,0,0,0,75.58,75.58,0.01,567,25,103,296,153,140,1.88,101114,33.3
UTC 221212 105748 5 9 ,144,53.32791901,5.933134556,18.73,0,0,0,75.82,75.82,0.01,577,26,103,296,153,140,1.93,101113,33.3
UTC 221212 105749 5 9 ,145,53.32793045,5.933208466,18.83,0,0,0,75.66,75.66,0.01,577,26,102,295,153,140,1.97,101116,33.3
UTC 221212 105750 5 9 ,146,53.32794189,5.933280945,18.95,0,0,0,75.57,75.57,0.01,588,28,103,295,153,140,1.98,101114,33.3
UTC 221212 105751 5 9 ,147,53.32795334,5.93335247,19.05,0,0,0,75.69,75.69,0.01,561,24,102,296,152,140,1.98,101115,33.3
UTC 221212 105751 5 9 ,148,53.32796097,5.933427334,19.16,0,0,0,75.81,75.81,0.01,577,26,102,296,153,140,1.99,101109,33.3
UTC 221212 105753 5 9 ,149,53.32797241,5.93350029,19.26,0,0,0,75.82,75.82,0.01,567,25,101,295,153,140,2,101108,33.3
UTC 221212 105754 5 9 ,150,53.32798386,5.933573723,19.36,0,0,0,75.77,75.77,0.01,577,26,102,295,152,140,2.01,101107,33.3
UTC 221212 105755 5 9 ,151,53.3279953,5.933645725,19.47,0,0,0,75.91,75.91,0.01,588,28,101,295,153,140,2.03,101105,33.3
UTC 221212 105756 5 9 ,152,53.32800674,5.933721066,19.56,0,0,0,75.85,75.85,0.01,561,24,101,296,152,140,2.03,101103,33.3
UTC 221212 105757 5 9 ,153,53.32801819,5.933793545,19.68,0,0,0,76.43,76.43,0.01,567,25,101,296,152,140,2.06,101102,33.3
UTC 221212 105758 5 9 ,154,53.32802582,5.933847427,19.72,0,0,0,76.94,76.94,0.01,577,26,102,296,152,140,2.07,101099,41.64
UTC 221212 105759 5 9 ,155,53.32802582,5.933859825,19.67,0,0,0,75.86,75.86,0.01,588,28,102,297,153,140,2.1,101105,33.3
UTC 221212 105800 5 9 ,156,53.32802582,5.933873177,19.65,0,0,0,75.37,75.37,0.01,600,30,101,296,152,140,2.14,101102,33.3
UTC 221212 105801 5 9 ,157,53.32803345,5.933923721,19.66,0,0,0,76.43,76.43,0.01,580,27,101,297,153,140,2.14,101096,41.64
UTC 221212 105802 5 9 ,158,53.32804489,5.933982372,19.6,0,0,0,75.71,75.71,0.01,580,27,101,296,152,140,2.15,101095,41.64
UTC 221212 105803 5 9 ,159,53.32805252,5.934047699,19.57,0,0,0,75.93,75.93,0.01,588,28,102,296,152,140,2.15,101092,41.64
UTC 221212 105804 5 9 ,160,53.32806396,5.934118271,19.53,0,0,0,75.37,75.37,0.01,588,28,102,296,152,141,2.16,101105,33.3
UTC 221212 105805 5 9 ,161,53.32807541,5.934192658,19.5,0,0,0,75.56,75.56,0.01,594,29,101,296,152,140,2.14,101104,33.3
UTC 221212 105806 5 9 ,162,53.32808685,5.93426466,19.48,0,0,0,76.16,76.16,0.01,580,27,101,296,152,140,2.13,101097,41.64
UTC 221212 105807 5 9 ,163,53.3280983,5.934338093,19.47,0,0,0,75.97,75.97,0.01,580,27,101,297,152,140,2.12,101102,33.3
UTC 221212 105808 5 9 ,164,53.32810974,5.934410572,19.44,0,0,0,75.78,75.78,0.01,580,27,101,297,151,140,2.12,101091,41.64
UTC 221212 105808 5 9 ,165,53.32811737,5.934483051,19.41,0,0,0,76.13,76.13,0.01,577,25,101,296,151,141,2.09,101087,41.64
UTC 221212 105810 5 9 ,166,53.32812881,5.934556484,19.36,0,0,0,76.17,76.17,0.01,567,25,101,297,151,140,2.06,101093,41.64
UTC 221212 105811 5 9 ,167,53.32814026,5.934631348,19.32,0,0,0,76.34,76.34,0.01,567,25,101,296,151,140,2.03,101092,41.64
UTC 221212 105811 5 9 ,168,53.3281517,5.93470192,19.29,0,0,0,76.13,76.13,0.01,580,27,100,296,151,141,2,101094,41.64
UTC 221212 105813 5 9 ,169,53.32816315,5.934775829,19.26,0,0,0,76.01,76.01,0.01,580,27,100,297,150,140,1.98,101096,41.64
UTC 221212 105814 5 9 ,170,53.32817459,5.934847832,19.19,0,0,0,75.2,75.2,0.01,561,24,101,296,151,140,1.96,101093,41.64
UTC 221212 105814 5 9 ,171,53.32818604,5.934922695,19.13,0,0,0,75.03,75.03,0.01,567,25,101,297,150,140,1.95,101111,33.3
UTC 221212 105816 5 9 ,172,53.32819748,5.934996128,19.11,0,0,0,75.29,75.29,0.01,567,25,100,296,150,139,1.95,101110,33.3
UTC 221212 105817 5 9 ,173,53.32820892,5.935067177,19.09,0,0,0,75.57,75.57,0.01,567,25,100,296,150,140,1.96,101104,33.3
UTC 221212 105818 5 9 ,174,53.32822037,5.93514204,19.06,0,0,0,75.7,75.7,0.01,580,27,100,295,150,140,1.96,101108,33.3
UTC 221212 105819 5 9 ,175,53.328228,5.935215473,19,0,0,0,75.65,75.65,0.01,567,25,100,296,149,139,1.97,101106,33.3
UTC 221212 105820 5 9 ,176,53.32823944,5.935288429,18.97,0,0,0,76.11,76.11,0.01,561,24,100,296,149,139,1.96,101098,41.64
UTC 221212 105821 5 9 ,177,53.32825089,5.935359955,18.94,0,0,0,76.12,76.12,0.01,567,25,99,296,149,139,1.95,101100,33.3
UTC 221212 105822 5 9 ,178,53.32826233,5.935434818,18.89,0,0,0,75.93,75.93,0.01,567,25,98,296,150,139,1.94,101099,41.64
UTC 221212 105823 5 9 ,179,53.32826996,5.935506821,18.85,0,0,0,76.36,76.36,0.01,588,28,99,295,149,140,1.94,101107,33.3
UTC 221212 105824 5 9 ,180,53.32827759,5.935552597,18.79,0,0,0,76.24,76.24,0.01,567,25,99,296,148,139,1.96,101114,33.3
UTC 221212 105825 5 9 ,181,53.3282814,5.935555935,18.74,0,0,0,13.94,13.94,0.01,567,25,99,296,148,139,1.99,101107,33.3
UTC 221212 105826 5 9 ,182,53.32829285,5.935537815,18.79,0,0,0,344.04,344.04,0.01,577,26,99,296,149,139,2.04,101113,33.3
UTC 221212 105827 5 9 ,183,53.32831573,5.935516357,18.81,0,0,0,343.63,343.63,0.01,580,27,99,295,149,140,2.06,101111,33.3
UTC 221212 105828 5 9 ,184,53.32834625,5.935498238,18.83,0,0,0,344,344,0.01,600,30,99,296,149,139,2.12,101112,33.3
UTC 221212 105829 5 9 ,185,53.32836914,5.935486794,18.83,0,0,0,343.95,343.95,0.01,588,28,100,295,149,140,2.17,101111,33.3
UTC 221212 105830 5 9 ,186,53.32836914,5.935484409,18.81,0,0,0,287.91,287.91,0.01,588,28,100,296,149,139,2.21,101099,41.64
UTC 221212 105831 5 9 ,187,53.32836151,5.935465336,18.78,0,0,0,255.11,255.11,0.01,580,27,99,296,149,139,2.24,101089,41.64
UTC 221212 105832 5 9 ,188,53.32835388,5.935430527,18.74,0,0,0,254.78,254.78,0.01,580,27,99,296,148,139,2.19,101093,41.64
UTC 221212 105833 5 9 ,189,53.32834625,5.935382843,18.66,0,0,0,254.82,254.82,0.01,588,28,100,296,149,139,2.16,101093,41.64
UTC 221212 105834 5 9 ,190,53.32833862,5.935325146,18.57,0,0,0,254.88,254.88,0.01,567,25,99,296,148,139,2.11,101088,41.64
UTC 221212 105835 5 9 ,191,53.32832718,5.935260773,18.47,0,0,0,254.92,254.92,0.01,553,23,99,297,148,139,2.08,101092,41.64
UTC 221212 105836 5 9 ,192,53.32831573,5.93518734,18.35,0,0,0,254.95,254.95,0.01,553,23,99,297,149,139,2.06,101095,41.64
UTC 221212 105837 5 9 ,193,53.32830429,5.935111523,18.23,0,0,0,254.86,254.86,0.01,553,23,99,297,148,139,2.02,101093,41.64
UTC 221212 105838 5 9 ,194,53.32829285,5.935037613,18.1,0,0,0,254.68,254.68,0.01,561,24,98,296,148,138,1.95,101099,41.64
UTC 221212 105839 5 9 ,195,53.32828903,5.934985638,17.99,0,0,0,254.55,254.55,0.01,553,23,99,296,148,139,1.93,101104,33.3
UTC 221212 105840 5 9 ,196,53.32828522,5.934976101,17.98,0,0,0,255.63,255.63,0.01,553,23,99,295,148,139,1.99,101100,33.3
UTC 221212 105841 5 9 ,197,53.32828522,5.934966087,18.04,0,0,0,256.11,256.11,0.01,553,23,98,295,147,139,2.01,101107,33.3
UTC 221212 105842 5 9 ,198,53.32827759,5.934916973,18.19,0,0,0,255.64,255.64,0.01,551,23,98,296,148,139,2,101095,41.64
UTC 221212 105843 5 9 ,199,53.32826996,5.934858322,18.26,0,0,0,255.1,255.1,0.01,553,23,98,296,148,139,1.95,101093,41.64
UTC 221212 105844 5 9 ,200,53.32825851,5.934792996,18.35,0,0,0,254.61,254.61,0.01,553,23,98,296,148,138,1.9,101095,41.64
UTC 221212 105845 5 9 ,201,53.32824707,5.934724808,18.45,0,0,0,255.14,255.14,0.01,542,21,98,296,147,138,1.88,101091,41.64
UTC 221212 105846 5 9 ,202,53.32823563,5.934650898,18.58,0,0,0,254.68,254.68,0.01,542,21,98,296,147,138,1.85,101090,41.64
UTC 221212 105847 5 9 ,203,53.328228,5.934576988,18.68,0,0,0,254.94,254.94,0.01,536,20,97,296,147,138,1.8,101089,41.64
UTC 221212 105848 5 9 ,204,53.32821655,5.934503555,18.78,0,0,0,255.3,255.3,0.01,536,20,96,295,147,138,1.75,101088,41.64
UTC 221212 105849 5 9 ,205,53.32820511,5.934427738,18.92,0,0,0,254.72,254.72,0.01,551,23,97,296,146,139,1.71,101081,41.64
UTC 221212 105850 5 9 ,206,53.32819366,5.934354305,19,0,0,0,254.83,254.83,0.01,527,19,96,296,147,139,1.65,101077,41.64
UTC 221212 105850 5 9 ,207,53.32818222,5.934281349,19.1,0,0,0,255.42,255.42,0.01,530,19,96,296,146,139,1.61,101079,41.64
UTC 221212 105852 5 9 ,208,53.32817078,5.934207916,19.21,0,0,0,255.07,255.07,0.01,536,20,97,296,147,140,1.58,101078,41.64
UTC 221212 105853 5 9 ,209,53.32815933,5.93413496,19.34,0,0,0,254.89,254.89,0.01,536,20,97,296,147,140,1.56,101075,41.64
UTC 221212 105854 5 9 ,210,53.3281517,5.934061527,19.43,0,0,0,255.11,255.11,0.01,551,23,96,297,147,139,1.51,101074,41.64
UTC 221212 105855 5 9 ,211,53.32814026,5.933988094,19.54,0,0,0,255.19,255.19,0.01,530,19,97,295,146,140,1.49,101075,41.64
UTC 221212 105856 5 9 ,212,53.32812881,5.933914185,19.64,0,0,0,255.49,255.49,0.01,518,17,96,295,145,139,1.48,101072,41.64
UTC 221212 105856 5 9 ,213,53.32811737,5.933844566,19.74,0,0,0,254.5,254.5,0.01,518,17,95,296,146,140,1.47,101070,41.64
UTC 221212 105858 5 9 ,214,53.32811356,5.933801174,19.75,0,0,0,254.54,254.54,0.01,527,19,95,295,146,138,1.47,101079,41.64
UTC 221212 105859 5 9 ,215,53.32810974,5.933796406,19.69,0,0,0,255.96,255.96,0.01,551,23,95,296,145,139,1.53,101079,41.64
UTC 221212 105900 5 9 ,216,53.32810593,5.933774948,19.64,0,0,0,255.76,255.76,0.01,530,19,95,296,145,139,1.58,101074,41.64
UTC 221212 105901 5 9 ,217,53.3280983,5.933720112,19.59,0,0,0,255.35,255.35,0.01,530,19,94,295,145,138,1.56,101071,41.64
UTC 221212 105902 5 9 ,218,53.32809067,5.933661938,19.5,0,0,0,255.36,255.36,0.01,518,17,95,296,144,138,1.55,101070,41.64
UTC 221212 105903 5 9 ,219,53.32808304,5.933599472,19.44,0,0,0,255.33,255.33,0.01,518,17,95,296,145,138,1.53,101073,41.64
UTC 221212 105904 5 9 ,220,53.32807159,5.933533669,19.37,0,0,0,255.32,255.32,0.01,530,19,94,295,145,139,1.52,101071,41.64
UTC 221212 105905 5 9 ,221,53.32806396,5.933468342,19.29,0,0,0,255.3,255.3,0.01,527,19,94,295,145,138,1.51,101072,41.64
UTC 221212 105906 5 9 ,222,53.32805252,5.933398247,19.22,0,0,0,255.09,255.09,0.01,518,17,94,296,144,138,1.51,101074,41.64
UTC 221212 105907 5 9 ,223,53.32804108,5.933324814,19.14,0,0,0,254.87,254.87,0.01,505,15,93,295,145,138,1.5,101073,41.64
UTC 221212 105907 5 9 ,224,53.32802963,5.933250427,19.07,0,0,0,254.39,254.39,0.01,508,16,93,296,145,138,1.47,101078,41.64
UTC 221212 105909 5 9 ,225,53.32801819,5.933177948,18.96,0,0,0,254.88,254.88,0.01,530,19,94,297,145,138,1.43,101078,41.64
UTC 221212 105910 5 9 ,226,53.32800674,5.933103085,18.87,0,0,0,254.99,254.99,0.01,527,19,93,297,144,139,1.41,101087,41.64
UTC 221212 105911 5 9 ,227,53.3279953,5.933030129,18.79,0,0,0,255.13,255.13,0.01,518,17,94,297,145,138,1.38,101084,41.64
UTC 221212 105912 5 9 ,228,53.32798386,5.932957172,18.69,0,0,0,255.01,255.01,0.01,527,19,93,297,145,139,1.36,101085,41.64
UTC 221212 105913 5 9 ,229,53.32797241,5.932883263,18.61,0,0,0,254.67,254.67,0.01,518,17,93,297,144,138,1.35,101088,41.64
UTC 221212 105914 5 9 ,230,53.32796478,5.932812214,18.52,0,0,0,254.99,254.99,0.01,530,19,93,296,145,139,1.33,101093,41.64
UTC 221212 105915 5 9 ,231,53.32795334,5.932737827,18.4,0,0,0,255.31,255.31,0.01,527,19,94,297,144,138,1.3,101094,41.64
UTC 221212 105916 5 9 ,232,53.32794189,5.932664394,18.33,0,0,0,255.04,255.04,0.01,527,19,93,297,145,138,1.29,101094,41.64
UTC 221212 105917 5 9 ,233,53.32793045,5.932593346,18.24,0,0,0,254.49,254.49,0.01,518,17,93,296,144,138,1.27,101096,41.64
UTC 221212 105918 5 9 ,234,53.32792282,5.932543278,18.16,0,0,0,254.3,254.3,0.01,530,19,94,297,143,138,1.27,101108,33.3
UTC 221212 105919 5 9 ,235,53.32792282,5.932535648,18.12,0,0,0,302.73,302.73,0.01,530,19,94,296,144,138,1.33,101105,33.3
UTC 221212 105920 5 9 ,236,53.32793808,5.932539463,18.15,0,0,0,343.04,343.04,0.01,553,23,94,297,144,138,1.4,101124,33.3
UTC 221212 105921 5 9 ,237,53.32796478,5.932536602,18.2,0,0,0,343.54,343.54,0.01,551,23,94,297,144,138,1.46,101123,33.3
UTC 221212 105921 5 9 ,238,53.32799912,5.932527542,18.24,0,0,0,343.14,343.14,0.01,553,23,95,297,144,138,1.51,101125,33.3
UTC 221212 105923 5 9 ,239,53.328022,5.932519436,18.25,0,0,0,343.67,343.67,0.01,567,25,95,296,144,138,1.58,101119,33.3
UTC 221212 105924 5 9 ,240,53.32802582,5.932519913,18.25,0,0,0,41.22,41.22,0.01,567,25,96,297,144,139,1.61,101126,33.3
UTC 221212 105924 5 9 ,241,53.328022,5.932543755,18.29,0,0,0,75.87,75.87,0.01,588,28,95,297,144,138,1.68,101121,33.3
UTC 221212 105926 5 9 ,242,53.32802582,5.932583809,18.35,0,0,0,75.69,75.69,0.01,567,25,95,297,144,138,1.69,101119,33.3
UTC 221212 105927 5 9 ,243,53.32803345,5.932635784,18.41,0,0,0,75.69,75.69,0.01,561,24,95,296,144,138,1.69,101118,33.3
UTC 221212 105927 5 9 ,244,53.32804108,5.932698727,18.48,0,0,0,75.7,75.7,0.01,567,25,96,297,144,138,1.7,101120,33.3
UTC 221212 105929 5 9 ,245,53.32805252,5.932769775,18.57,0,0,0,75.77,75.77,0.01,577,26,96,297,143,138,1.73,101119,33.3
UTC 221212 105930 5 9 ,246,53.32806015,5.932845593,18.66,0,0,0,75.72,75.72,0.01,588,28,96,296,144,138,1.74,101116,33.3
UTC 221212 105930 5 9 ,247,53.32807159,5.932919979,18.72,0,0,0,75.67,75.67,0.01,577,26,95,295,143,137,1.77,101113,33.3
UTC 221212 105932 5 9 ,248,53.32808304,5.932994366,18.81,0,0,0,75.65,75.65,0.01,567,25,95,296,143,138,1.81,101114,33.3
UTC 221212 105933 5 9 ,249,53.32809448,5.933066368,18.91,0,0,0,75.88,75.88,0.01,567,25,95,296,143,138,1.84,101110,33.3
UTC 221212 105934 5 9 ,250,53.32810593,5.933138371,18.99,0,0,0,75.68,75.68,0.01,577,26,95,295,143,138,1.86,101114,33.3
UTC 221212 105935 5 9 ,251,53.32811737,5.933213711,19.07,0,0,0,75.54,75.54,0.01,588,28,95,295,143,137,1.88,101117,33.3
UTC 221212 105936 5 9 ,252,53.32812881,5.933285713,19.16,0,0,0,75.79,75.79,0.01,580,27,94,295,142,137,1.9,101109,33.3
UTC 221212 105937 5 9 ,253,53.32813644,5.933359146,19.26,0,0,0,75.99,75.99,0.01,577,26,94,296,143,138,1.93,101107,33.3
UTC 221212 105938 5 9 ,254,53.32814789,5.933432102,19.34,0,0,0,76,76,0.01,577,26,94,296,143,138,1.97,101104,33.3
UTC 221212 105939 5 9 ,255,53.32815933,5.933504582,19.41,0,0,0,75.74,75.74,0.01,580,27,94,296,143,137,1.98,101106,33.3
UTC 221212 105940 5 9 ,256,53.32817078,5.933578014,19.49,0,0,0,75.85,75.85,0.01,588,28,94,295,142,138,1.99,101101,33.3
UTC 221212 105941 5 9 ,257,53.32818222,5.933650971,19.58,0,0,0,75.58,75.58,0.01,580,27,94,296,142,137,1.98,101104,33.3
UTC 221212 105942 5 9 ,258,53.32818985,5.93372345,19.65,0,0,0,75.64,75.64,0.01,577,26,94,295,142,138,1.99,101106,33.3
UTC 221212 105943 5 9 ,259,53.32820129,5.933794975,19.73,0,0,0,75.9,75.9,0.01,561,24,93,296,142,138,2,101102,33.3
UTC 221212 105944 5 9 ,260,53.32820892,5.933851719,19.77,0,0,0,76.71,76.71,0.01,567,25,93,295,142,138,2.01,101102,33.3
UTC 221212 105945 5 9 ,261,53.32821274,5.933864594,19.73,0,0,0,75.63,75.63,0.01,580,27,93,295,141,137,2.04,101109,33.3
UTC 221212 105946 5 9 ,262,53.32821274,5.933875561,19.68,0,0,0,74.89,74.89,0.01,580,27,92,295,142,137,2.09,101108,33.3
UTC 221212 105947 5 9 ,263,53.32822037,5.933923721,19.63,0,0,0,76.17,76.17,0.01,577,26,92,295,141,137,2.08,101106,33.3
UTC 221212 105948 5 9 ,264,53.328228,5.933979034,19.53,0,0,0,75.97,75.97,0.01,577,26,92,295,141,138,2.09,101104,33.3
UTC 221212 105949 5 9 ,265,53.32823944,5.9340415,19.47,0,0,0,76.14,76.14,0.01,577,26,92,295,141,138,2.09,101104,33.3
UTC 221212 105950 5 9 ,266,53.32824707,5.934110165,19.37,0,0,0,76.53,76.53,0.01,577,26,93,296,141,139,2.09,101100,33.3
UTC 221212 105951 5 9 ,267,53.32825851,5.934181213,19.26,0,0,0,75.92,75.92,0.01,588,28,92,297,142,138,2.08,101106,33.3
UTC 221212 105952 5 9 ,268,53.32826996,5.934257984,19.17,0,0,0,75.87,75.87,0.01,567,25,93,297,141,139,2.06,101105,33.3
UTC 221212 105953 5 9 ,269,53.3282814,5.934330463,19.08,0,0,0,75.19,75.19,0.01,567,25,92,295,141,138,2.07,101109,33.3
UTC 221212 105953 5 9 ,270,53.32829285,5.934402943,19,0,0,0,75.28,75.28,0.01,567,25,93,296,141,138,2.07,101114,33.3
UTC 221212 105955 5 9 ,271,53.32830429,5.934473515,18.91,0,0,0,76.09,76.09,0.01,567,25,92,296,141,137,2.05,101104,33.3
UTC 221212 105956 5 9 ,272,53.32831192,5.934548378,18.81,0,0,0,76.18,76.18,0.01,580,27,93,296,140,138,2.03,101105,33.3
UTC 221212 105957 5 9 ,273,53.32832336,5.934622765,18.69,0,0,0,76,76,0.01,561,24,92,296,140,138,2.02,101112,33.3
UTC 221212 105958 5 9 ,274,53.32833481,5.934696674,18.57,0,0,0,75.75,75.75,0.01,553,23,92,296,140,138,2.01,101111,33.3
UTC 221212 105959 5 9 ,275,53.32834625,5.934770584,18.47,0,0,0,75.78,75.78,0.01,561,24,92,295,140,138,2,101116,33.3
UTC 221212 105959 5 9 ,276,53.3283577,5.934844017,18.36,0,0,0,75.53,75.53,0.01,567,25,92,296,140,138,2,101119,33.3
UTC 221212 110001 5 9 ,277,53.32836914,5.934917927,18.25,0,0,0,75.32,75.32,0.01,588,28,92,295,140,138,2.01,101127,33.3
UTC 221212 110002 5 9 ,278,53.32838058,5.934988976,18.17,0,0,0,76.28,76.28,0.01,567,25,91,295,140,137,2.02,101116,33.3
UTC 221212 110003 5 9 ,279,53.32838821,5.935034752,18.11,0,0,0,77.09,77.09,0.01,577,26,92,296,140,138,2,101117,33.3
UTC 221212 110004 5 9 ,280,53.32838821,5.935041904,18.08,0,0,0,75.58,75.58,0.01,561,24,92,296,140,138,2.03,101128,33.3
UTC 221212 110005 5 9 ,281,53.32838821,5.935055256,18.16,0,0,0,75.19,75.19,0.01,577,26,92,296,140,138,2.07,101123,33.3
UTC 221212 110006 5 9 ,282,53.32839584,5.935101986,18.34,0,0,0,76.18,76.18,0.01,588,28,92,296,140,138,2.07,101114,33.3
UTC 221212 110007 5 9 ,283,53.32840347,5.935154438,18.42,0,0,0,75.61,75.61,0.01,577,26,92,295,139,138,2.06,101115,33.3
UTC 221212 110008 5 9 ,284,53.32841492,5.935208798,18.55,0,0,0,75.82,75.82,0.01,577,26,92,296,139,137,2.06,101114,33.3
UTC 221212 110008 5 9 ,285,53.32842255,5.935264587,18.68,0,0,0,75.66,75.66,0.01,567,25,92,295,140,138,2.04,101113,33.3
UTC 221212 110010 5 9 ,286,53.32843018,5.935317993,18.79,0,0,0,75.7,75.7,0.01,577,26,91,295,139,138,2.05,101111,33.3
UTC 221212 110011 5 9 ,287,53.32843781,5.935373306,18.95,0,0,0,75.79,75.79,0.01,580,27,92,296,139,137,2.05,101107,33.3
UTC 221212 110012 5 9 ,288,53.32844543,5.935432911,19.1,0,0,0,76.77,76.77,0.01,577,26,92,296,139,137,2.04,101111,33.3
UTC 221212 110013 5 9 ,289,53.32845306,5.935465813,19.08,0,0,0,75.99,75.99,0.01,577,26,91,295,139,137,2.07,101113,33.3
UTC 221212 110014 5 9 ,290,53.32845306,5.935463429,19.04,0,0,0,357.21,357.21,0.01,577,26,91,295,139,137,2.12,101107,33.3
UTC 221212 110015 5 9 ,291,53.32847214,5.935447693,19.14,0,0,0,343.62,343.62,0.01,580,27,92,295,139,138,2.15,101109,33.3
UTC 221212 110016 5 9 ,292,53.32849503,5.93543005,19.21,0,0,0,343.5,343.5,0.01,600,27,91,296,139,137,2.19,101108,33.3
UTC 221212 110017 5 9 ,293,53.32852936,5.935413837,19.27,0,0,0,343.71,343.71,0.01,594,29,92,296,139,138,2.24,101107,33.3
UTC 221212 110018 5 9 ,294,53.32854462,5.935405731,19.29,0,0,0,343.12,343.12,0.01,594,29,93,295,138,138,2.3,101103,33.3
UTC 221212 110019 5 9 ,295,53.32854462,5.935403347,19.25,0,0,0,269.83,269.83,0.01,594,29,92,295,139,137,2.34,101086,41.64
UTC 221212 110020 5 9 ,296,53.32853699,5.935379028,19.2,0,0,0,255.45,255.45,0.01,580,27,93,295,139,137,2.36,101086,41.64
UTC 221212 110021 5 9 ,297,53.32852554,5.935339928,19.11,0,0,0,254.92,254.92,0.01,561,24,92,295,139,138,2.33,101087,41.64
UTC 221212 110022 5 9 ,298,53.32851791,5.935290813,19.01,0,0,0,254.98,254.98,0.01,567,25,91,296,139,137,2.28,101092,41.64
UTC 221212 110023 5 9 ,299,53.32851028,5.935232639,18.87,0,0,0,254.53,254.53,0.01,567,25,92,296,139,137,2.24,101092,41.64
UTC 221212 110024 5 9 ,300,53.32849884,5.935166836,18.73,0,0,0,255.04,255.04,0.01,577,26,92,296,138,138,2.22,101093,41.64
UTC 221212 110025 5 9 ,301,53.3284874,5.93509531,18.59,0,0,0,255.02,255.02,0.01,553,23,92,295,138,137,2.19,101095,41.64
UTC 221212 110026 5 9 ,302,53.32847595,5.935023308,18.44,0,0,0,253.71,253.71,0.01,553,23,92,295,138,137,2.1,101092,41.64
UTC 221212 110027 5 9 ,303,53.32847214,5.934989452,18.33,0,0,0,255.11,255.11,0.01,551,23,92,296,138,137,2.09,101106,33.3
UTC 221212 110027 5 9 ,304,53.32847214,5.934987545,18.33,0,0,0,256.02,256.02,0.01,553,23,92,296,139,137,2.15,101103,33.3
UTC 221212 110029 5 9 ,305,53.32846832,5.934962273,18.43,0,0,0,255.79,255.79,0.01,567,25,91,294,138,137,2.18,101097,41.64
UTC 221212 110030 5 9 ,306,53.32846069,5.934909821,18.53,0,0,0,255.54,255.54,0.01,542,21,91,295,138,137,2.14,101092,41.64
UTC 221212 110031 5 9 ,307,53.32845306,5.934848785,18.59,0,0,0,254.92,254.92,0.01,536,20,91,295,138,137,2.11,101098,41.64
UTC 221212 110032 5 9 ,308,53.32844162,5.934783459,18.67,0,0,0,255.07,255.07,0.01,536,20,90,295,137,137,2.06,101095,41.64
UTC 221212 110033 5 9 ,309,53.32843399,5.934714317,18.79,0,0,0,254.54,254.54,0.01,536,20,90,294,138,137,2.01,101094,41.64
UTC 221212 110034 5 9 ,310,53.32842255,5.934644222,18.87,0,0,0,254.84,254.84,0.01,553,23,90,296,138,137,1.97,101092,41.64
UTC 221212 110035 5 9 ,311,53.3284111,5.934569836,18.94,0,0,0,254.94,254.94,0.01,530,19,90,295,137,137,1.93,101084,41.64
UTC 221212 110035 5 9 ,312,53.32839966,5.93449688,19.04,0,0,0,254.77,254.77,0.01,536,20,89,294,137,137,1.88,101087,41.64
UTC 221212 110037 5 9 ,313,53.32838821,5.934423924,19.13,0,0,0,254.75,254.75,0.01,536,20,90,296,137,137,1.86,101082,41.64
UTC 221212 110038 5 9 ,314,53.32837677,5.934350491,19.2,0,0,0,254.95,254.95,0.01,536,20,90,295,137,137,1.81,101087,41.64
UTC 221212 110039 5 9 ,315,53.32836533,5.934276581,19.24,0,0,0,255.41,255.41,0.01,553,23,90,296,137,137,1.76,101084,41.64
UTC 221212 110040 5 9 ,316,53.3283577,5.934201717,19.33,0,0,0,255.26,255.26,0.01,542,21,90,295,137,137,1.72,101087,41.64
UTC 221212 110041 5 9 ,317,53.32834625,5.934129238,19.42,0,0,0,255.27,255.27,0.01,530,19,89,295,137,136,1.69,101078,41.64
UTC 221212 110042 5 9 ,318,53.32833481,5.934054852,19.54,0,0,0,254.92,254.92,0.01,530,19,89,295,136,136,1.65,101080,41.64
UTC 221212 110043 5 9 ,319,53.32832336,5.933983326,19.63,0,0,0,254.92,254.92,0.01,536,20,90,295,137,137,1.63,101079,41.64
UTC 221212 110044 5 9 ,320,53.32831192,5.933912277,19.72,0,0,0,254.78,254.78,0.01,542,21,90,296,137,137,1.61,101073,41.64
UTC 221212 110045 5 9 ,321,53.32830048,5.933839798,19.8,0,0,0,254.81,254.81,0.01,542,21,89,296,136,137,1.58,101075,41.64
UTC 221212 110046 5 9 ,322,53.32829285,5.93378067,19.85,0,0,0,253.98,253.98,0.01,530,19,89,297,137,137,1.55,101083,41.64
UTC 221212 110047 5 9 ,323,53.32829285,5.933765411,19.79,0,0,0,255.72,255.72,0.01,530,19,89,296,137,137,1.55,101088,41.64
UTC 221212 110048 5 9 ,324,53.32828903,5.933756352,19.73,0,0,0,255.75,255.75,0.01,536,20,90,296,137,137,1.6,101092,41.64
UTC 221212 110049 5 9 ,325,53.3282814,5.933710575,19.7,0,0,0,255.17,255.17,0.01,551,23,90,296,137,137,1.59,101087,41.64
UTC 221212 110050 5 9 ,326,53.32827377,5.933656216,19.62,0,0,0,255.17,255.17,0.01,542,21,89,296,136,137,1.55,101081,41.64
UTC 221212 110051 5 9 ,327,53.32826614,5.933595181,19.56,0,0,0,255.45,255.45,0.01,530,19,89,296,137,137,1.52,101078,41.64
UTC 221212 110052 5 9 ,328,53.3282547,5.933529377,19.48,0,0,0,255.06,255.06,0.01,530,19,89,296,136,138,1.5,101076,41.64
UTC 221212 110053 5 9 ,329,53.32824707,5.933460236,19.42,0,0,0,255.17,255.17,0.01,536,20,88,296,136,138,1.48,101074,41.64
UTC 221212 110054 5 9 ,330,53.32823563,5.933388233,19.35,0,0,0,255.07,255.07,0.01,536,20,88,295,136,137,1.45,101077,41.64
UTC 221212 110055 5 9 ,331,53.32822418,5.933313847,19.27,0,0,0,255.34,255.34,0.01,530,19,89,295,136,137,1.42,101078,41.64
UTC 221212 110056 5 9 ,332,53.32821274,5.933240891,19.2,0,0,0,255.13,255.13,0.01,518,17,88,295,135,137,1.4,101067,41.64
UTC 221212 110057 5 9 ,333,53.32820511,5.933165073,19.12,0,0,0,255.22,255.22,0.01,518,17,88,295,135,137,1.39,101075,41.64
UTC 221212 110058 5 9 ,334,53.32819366,5.933091641,19.02,0,0,0,255.18,255.18,0.01,518,17,87,295,136,137,1.37,101076,41.64
UTC 221212 110059 5 9 ,335,53.32818222,5.933019638,18.92,0,0,0,255.38,255.38,0.01,518,17,87,294,136,137,1.35,101078,41.64
UTC 221212 110100 5 9 ,336,53.32817078,5.932944775,18.84,0,0,0,255.34,255.34,0.01,530,19,87,295,135,136,1.36,101085,41.64
UTC 221212 110101 5 9 ,337,53.32815933,5.932871819,18.78,0,0,0,255.2,255.2,0.01,505,15,87,294,135,136,1.36,101077,41.64
UTC 221212 110102 5 9 ,338,53.32814789,5.932798386,18.7,0,0,0,254.7,254.7,0.01,508,16,87,295,135,136,1.36,101086,41.64
UTC 221212 110103 5 9 ,339,53.32813644,5.93272543,18.6,0,0,0,254.47,254.47,0.01,505,15,87,296,135,136,1.34,101092,41.64
UTC 221212 110103 5 9 ,340,53.328125,5.932653904,18.52,0,0,0,254.67,254.67,0.01,508,16,86,295,135,137,1.32,101095,41.64
UTC 221212 110105 5 9 ,341,53.32811356,5.932579517,18.43,0,0,0,255,255,0.01,527,19,87,296,135,137,1.29,101092,41.64
UTC 221212 110106 5 9 ,342,53.32810211,5.932506561,18.34,0,0,0,254.59,254.59,0.01,508,16,86,296,135,137,1.27,101094,41.64
UTC 221212 110106 5 9 ,343,53.32809448,5.932458878,18.27,0,0,0,254.08,254.08,0.01,518,17,86,296,134,136,1.28,101103,33.3
UTC 221212 110108 5 9 ,344,53.32809448,5.932452202,18.23,0,0,0,307.2,307.2,0.01,518,17,87,296,135,136,1.33,101105,33.3
UTC 221212 110109 5 9 ,345,53.32810974,5.93245697,18.24,0,0,0,343.46,343.46,0.01,527,19,86,296,134,136,1.41,101127,33.3
UTC 221212 110109 5 9 ,346,53.32814026,5.932454109,18.24,0,0,0,344.07,344.07,0.01,553,23,87,296,135,137,1.45,101126,33.3
UTC 221212 110111 5 9 ,347,53.32817459,5.932445049,18.23,0,0,0,343.62,343.62,0.01,553,23,88,295,135,137,1.52,101126,33.3
UTC 221212 110112 5 9 ,348,53.32819366,5.93243742,18.2,0,0,0,343.99,343.99,0.01,553,23,88,296,135,136,1.57,101121,33.3
UTC 221212 110113 5 9 ,349,53.32819748,5.93243885,18.2,0,0,0,44.38,44.38,0.01,553,23,89,296,135,136,1.62,101128,33.3
UTC 221212 110114 5 9 ,350,53.32819748,5.932463646,18.25,0,0,0,75.4,75.4,0.01,561,24,88,296,135,137,1.69,101124,33.3
UTC 221212 110115 5 9 ,351,53.32819748,5.932504177,18.31,0,0,0,75.54,75.54,0.01,567,25,89,296,134,137,1.68,101125,33.3
UTC 221212 110116 5 9 ,352,53.32820511,5.932556152,18.38,0,0,0,75.73,75.73,0.01,567,25,89,296,134,137,1.67,101123,33.3
UTC 221212 110117 5 9 ,353,53.32821274,5.932618141,18.47,0,0,0,76.2,76.2,0.01,553,23,89,295,134,137,1.66,101122,33.3
UTC 221212 110118 5 9 ,354,53.32822418,5.932687283,18.57,0,0,0,75.44,75.44,0.01,561,24,89,296,134,136,1.7,101121,33.3
UTC 221212 110119 5 9 ,355,53.32823563,5.932762146,18.65,0,0,0,75.64,75.64,0.01,561,24,88,296,134,137,1.71,101119,33.3
UTC 221212 110120 5 9 ,356,53.32824707,5.932838917,18.75,0,0,0,75.8,75.8,0.01,577,26,88,295,134,136,1.72,101115,33.3
UTC 221212 110120 5 9 ,357,53.32825851,5.932913303,18.86,0,0,0,75.69,75.69,0.01,567,25,87,295,134,136,1.75,101115,33.3
UTC 221212 110122 5 9 ,358,53.32826614,5.932985306,18.96,0,0,0,75.83,75.83,0.01,561,24,88,295,134,136,1.8,101115,33.3
UTC 221212 110123 5 9 ,359,53.32827759,5.933059692,19.06,0,0,0,75.49,75.49,0.01,567,25,88,295,134,137,1.82,101119,33.3
UTC 221212 110123 5 9 ,360,53.32828903,5.933132649,19.16,0,0,0,75.71,75.71,0.01,553,23,88,295,133,136,1.83,101114,33.3
UTC 221212 110125 5 9 ,361,53.32830048,5.933205128,19.25,0,0,0,75.75,75.75,0.01,567,25,87,295,134,136,1.84,101115,33.3
UTC 221212 110126 5 9 ,362,53.32831192,5.933278561,19.35,0,0,0,75.91,75.91,0.01,567,25,87,295,134,136,1.85,101110,33.3
UTC 221212 110126 5 9 ,363,53.32832336,5.933351517,19.45,0,0,0,76.1,76.1,0.01,561,24,87,294,133,136,1.87,101101,33.3
UTC 221212 110128 5 9 ,364,53.32833099,5.933423996,19.55,0,0,0,76.08,76.08,0.01,567,25,87,295,133,136,1.86,101099,41.64
UTC 221212 110129 5 9 ,365,53.32834244,5.933495045,19.64,0,0,0,75.98,75.98,0.01,553,23,88,296,133,137,1.87,101103,33.3
UTC 221212 110130 5 9 ,366,53.32835388,5.933568955,19.73,0,0,0,75.69,75.69,0.01,567,25,88,297,134,136,1.86,101102,33.3
UTC 221212 110131 5 9 ,367,53.32836533,5.933641911,19.82,0,0,0,75.95,75.95,0.01,577,26,88,296,133,137,1.86,101097,41.64
UTC 221212 110132 5 9 ,368,53.32837296,5.93371439,19.91,0,0,0,75.87,75.87,0.01,561,24,88,296,133,137,1.87,101090,41.64
UTC 221212 110133 5 9 ,369,53.3283844,5.933785439,20,0,0,0,76.33,76.33,0.01,553,23,88,296,134,137,1.86,101096,41.64
UTC 221212 110134 5 9 ,370,53.32839203,5.933824062,20,0,0,0,75.99,75.99,0.01,553,23,88,296,134,137,1.88,101099,41.64
UTC 221212 110135 5 9 ,371,53.32839203,5.933829308,19.97,0,0,0,75.42,75.42,0.01,567,25,88,296,133,137,1.93,101104,33.3
UTC 221212 110135 5 9 ,372,53.32839584,5.933857441,19.98,0,0,0,75.34,75.34,0.01,600,30,89,297,134,137,1.96,101103,33.3
UTC 221212 110137 5 9 ,373,53.32840347,5.933913708,20.02,0,0,0,76.27,76.27,0.01,577,26,88,297,133,137,1.96,101094,41.64
UTC 221212 110138 5 9 ,374,53.32841492,5.933978081,20,0,0,0,76.26,76.26,0.01,577,26,88,297,132,137,1.95,101090,41.64
UTC 221212 110139 5 9 ,375,53.32842636,5.934051991,19.94,0,0,0,76.01,76.01,0.01,567,25,89,297,133,137,1.93,101092,41.64
UTC 221212 110140 5 9 ,376,53.32843781,5.934129715,19.9,0,0,0,75.83,75.83,0.01,561,24,88,297,132,137,1.9,101090,41.64
UTC 221212 110141 5 9 ,377,53.32844925,5.934203625,19.86,0,0,0,75.76,75.76,0.01,580,27,89,296,133,137,1.89,101091,41.64
UTC 221212 110142 5 9 ,378,53.32845688,5.934276104,19.84,0,0,0,75.58,75.58,0.01,561,24,88,296,132,137,1.88,101096,41.64
UTC 221212 110143 5 9 ,379,53.32846832,5.934349537,19.84,0,0,0,75.5,75.5,0.01,553,23,88,296,133,137,1.88,101100,33.3
UTC 221212 110144 5 9 ,380,53.32847977,5.934421539,19.83,0,0,0,75.71,75.71,0.01,561,24,87,296,132,137,1.89,101105,33.3
UTC 221212 110145 5 9 ,381,53.32849121,5.93449688,19.83,0,0,0,76.11,76.11,0.01,567,25,88,295,132,137,1.89,101099,41.64
UTC 221212 110146 5 9 ,382,53.32850266,5.934569359,19.82,0,0,0,76.28,76.28,0.01,588,28,86,295,133,136,1.91,101092,41.64
UTC 221212 110147 5 9 ,383,53.3285141,5.934641361,19.83,0,0,0,76.66,76.66,0.01,561,24,86,295,132,137,1.9,101090,41.64
UTC 221212 110148 5 9 ,384,53.32852173,5.934712887,19.8,0,0,0,76.05,76.05,0.01,553,23,87,296,132,137,1.89,101097,41.64
UTC 221212 110149 5 9 ,385,53.32853317,5.934785843,19.79,0,0,0,76.54,76.54,0.01,561,24,86,295,132,137,1.88,101091,41.64
UTC 221212 110149 5 9 ,386,53.32854462,5.934859276,19.75,0,0,0,75.86,75.86,0.01,551,23,86,295,132,137,1.85,101096,41.64
UTC 221212 110151 5 9 ,387,53.32855606,5.934931278,19.68,0,0,0,75.11,75.11,0.01,567,25,87,295,132,136,1.84,101099,41.64
UTC 221212 110152 5 9 ,388,53.3285675,5.935006619,19.67,0,0,0,74.97,74.97,0.01,567,25,86,296,131,136,1.85,101105,33.3
UTC 221212 110153 5 9 ,389,53.32857895,5.935078144,19.65,0,0,0,75.52,75.52,0.01,553,23,86,296,131,136,1.87,101103,33.3
UTC 221212 110154 5 9 ,390,53.32859039,5.935152054,19.64,0,0,0,75.1,75.1,0.01,553,23,86,295,132,136,1.9,101104,33.3
UTC 221212 110155 5 9 ,391,53.32860184,5.935224533,19.62,0,0,0,75.7,75.7,0.01,561,24,86,295,132,136,1.94,101105,33.3
UTC 221212 110155 5 9 ,392,53.32861328,5.935297966,19.59,0,0,0,75.73,75.73,0.01,577,26,86,295,130,136,1.96,101109,33.3
UTC 221212 110157 5 9 ,393,53.32862091,5.9353652,19.58,0,0,0,77.39,77.39,0.01,567,25,86,295,131,136,1.97,101101,33.3
UTC 221212 110158 5 9 ,394,53.32862473,5.935399532,19.53,0,0,0,75.36,75.36,0.01,561,24,86,296,131,135,1.99,101109,33.3
UTC 221212 110158 5 9 ,395,53.32862854,5.935394764,19.52,0,0,0,354.71,354.71,0.01,561,24,86,295,131,136,2.04,101109,33.3
UTC 221212 110200 5 9 ,396,53.3286438,5.935373783,19.64,0,0,0,343.3,343.3,0.01,577,26,86,295,132,136,2.08,101109,33.3
UTC 221212 110201 5 9 ,397,53.32866669,5.935354233,19.74,0,0,0,343.64,343.64,0.01,594,29,86,295,131,136,2.14,101105,33.3
UTC 221212 110202 5 9 ,398,53.3286972,5.935337067,19.87,0,0,0,345.44,345.44,0.01,580,27,87,295,131,136,2.18,101094,41.64
UTC 221212 110203 5 9 ,399,53.32871628,5.935328484,19.9,0,0,0,345.01,345.01,0.01,580,27,87,294,131,137,2.2,101096,41.64
UTC 221212 110204 5 9 ,400,53.32871628,5.935324669,19.9,0,0,0,274.38,274.38,0.01,577,26,87,295,131,136,2.25,101090,41.64
UTC 221212 110205 5 9 ,401,53.32870865,5.93530035,19.94,0,0,0,254.57,254.57,0.01,567,25,87,295,131,136,2.28,101078,41.64
UTC 221212 110206 5 9 ,402,53.32870102,5.93526125,19.95,0,0,0,254.78,254.78,0.01,567,25,87,295,131,137,2.23,101079,41.64
UTC 221212 110206 5 9 ,403,53.32869339,5.935213089,19.97,0,0,0,254.9,254.9,0.01,553,23,86,295,131,135,2.2,101081,41.64
UTC 221212 110208 5 9 ,404,53.32868195,5.935153008,19.99,0,0,0,254.99,254.99,0.01,551,23,86,295,130,135,2.15,101073,41.64
UTC 221212 110209 5 9 ,405,53.32867432,5.935086727,20.01,0,0,0,254.98,254.98,0.01,530,19,86,295,130,136,2.1,101073,41.64
UTC 221212 110209 5 9 ,406,53.32866287,5.935013771,20.03,0,0,0,255.07,255.07,0.01,536,20,86,294,131,136,2.02,101069,41.64
UTC 221212 110211 5 9 ,407,53.32865143,5.934937954,20.04,0,0,0,254.83,254.83,0.01,530,19,85,294,130,135,1.95,101075,41.64
UTC 221212 110212 5 9 ,408,53.32863998,5.934862614,20.05,0,0,0,254.7,254.7,0.01,542,21,86,294,131,136,1.89,101079,41.64
UTC 221212 110213 5 9 ,409,53.32862854,5.934788704,20.07,0,0,0,255.09,255.09,0.01,518,17,85,294,130,136,1.85,101079,41.64
UTC 221212 110214 5 9 ,410,53.3286171,5.934715271,20.09,0,0,0,255.26,255.26,0.01,527,19,85,295,130,135,1.81,101080,41.64
UTC 221212 110215 5 9 ,411,53.32860565,5.934642315,20.12,0,0,0,255.2,255.2,0.01,518,17,85,295,130,136,1.77,101078,41.64
UTC 221212 110216 5 9 ,412,53.32859421,5.934568882,20.15,0,0,0,255.14,255.14,0.01,518,17,85,295,130,136,1.73,101077,41.64
UTC 221212 110217 5 9 ,413,53.32858658,5.93449831,20.18,0,0,0,254.8,254.8,0.01,530,19,85,295,130,136,1.69,101074,41.64
UTC 221212 110218 5 9 ,414,53.32857513,5.934426308,20.21,0,0,0,254.43,254.43,0.01,518,17,85,296,130,136,1.67,101075,41.64
UTC 221212 110219 5 9 ,415,53.32856369,5.934352875,20.21,0,0,0,254.9,254.9,0.01,518,17,85,296,130,135,1.65,101083,41.64
UTC 221212 110220 5 9 ,416,53.32855225,5.934280872,20.23,0,0,0,254.67,254.67,0.01,527,19,85,296,129,136,1.63,101075,41.64
UTC 221212 110221 5 9 ,417,53.3285408,5.934206963,20.24,0,0,0,255.22,255.22,0.01,518,17,85,296,129,136,1.6,101072,41.64
UTC 221212 110222 5 9 ,418,53.32852936,5.93413496,20.24,0,0,0,255.3,255.3,0.01,542,21,85,296,130,136,1.54,101075,41.64
UTC 221212 110223 5 9 ,419,53.32852173,5.934062004,20.28,0,0,0,254.76,254.76,0.01,530,19,85,296,129,137,1.53,101072,41.64
UTC 221212 110224 5 9 ,420,53.32851028,5.933989525,20.32,0,0,0,254.84,254.84,0.01,527,19,85,297,130,136,1.51,101069,41.64
UTC 221212 110224 5 9 ,421,53.32849884,5.933913708,20.32,0,0,0,254.97,254.97,0.01,536,20,85,297,130,137,1.48,101074,41.64
UTC 221212 110226 5 9 ,422,53.3284874,5.933845043,20.33,0,0,0,254.31,254.31,0.01,518,17,85,296,130,137,1.45,101072,41.64
UTC 221212 110227 5 9 ,423,53.32848358,5.933814049,20.3,0,0,0,255.18,255.18,0.01,530,19,85,296,130,135,1.44,101081,41.64
UTC 221212 110228 5 9 ,424,53.32848358,5.933810234,20.25,0,0,0,256.09,256.09,0.01,536,20,85,296,129,136,1.49,101088,41.64
UTC 221212 110229 5 9 ,425,53.32847977,5.933774948,20.21,0,0,0,255.09,255.09,0.01,542,21,85,296,129,137,1.5,101080,41.64
UTC 221212 110230 5 9 ,426,53.32846832,5.933719635,20.14,0,0,0,254.9,254.9,0.01,536,20,84,297,129,137,1.49,101072,41.64
UTC 221212 110231 5 9 ,427,53.32846069,5.933656693,20.02,0,0,0,255.29,255.29,0.01,536,20,85,296,130,136,1.48,101070,41.64
UTC 221212 110232 5 9 ,428,53.32845306,5.933592796,19.93,0,0,0,255.2,255.2,0.01,530,19,85,296,129,136,1.49,101071,41.64
UTC 221212 110233 5 9 ,429,53.32844162,5.933531761,19.85,0,0,0,254.78,254.78,0.01,530,19,86,296,130,136,1.47,101079,41.64
UTC 221212 110234 5 9 ,430,53.32843399,5.933468342,19.75,0,0,0,255.02,255.02,0.01,530,19,86,297,129,136,1.44,101080,41.64
UTC 221212 110235 5 9 ,431,53.32842255,5.933405876,19.66,0,0,0,255.52,255.52,0.01,542,21,86,296,129,137,1.43,101078,41.64
UTC 221212 110236 5 9 ,432,53.32841492,5.933343411,19.57,0,0,0,255.39,255.39,0.01,527,19,85,295,129,136,1.42,101076,41.64
UTC 221212 110237 5 9 ,433,53.32840347,5.933275223,19.49,0,0,0,255.54,255.54,0.01,518,17,85,296,129,136,1.42,101082,41.64
UTC 221212 110238 5 9 ,434,53.32839584,5.933206081,19.39,0,0,0,255.32,255.32,0.01,518,17,85,296,128,136,1.43,101077,41.64
UTC 221212 110239 5 9 ,435,53.3283844,5.933136463,19.28,0,0,0,255.04,255.04,0.01,518,17,84,295,128,136,1.42,101084,41.64
UTC 221212 110240 5 9 ,436,53.32837296,5.933066368,19.17,0,0,0,255.06,255.06,0.01,536,20,84,296,128,136,1.39,101084,41.64
UTC 221212 110240 5 9 ,437,53.32836151,5.932995319,19.05,0,0,0,255.24,255.24,0.01,518,17,84,295,129,136,1.4,101080,41.64
UTC 221212 110242 5 9 ,438,53.32835007,5.932923317,18.95,0,0,0,254.89,254.89,0.01,508,16,84,296,128,135,1.39,101085,41.64
UTC 221212 110243 5 9 ,439,53.32833862,5.932849884,18.85,0,0,0,255.16,255.16,0.01,508,16,83,295,129,136,1.36,101088,41.64
UTC 221212 110244 5 9 ,440,53.32832718,5.932776451,18.75,0,0,0,254.78,254.78,0.01,505,15,84,296,128,136,1.35,101093,41.64
UTC 221212 110245 5 9 ,441,53.32831573,5.932703495,18.64,0,0,0,254.45,254.45,0.01,530,19,83,296,128,135,1.31,101098,41.64
UTC 221212 110246 5 9 ,442,53.32830811,5.93263197,18.52,0,0,0,255.1,255.1,0.01,518,17,84,296,128,136,1.29,101100,33.3
UTC 221212 110247 5 9 ,443,53.32829666,5.93255806,18.4,0,0,0,255.36,255.36,0.01,508,16,84,296,128,135,1.28,101096,41.64
UTC 221212 110248 5 9 ,444,53.32828522,5.93248558,18.3,0,0,0,254.96,254.96,0.01,508,16,84,296,129,136,1.24,101100,33.3
UTC 221212 110249 5 9 ,445,53.32827377,5.932415485,18.22,0,0,0,253.64,253.64,0.01,508,16,84,296,128,136,1.23,101108,33.3
UTC 221212 110250 5 9 ,446,53.32826996,5.932380676,18.14,0,0,0,254.43,254.43,0.01,530,19,84,296,128,136,1.22,101117,33.3
UTC 221212 110251 5 9 ,447,53.32826996,5.932380199,18.1,0,0,0,331.85,331.85,0.01,518,17,83,296,128,136,1.3,101134,33.3
UTC 221212 110252 5 9 ,448,53.32828903,5.932380676,18.13,0,0,0,344.07,344.07,0.01,530,19,84,297,128,135,1.34,101133,33.3
UTC 221212 110253 5 9 ,449,53.32831955,5.932374001,18.11,0,0,0,343.69,343.69,0.01,542,21,85,296,129,136,1.41,101132,33.3
UTC 221212 110254 5 9 ,450,53.32835388,5.932362557,18.08,0,0,0,343.44,343.44,0.01,551,23,85,296,128,136,1.47,101134,33.3
UTC 221212 110255 5 9 ,451,53.32836914,5.932356358,18.05,0,0,0,343.84,343.84,0.01,567,25,85,296,129,136,1.52,101128,33.3
UTC 221212 110256 5 9 ,452,53.32836914,5.932361603,18.06,0,0,0,62.78,62.78,0.01,567,25,86,296,128,135,1.57,101134,33.3
UTC 221212 110257 5 9 ,453,53.32836914,5.932392597,18.14,0,0,0,75.64,75.64,0.01,561,24,86,297,128,136,1.62,101131,33.3
UTC 221212 110258 5 9 ,454,53.32837296,5.932436943,18.22,0,0,0,75.67,75.67,0.01,553,23,85,297,128,136,1.62,101130,33.3
UTC 221212 110259 5 9 ,455,53.32838058,5.932490826,18.31,0,0,0,75.97,75.97,0.01,553,23,85,296,128,135,1.63,101131,33.3
UTC 221212 110300 5 9 ,456,53.32838821,5.932557106,18.43,0,0,0,75.8,75.8,0.01,567,25,85,296,128,136,1.63,101126,33.3
UTC 221212 110301 5 9 ,457,53.32839966,5.932627201,18.54,0,0,0,75.77,75.77,0.01,577,26,85,296,128,135,1.66,101118,33.3
UTC 221212 110302 5 9 ,458,53.3284111,5.932705402,18.67,0,0,0,76.18,76.18,0.01,561,24,85,296,127,136,1.67,101121,33.3
UTC 221212 110303 5 9 ,459,53.32842255,5.932780743,18.78,0,0,0,76.14,76.14,0.01,561,24,84,296,128,136,1.67,101114,33.3
UTC 221212 110304 5 9 ,460,53.32843399,5.932852745,18.9,0,0,0,75.86,75.86,0.01,553,23,84,296,128,136,1.68,101118,33.3
UTC 221212 110305 5 9 ,461,53.32844543,5.932927609,19.02,0,0,0,75.22,75.22,0.01,567,25,84,296,127,136,1.71,101122,33.3
UTC 221212 110306 5 9 ,462,53.32845688,5.933000088,19.12,0,0,0,75.38,75.38,0.01,577,26,84,295,127,136,1.71,101123,33.3
UTC 221212 110306 5 9 ,463,53.32846832,5.933073044,19.25,0,0,0,75.57,75.57,0.01,553,23,84,295,127,136,1.71,101119,33.3
UTC 221212 110308 5 9 ,464,53.32847595,5.933144093,19.37,0,0,0,75.75,75.75,0.01,553,23,84,295,127,136,1.71,101116,33.3
UTC 221212 110309 5 9 ,465,53.3284874,5.933218956,19.51,0,0,0,75.77,75.77,0.01,553,23,84,295,127,136,1.73,101113,33.3
UTC 221212 110309 5 9 ,466,53.32849884,5.933291912,19.63,0,0,0,75.75,75.75,0.01,561,24,83,295,127,136,1.76,101108,33.3
UTC 221212 110311 5 9 ,467,53.32851028,5.933364868,19.75,0,0,0,75.89,75.89,0.01,580,27,83,295,127,135,1.78,101106,33.3
UTC 221212 110312 5 9 ,468,53.32851791,5.933437347,19.87,0,0,0,75.74,75.74,0.01,561,24,83,294,127,136,1.81,101105,33.3
UTC 221212 110313 5 9 ,469,53.32852936,5.933511257,19.98,0,0,0,75.59,75.59,0.01,553,23,83,294,127,136,1.83,101109,33.3
UTC 221212 110314 5 9 ,470,53.3285408,5.93358469,20.09,0,0,0,75.81,75.81,0.01,561,24,83,295,126,135,1.82,101109,33.3
UTC 221212 110315 5 9 ,471,53.32855225,5.93366003,20.21,0,0,0,76.13,76.13,0.01,553,23,83,294,126,136,1.81,101106,33.3
UTC 221212 110316 5 9 ,472,53.32856369,5.933729649,20.35,0,0,0,76.03,76.03,0.01,577,26,83,294,127,136,1.82,101101,33.3
UTC 221212 110317 5 9 ,473,53.32857513,5.933804989,20.5,0,0,0,75.79,75.79,0.01,561,24,83,294,126,135,1.84,101099,41.64
UTC 221212 110318 5 9 ,474,53.32858276,5.933877945,20.61,0,0,0,75.79,75.79,0.01,561,24,83,295,126,135,1.89,101095,41.64
UTC 221212 110319 5 9 ,475,53.32859421,5.933949947,20.74,0,0,0,76.28,76.28,0.01,561,24,83,295,127,136,1.93,101099,41.64
UTC 221212 110320 5 9 ,476,53.32860184,5.934000969,20.78,0,0,0,76.8,76.8,0.01,561,24,83,295,127,136,1.97,101098,41.64
UTC 221212 110321 5 9 ,477,53.32860565,5.934011459,20.74,0,0,0,75.54,75.54,0.01,588,28,84,295,127,136,2.02,101100,33.3
UTC 221212 110322 5 9 ,478,53.32860565,5.934025765,20.72,0,0,0,75.07,75.07,0.01,567,25,84,296,127,136,2.06,101101,33.3
UTC 221212 110323 5 9 ,479,53.32861328,5.934077263,20.75,0,0,0,76.44,76.44,0.01,577,26,84,296,127,135,2.05,101097,41.64
UTC 221212 110323 5 9 ,480,53.32862091,5.934136391,20.71,0,0,0,76.01,76.01,0.01,561,24,83,296,127,136,2.06,101097,41.64
UTC 221212 110325 5 9 ,481,53.32863235,5.934203148,20.69,0,0,0,75.92,75.92,0.01,561,24,84,295,127,136,2.06,101094,41.64
UTC 221212 110326 5 9 ,482,53.3286438,5.934277535,20.67,0,0,0,75.98,75.98,0.01,577,26,84,296,126,136,2.05,101092,41.64
UTC 221212 110327 5 9 ,483,53.32865524,5.934350491,20.65,0,0,0,76.04,76.04,0.01,567,25,84,296,126,137,2.06,101085,41.64
UTC 221212 110328 5 9 ,484,53.32866669,5.934425354,20.62,0,0,0,75.68,75.68,0.01,561,24,84,296,126,136,2.06,101084,41.64
UTC 221212 110329 5 9 ,485,53.32867813,5.934498787,20.6,0,0,0,75.76,75.76,0.01,567,25,84,296,126,136,2.04,101095,41.64
UTC 221212 110329 5 9 ,486,53.32868958,5.934572697,20.58,0,0,0,75.6,75.6,0.01,561,24,84,295,126,136,2.04,101102,33.3
UTC 221212 110331 5 9 ,487,53.32870102,5.934645176,20.56,0,0,0,75.99,75.99,0.01,577,26,83,295,126,136,2.05,101096,41.64
UTC 221212 110332 5 9 ,488,53.32870865,5.934720039,20.56,0,0,0,76.08,76.08,0.01,577,26,84,294,125,136,2.07,101090,41.64
UTC 221212 110332 5 9 ,489,53.32872009,5.934792996,20.54,0,0,0,76,76,0.01,561,24,84,294,126,136,2.07,101092,41.64
UTC 221212 110334 5 9 ,490,53.32873154,5.934865475,20.53,0,0,0,76.82,76.82,0.01,561,24,83,294,125,136,2.07,101088,41.64
UTC 221212 110335 5 9 ,491,53.32874298,5.93493557,20.48,0,0,0,75.03,75.03,0.01,553,23,83,294,125,135,2.08,101104,33.3
UTC 221212 110336 5 9 ,492,53.32875443,5.935010433,20.44,0,0,0,75.02,75.02,0.01,561,24,83,294,126,136,2.06,101101,33.3
UTC 221212 110337 5 9 ,493,53.32876587,5.935082912,20.42,0,0,0,75.17,75.17,0.01,567,25,82,294,126,135,2.04,101107,33.3
UTC 221212 110338 5 9 ,494,53.32877731,5.935154915,20.4,0,0,0,75.39,75.39,0.01,553,23,83,294,125,136,2.02,101101,33.3
UTC 221212 110338 5 9 ,495,53.32878876,5.93522644,20.38,0,0,0,75.89,75.89,0.01,561,24,83,294,125,136,2.02,101100,33.3
UTC 221212 110340 5 9 ,496,53.32879639,5.935293198,20.37,0,0,0,77.03,77.03,0.01,553,23,83,294,125,135,2.03,101098,41.64
UTC 221212 110341 5 9 ,497,53.3288002,5.93531847,20.31,0,0,0,66.36,66.36,0.01,561,24,82,294,125,136,2.05,101101,33.3
UTC 221212 110342 5 9 ,498,53.32880402,5.935310364,20.32,0,0,0,349.97,349.97,0.01,577,26,82,294,125,135,2.11,101086,41.64
UTC 221212 110343 5 9 ,499,53.32882309,5.935290813,20.43,0,0,0,343.82,343.82,0.01,553,23,82,294,125,136,2.14,101092,41.64
UTC 221212 110344 5 9 ,500,53.32884979,5.93527174,20.52,0,0,0,343.52,343.52,0.01,553,23,82,294,125,136,2.16,101097,41.64
UTC 221212 110344 5 9 ,501,53.3288765,5.935255528,20.62,0,0,0,343.86,343.86,0.01,553,23,83,294,124,136,2.2,101093,41.64
UTC 221212 110346 5 9 ,502,53.32889175,5.935248852,20.63,0,0,0,338.44,338.44,0.01,561,24,82,296,125,136,2.22,101087,41.64
UTC 221212 110347 5 9 ,503,53.32888794,5.935243607,20.62,0,0,0,263.15,263.15,0.01,567,25,83,294,125,136,2.28,101083,41.64
UTC 221212 110348 5 9 ,504,53.32888031,5.935215473,20.64,0,0,0,255.38,255.38,0.01,551,23,83,294,125,135,2.26,101070,41.64
UTC 221212 110349 5 9 ,505,53.32887268,5.935173512,20.66,0,0,0,255.22,255.22,0.01,542,21,83,295,125,136,2.22,101062,41.64
UTC 221212 110350 5 9 ,506,53.32886505,5.93512249,20.67,0,0,0,254.82,254.82,0.01,542,21,83,295,125,135,2.19,101069,41.64
UTC 221212 110351 5 9 ,507,53.32885361,5.935058594,20.67,0,0,0,255.35,255.35,0.01,536,20,82,295,125,136,2.15,101069,41.64
UTC 221212 110352 5 9 ,508,53.32884598,5.934987545,20.65,0,0,0,255.59,255.59,0.01,542,21,82,295,125,135,2.12,101072,41.64
UTC 221212 110352 5 9 ,509,53.32883072,5.934911251,20.67,0,0,0,254.47,254.47,0.01,530,19,82,295,125,135,2.05,101070,41.64
UTC 221212 110354 5 9 ,510,53.32882309,5.934835434,20.66,0,0,0,255.23,255.23,0.01,518,17,82,295,125,136,2,101064,41.64
UTC 221212 110355 5 9 ,511,53.32881165,5.934761047,20.68,0,0,0,255.35,255.35,0.01,518,17,82,295,124,136,1.99,101066,41.64
UTC 221212 110355 5 9 ,512,53.3288002,5.934689999,20.69,0,0,0,255.11,255.11,0.01,518,17,82,295,124,136,1.95,101077,41.64
UTC 221212 110357 5 9 ,513,53.32878876,5.934615612,20.69,0,0,0,255.02,255.02,0.01,530,19,82,296,124,135,1.89,101073,41.64
UTC 221212 110358 5 9 ,514,53.32877731,5.934543133,20.69,0,0,0,255.08,255.08,0.01,527,19,82,296,125,136,1.84,101073,41.64
UTC 221212 110359 5 9 ,515,53.32876587,5.934470177,20.72,0,0,0,255.13,255.13,0.01,508,16,82,295,124,135,1.79,101068,41.64
UTC 221212 110400 5 9 ,516,53.32875443,5.934398174,20.74,0,0,0,254.84,254.84,0.01,518,17,82,295,125,136,1.75,101074,41.64
UTC 221212 110401 5 9 ,517,53.32874298,5.934327602,20.74,0,0,0,254.89,254.89,0.01,527,19,82,297,124,136,1.72,101069,41.64
UTC 221212 110402 5 9 ,518,53.32873154,5.934253216,20.76,0,0,0,254.75,254.75,0.01,530,19,82,296,123,136,1.67,101062,41.64
UTC 221212 110403 5 9 ,519,53.32872009,5.93418026,20.76,0,0,0,254.7,254.7,0.01,527,19,82,297,124,136,1.64,101074,41.64
UTC 221212 110404 5 9 ,520,53.32871246,5.934106827,20.74,0,0,0,255.07,255.07,0.01,527,19,82,296,124,136,1.61,101070,41.64
UTC 221212 110404 5 9 ,521,53.32870102,5.934033394,20.74,0,0,0,255.14,255.14,0.01,527,19,82,295,124,135,1.59,101075,41.64
UTC 221212 110406 5 9 ,522,53.32868958,5.933961391,20.76,0,0,0,254.93,254.93,0.01,527,19,82,296,124,136,1.57,101074,41.64
UTC 221212 110407 5 9 ,523,53.32867813,5.933888435,20.77,0,0,0,254.88,254.88,0.01,530,19,81,296,124,136,1.53,101071,41.64
UTC 221212 110408 5 9 ,524,53.3286705,5.933834076,20.74,0,0,0,254.54,254.54,0.01,542,21,82,296,124,136,1.5,101076,41.64
UTC 221212 110409 5 9 ,525,53.3286705,5.933821678,20.7,0,0,0,255.63,255.63,0.01,530,19,82,296,124,135,1.53,101086,41.64
UTC 221212 110410 5 9 ,526,53.32866669,5.933808804,20.64,0,0,0,255.71,255.71,0.01,536,20,82,296,124,136,1.56,101077,41.64
UTC 221212 110411 5 9 ,527,53.32865906,5.933759689,20.57,0,0,0,254.77,254.77,0.01,530,19,82,297,124,136,1.54,101075,41.64
UTC 221212 110412 5 9 ,528,53.32865143,5.933701515,20.43,0,0,0,255.15,255.15,0.01,542,21,82,296,124,137,1.5,101075,41.64
UTC 221212 110413 5 9 ,529,53.3286438,5.933638573,20.34,0,0,0,255.29,255.29,0.01,551,23,82,296,124,136,1.49,101074,41.64
UTC 221212 110414 5 9 ,530,53.32863235,5.933573246,20.23,0,0,0,255.03,255.03,0.01,527,19,82,295,124,136,1.49,101073,41.64
UTC 221212 110415 5 9 ,531,53.32862091,5.933503628,20.12,0,0,0,254.96,254.96,0.01,518,17,82,296,123,136,1.45,101078,41.64
UTC 221212 110416 5 9 ,532,53.32861328,5.933433056,20.01,0,0,0,254.85,254.85,0.01,527,19,82,295,123,136,1.43,101080,41.64
UTC 221212 110417 5 9 ,533,53.32860184,5.9333601,19.88,0,0,0,255.01,255.01,0.01,518,17,81,296,123,136,1.4,101078,41.64
