TimeStamp (UTC)," ""TriggerID"""," ""Latitude"""," ""Longitude"""," ""Altitude (Meter AGL)""",Gimbal Roll," ""Gimbal Pitch"""," ""Gimbal Yaw"""," ""Drone Yaw"""," ""Combined Yaw""",HCHO (ppm),CO2 (ppm),TVOC (ppb),NO2 (ppm),C2H5OH (ppm),VOC (ppm),CO (ppm),Temp (Celcius),Pressure (pa),Altitude (meter)
UTC 221212 101240 5 9 ,1186,53.3278923,5.934298039,0,0,0,0,349.07,349.07,0.01,432,4,159,274,197,135,8.29,101360,16.64
UTC 221212 101240 5 9 ,1187,53.3278923,5.934298039,0.01,0,0,0,348.65,348.65,0.01,416,2,158,274,197,134,8.23,101348,16.64
UTC 221212 101242 5 9 ,1188,53.3278923,5.934296608,0.41,0,0,0,346.85,346.85,0.01,423,3,156,274,198,134,8.09,101356,16.64
UTC 221212 101243 5 9 ,1189,53.3278923,5.934296608,1.69,0,0,0,346.82,346.82,0.01,415,2,156,274,197,134,8.12,101336,16.64
UTC 221212 101244 5 9 ,1190,53.3278923,5.934296131,3.83,0,0,0,347.11,347.11,0.01,415,2,155,274,197,134,8.13,101316,16.64
UTC 221212 101245 5 9 ,1191,53.3278923,5.934296131,4.62,0,0,0,346.8,346.8,0.01,411,1,153,274,197,133,8.11,101302,16.64
UTC 221212 101245 5 9 ,1192,53.3278923,5.934296608,4.57,0,0,0,346.97,346.97,0.01,401,0,152,274,197,133,8.01,101304,16.64
UTC 221212 101247 5 9 ,1193,53.3278923,5.934297085,4.55,0,0,0,347.17,347.17,0.01,405,0,151,274,197,133,7.94,101304,16.64
UTC 221212 101248 5 9 ,1194,53.3278923,5.93430233,4.55,0,0,0,347.42,347.42,0.01,408,1,151,275,197,133,7.87,101305,16.64
UTC 221212 101249 5 9 ,1195,53.3278923,5.934303284,4.57,0,0,0,347.55,347.55,0.01,400,0,149,274,197,133,7.84,101300,16.64
UTC 221212 101250 5 9 ,1196,53.3278923,5.9343009,4.58,0,0,0,347.43,347.43,0.01,400,0,147,274,196,132,7.8,101302,16.64
UTC 221212 101251 5 9 ,1197,53.3278923,5.934301376,4.6,0,0,0,347.43,347.43,0.01,400,0,147,274,196,133,7.78,101299,24.96
UTC 221212 101252 5 9 ,1198,53.3278923,5.934301853,4.7,0,0,0,347.29,347.29,0.01,407,1,146,275,196,132,7.74,101302,16.64
UTC 221212 101253 5 9 ,1199,53.3278923,5.934301853,5.54,0,0,0,347.13,347.13,0.01,402,0,145,275,195,132,7.67,101290,24.96
UTC 221212 101254 5 9 ,1200,53.3278923,5.93430233,6.45,0,0,0,347.19,347.19,0.01,400,0,144,275,195,132,7.58,101278,24.96
UTC 221212 101254 5 9 ,1201,53.3278923,5.934301853,6.69,0,0,0,347.28,347.28,0.01,400,0,144,275,195,132,7.52,101277,24.96
UTC 221212 101256 5 9 ,1202,53.3278923,5.93430233,6.67,0,0,0,347.39,347.39,0.01,400,0,144,275,195,131,7.44,101275,24.96
UTC 221212 101257 5 9 ,1203,53.3278923,5.93430233,7.35,0,0,0,347.42,347.42,0.01,400,0,143,275,195,132,7.42,101266,24.96
UTC 221212 101258 5 9 ,1204,53.3278923,5.93430233,8.42,0,0,0,347.38,347.38,0.01,409,1,143,275,195,132,7.39,101255,24.96
UTC 221212 101259 5 9 ,1205,53.3278923,5.934301853,9.1,0,0,0,347.39,347.39,0.01,405,0,142,276,195,132,7.35,101246,24.96
UTC 221212 101259 5 9 ,1206,53.3278923,5.934301853,9.55,0,0,0,347.51,347.51,0.01,407,1,142,275,195,132,7.31,101238,24.96
UTC 221212 101301 5 9 ,1207,53.3278923,5.934301853,9.92,0,0,0,347.22,347.22,0.01,407,1,141,276,194,131,7.26,101236,24.96
UTC 221212 101302 5 9 ,1208,53.3278923,5.934301853,9.9,0,0,0,347.22,347.22,0.01,409,1,141,275,194,131,7.24,101237,24.96
UTC 221212 101303 5 9 ,1209,53.3278923,5.934301853,9.9,0,0,0,347.19,347.19,0.01,423,3,140,275,193,131,7.22,101236,24.96
UTC 221212 101304 5 9 ,1210,53.3278923,5.934301376,9.9,0,0,0,347.04,347.04,0.01,413,1,139,276,193,131,7.2,101235,24.96
UTC 221212 101304 5 9 ,1211,53.3278923,5.934301853,9.91,0,0,0,347.3,347.3,0.01,409,1,139,274,193,130,7.16,101234,24.96
UTC 221212 101306 5 9 ,1212,53.3278923,5.934301853,9.91,0,0,0,347.27,347.27,0.01,409,1,138,275,192,130,7.15,101235,24.96
UTC 221212 101307 5 9 ,1213,53.3278923,5.93430233,9.92,0,0,0,347.36,347.36,0.01,407,1,136,275,193,131,7.13,101228,24.96
UTC 221212 101308 5 9 ,1214,53.3278923,5.93430233,9.93,0,0,0,346.95,346.95,0.01,416,2,136,275,192,131,7.08,101228,24.96
UTC 221212 101308 5 9 ,1215,53.3278923,5.93430233,9.93,0,0,0,347.4,347.4,0.01,407,1,135,276,192,131,7.03,101231,24.96
UTC 221212 101310 5 9 ,1216,53.3278923,5.934301853,9.93,0,0,0,347.27,347.27,0.01,405,0,135,276,192,131,6.97,101236,24.96
UTC 221212 101311 5 9 ,1217,53.3278923,5.934301853,9.93,0,0,0,347.34,347.34,0.01,405,0,135,276,192,131,6.98,101238,24.96
UTC 221212 101312 5 9 ,1218,53.3278923,5.934301853,9.93,0,0,0,347.66,347.66,0.01,407,1,134,276,190,130,6.97,101235,24.96
UTC 221212 101312 5 9 ,1219,53.3278923,5.934301853,9.93,0,0,0,347.52,347.52,0.01,413,1,134,276,190,130,6.96,101229,24.96
UTC 221212 101314 5 9 ,1220,53.3278923,5.93430233,9.92,0,0,0,347.26,347.26,0.01,409,1,133,276,191,131,6.91,101233,24.96
UTC 221212 101315 5 9 ,1221,53.3278923,5.93430233,9.92,0,0,0,347.4,347.4,0.01,405,0,133,275,191,131,6.86,101234,24.96
UTC 221212 101316 5 9 ,1222,53.3278923,5.934302807,9.9,0,0,0,347.65,347.65,0.01,400,0,132,275,191,130,6.79,101231,24.96
UTC 221212 101316 5 9 ,1223,53.3278923,5.934302807,9.9,0,0,0,347.54,347.54,0.01,400,0,132,276,190,130,6.74,101236,24.96
UTC 221212 101318 5 9 ,1224,53.3278923,5.934302807,9.91,0,0,0,346.92,346.92,0.01,405,0,132,277,190,131,6.69,101233,24.96
UTC 221212 101319 5 9 ,1225,53.3278923,5.934302807,9.92,0,0,0,346.92,346.92,0.01,416,2,131,277,190,131,6.66,101233,24.96
UTC 221212 101320 5 9 ,1226,53.3278923,5.934303284,9.91,0,0,0,347.16,347.16,0.01,405,0,130,276,190,130,6.61,101231,24.96
UTC 221212 101320 5 9 ,1227,53.3278923,5.934302807,9.9,0,0,0,347.23,347.23,0.01,405,0,129,275,189,130,6.58,101235,24.96
UTC 221212 101322 5 9 ,1228,53.3278923,5.934302807,9.91,0,0,0,347.27,347.27,0.01,405,0,129,276,189,130,6.53,101227,24.96
UTC 221212 101323 5 9 ,1229,53.3278923,5.934302807,9.91,0,0,0,347.27,347.27,0.01,400,0,129,277,188,130,6.49,101233,24.96
UTC 221212 101324 5 9 ,1230,53.3278923,5.934302807,9.92,0,0,0,347.18,347.18,0.01,416,2,128,276,189,130,6.44,101232,24.96
UTC 221212 101324 5 9 ,1231,53.3278923,5.934302807,9.93,0,0,0,347.32,347.32,0.01,400,0,128,277,188,131,6.42,101238,24.96
UTC 221212 101326 5 9 ,1232,53.3278923,5.934302807,9.93,0,0,0,347.34,347.34,0.01,400,0,129,277,189,130,6.39,101232,24.96
UTC 221212 101327 5 9 ,1233,53.3278923,5.934303284,9.93,0,0,0,347.51,347.51,0.01,400,0,128,278,188,131,6.35,101238,24.96
UTC 221212 101328 5 9 ,1234,53.3278923,5.934303284,9.93,0,0,0,347.31,347.31,0.01,400,0,128,278,188,131,6.3,101234,24.96
UTC 221212 101329 5 9 ,1235,53.3278923,5.934303284,9.93,0,0,0,347.6,347.6,0.01,410,1,129,277,188,130,6.31,101237,24.96
UTC 221212 101330 5 9 ,1236,53.3278923,5.934302807,9.93,0,0,0,347.28,347.28,0.01,405,0,129,277,187,131,6.28,101239,24.96
UTC 221212 101331 5 9 ,1237,53.3278923,5.934303284,9.93,0,0,0,347.17,347.17,0.01,400,0,129,278,188,130,6.21,101238,24.96
UTC 221212 101332 5 9 ,1238,53.3278923,5.934303284,9.91,0,0,0,342.21,342.21,0.01,403,0,128,278,188,130,6.14,101238,24.96
UTC 221212 101333 5 9 ,1239,53.3278923,5.934303284,9.92,0,0,0,339.2,339.2,0.01,403,0,128,278,187,130,6.11,101235,24.96
UTC 221212 101334 5 9 ,1240,53.32789993,5.934298515,9.91,0,0,0,339.44,339.44,0.01,411,1,128,279,188,131,6.04,101240,24.96
UTC 221212 101335 5 9 ,1241,53.32792282,5.934285164,9.91,0,0,0,339.55,339.55,0.01,413,1,128,278,187,131,6.01,101233,24.96
UTC 221212 101336 5 9 ,1242,53.32795334,5.934268951,9.91,0,0,0,339.26,339.26,0.01,411,1,128,278,188,131,5.95,101237,24.96
UTC 221212 101337 5 9 ,1243,53.32798767,5.934248447,9.9,0,0,0,339.23,339.23,0.01,405,0,128,277,187,130,5.84,101229,24.96
UTC 221212 101337 5 9 ,1244,53.32802963,5.934224129,9.91,0,0,0,339.43,339.43,0.01,400,0,128,277,187,130,5.7,101230,24.96
UTC 221212 101339 5 9 ,1245,53.32807159,5.93419838,9.93,0,0,0,339.57,339.57,0.01,400,0,127,277,187,130,5.52,101221,24.96
UTC 221212 101340 5 9 ,1246,53.32811737,5.934173107,9.9,0,0,0,339.03,339.03,0.01,410,1,127,277,187,130,5.42,101232,24.96
UTC 221212 101340 5 9 ,1247,53.32815933,5.934146404,9.9,0,0,0,339.17,339.17,0.01,400,0,127,277,187,130,5.35,101229,24.96
UTC 221212 101342 5 9 ,1248,53.32820129,5.934120655,9.91,0,0,0,339.15,339.15,0.01,400,0,127,277,186,130,5.28,101229,24.96
UTC 221212 101343 5 9 ,1249,53.32823181,5.934103012,9.9,0,0,0,339.14,339.14,0.01,403,0,128,277,186,130,5.2,101235,24.96
UTC 221212 101344 5 9 ,1250,53.32823563,5.934100151,9.85,0,0,0,339.69,339.69,0.01,405,0,128,278,186,130,5.22,101237,24.96
UTC 221212 101345 5 9 ,1251,53.328228,5.934104443,9.45,0,0,0,339.77,339.77,0.01,415,2,129,277,186,129,5.2,101234,24.96
UTC 221212 101346 5 9 ,1252,53.32822037,5.934107781,9.46,0,0,0,267.47,267.47,0.01,408,1,128,277,185,129,5.21,101228,24.96
UTC 221212 101347 5 9 ,1253,53.32822037,5.934111595,9.48,0,0,0,252.99,252.99,0.01,414,2,127,277,186,130,5.13,101222,24.96
UTC 221212 101348 5 9 ,1254,53.32821655,5.934104919,9.46,0,0,0,253.37,253.37,0.01,405,0,126,277,185,129,5.08,101220,24.96
UTC 221212 101349 5 9 ,1255,53.32821274,5.934072971,9.45,0,0,0,253.17,253.17,0.01,400,0,126,276,185,129,4.95,101214,24.96
UTC 221212 101350 5 9 ,1256,53.32820511,5.934029579,9.42,0,0,0,253.15,253.15,0.01,400,0,125,276,184,129,4.8,101217,24.96
UTC 221212 101351 5 9 ,1257,53.32819748,5.933977604,9.4,0,0,0,252.91,252.91,0.01,400,0,125,277,184,129,4.61,101213,24.96
UTC 221212 101352 5 9 ,1258,53.32818604,5.93391943,9.37,0,0,0,252.82,252.82,0.01,464,9,124,278,184,129,4.42,101209,24.96
UTC 221212 101352 5 9 ,1259,53.32817459,5.933851719,9.32,0,0,0,253.24,253.24,0.01,454,8,123,277,183,128,4.29,101209,24.96
UTC 221212 101354 5 9 ,1260,53.32816315,5.93377924,9.29,0,0,0,252.64,252.64,0.01,450,7,122,277,184,128,4.14,101210,24.96
UTC 221212 101355 5 9 ,1261,53.32814789,5.933703899,9.25,0,0,0,252.85,252.85,0.01,445,6,122,277,184,129,4,101211,24.96
UTC 221212 101356 5 9 ,1262,53.32813644,5.933629513,9.2,0,0,0,252.83,252.83,0.01,439,5,121,277,183,128,3.87,101213,24.96
UTC 221212 101357 5 9 ,1263,53.32812119,5.93355751,9.17,0,0,0,252.81,252.81,0.01,445,6,121,277,184,129,3.75,101217,24.96
UTC 221212 101358 5 9 ,1264,53.32810974,5.933483124,9.13,0,0,0,252.83,252.83,0.01,439,5,121,278,182,128,3.64,101220,24.96
UTC 221212 101359 5 9 ,1265,53.3280983,5.933410645,9.09,0,0,0,252.79,252.79,0.01,439,5,120,278,183,128,3.53,101225,24.96
UTC 221212 101400 5 9 ,1266,53.32808685,5.933344841,9.06,0,0,0,251.65,251.65,0,428,4,120,278,183,129,3.41,101217,24.96
UTC 221212 101400 5 9 ,1267,53.32807922,5.933313847,9,0,0,0,252.94,252.94,0,435,5,120,278,182,128,3.35,101227,24.96
UTC 221212 101402 5 9 ,1268,53.32807922,5.933313847,8.98,0,0,0,257.83,257.83,0,450,7,119,277,182,128,3.43,101230,24.96
UTC 221212 101403 5 9 ,1269,53.32807922,5.933286667,8.97,0,0,0,257.13,257.13,0,450,7,119,278,182,128,3.42,101227,24.96
UTC 221212 101403 5 9 ,1270,53.32807159,5.933230877,8.94,0,0,0,256.9,256.9,0,435,5,119,278,182,128,3.32,101223,24.96
UTC 221212 101405 5 9 ,1271,53.32806396,5.933172226,8.89,0,0,0,256.81,256.81,0,435,5,119,278,182,128,3.24,101225,24.96
UTC 221212 101406 5 9 ,1272,53.32805252,5.933105469,8.84,0,0,0,256.85,256.85,0,439,5,119,279,182,129,3.14,101223,24.96
UTC 221212 101407 5 9 ,1273,53.32804489,5.933035851,8.8,0,0,0,256.87,256.87,0,426,3,119,278,181,128,3.05,101221,24.96
UTC 221212 101408 5 9 ,1274,53.32803726,5.932965756,8.75,0,0,0,256.91,256.91,0,439,5,118,278,182,128,2.97,101216,24.96
UTC 221212 101409 5 9 ,1275,53.32802582,5.932889938,8.7,0,0,0,256.76,256.76,0,428,4,117,278,181,128,2.89,101220,24.96
UTC 221212 101410 5 9 ,1276,53.32801819,5.932815075,8.65,0,0,0,256.76,256.76,0,426,3,118,278,181,128,2.8,101219,24.96
UTC 221212 101411 5 9 ,1277,53.32800674,5.932742596,8.61,0,0,0,256.73,256.73,0,420,3,118,279,181,128,2.72,101216,24.96
UTC 221212 101411 5 9 ,1278,53.32799912,5.932683945,8.54,0,0,0,255.96,255.96,0,426,3,117,279,180,128,2.69,101220,24.96
UTC 221212 101413 5 9 ,1279,53.32799912,5.93267107,8.49,0,0,0,282.9,282.9,0,435,5,116,279,180,128,2.71,101239,24.96
UTC 221212 101414 5 9 ,1280,53.32800293,5.93269062,8.52,0,0,0,14.1,14.1,0,439,5,117,279,180,128,2.8,101254,24.96
UTC 221212 101414 5 9 ,1281,53.32800674,5.932716847,8.53,0,0,0,72.04,72.04,0,450,7,117,279,180,128,2.89,101256,24.96
UTC 221212 101416 5 9 ,1282,53.32801056,5.932751656,8.58,0,0,0,73.29,73.29,0,454,8,117,280,181,128,2.91,101260,24.96
UTC 221212 101417 5 9 ,1283,53.32801819,5.932799816,8.6,0,0,0,73.18,73.18,0,445,6,117,279,180,128,2.92,101258,24.96
UTC 221212 101418 5 9 ,1284,53.32802963,5.93285656,8.63,0,0,0,73.59,73.59,0,454,8,117,279,180,128,2.89,101253,24.96
UTC 221212 101419 5 9 ,1285,53.32804108,5.932919979,8.67,0,0,0,73.54,73.54,0,464,9,117,280,180,128,2.92,101254,24.96
UTC 221212 101420 5 9 ,1286,53.32805252,5.932991982,8.71,0,0,0,73.47,73.47,0,464,9,117,280,180,128,2.92,101256,24.96
UTC 221212 101421 5 9 ,1287,53.32806396,5.933066368,8.77,0,0,0,73.61,73.61,0,459,8,117,280,180,128,2.95,101256,24.96
UTC 221212 101422 5 9 ,1288,53.32807541,5.933138371,8.81,0,0,0,73.63,73.63,0,459,8,117,281,180,128,2.96,101251,24.96
UTC 221212 101423 5 9 ,1289,53.32809067,5.93321228,8.85,0,0,0,73.83,73.83,0,470,10,118,281,179,128,2.97,101247,24.96
UTC 221212 101424 5 9 ,1290,53.32810211,5.93328476,8.91,0,0,0,73.56,73.56,0,485,12,118,281,179,129,2.97,101247,24.96
UTC 221212 101425 5 9 ,1291,53.32811356,5.933357716,8.95,0,0,0,73.42,73.42,0,470,10,118,280,180,128,2.98,101253,24.96
UTC 221212 101426 5 9 ,1292,53.32812881,5.933430195,9,0,0,0,73.75,73.75,0,470,10,117,280,179,128,2.99,101253,24.96
UTC 221212 101427 5 9 ,1293,53.32814026,5.933503151,9.06,0,0,0,73.8,73.8,0,481,12,117,281,179,129,3.02,101246,24.96
UTC 221212 101428 5 9 ,1294,53.3281517,5.9335742,9.11,0,0,0,73.58,73.58,0,470,10,117,281,179,129,3.01,101247,24.96
UTC 221212 101428 5 9 ,1295,53.32816315,5.933647633,9.15,0,0,0,73.52,73.52,0.01,485,12,117,281,179,128,3.01,101246,24.96
UTC 221212 101430 5 9 ,1296,53.32817841,5.933719635,9.21,0,0,0,73.41,73.41,0.01,481,12,117,281,179,128,3.01,101247,24.96
UTC 221212 101431 5 9 ,1297,53.32818985,5.933790207,9.26,0,0,0,73.63,73.63,0.01,485,12,116,281,179,129,3.06,101245,24.96
UTC 221212 101432 5 9 ,1298,53.32820129,5.933864117,9.31,0,0,0,73.62,73.62,0.01,476,11,117,281,179,129,3.08,101242,24.96
UTC 221212 101433 5 9 ,1299,53.32821655,5.933936119,9.36,0,0,0,73.41,73.41,0.01,485,12,116,279,178,128,3.08,101244,24.96
UTC 221212 101434 5 9 ,1300,53.328228,5.934006214,9.41,0,0,0,73.53,73.53,0.01,496,14,116,279,178,128,3.09,101244,24.96
UTC 221212 101434 5 9 ,1301,53.32823944,5.93407774,9.47,0,0,0,74.82,74.82,0.01,485,12,115,280,178,128,3.11,101235,24.96
UTC 221212 101436 5 9 ,1302,53.32824707,5.934119225,9.46,0,0,0,74.21,74.21,0.01,485,12,115,279,178,128,3.14,101243,24.96
UTC 221212 101437 5 9 ,1303,53.32824707,5.934121132,9.44,0,0,0,9.9,9.9,0.01,491,13,115,280,178,128,3.18,101232,24.96
UTC 221212 101437 5 9 ,1304,53.32825851,5.934104919,9.47,0,0,0,342.13,342.13,0.01,491,13,115,280,177,129,3.2,101235,24.96
UTC 221212 101439 5 9 ,1305,53.32826996,5.934090138,9.47,0,0,0,342.2,342.2,0.01,481,12,115,280,177,128,3.24,101238,24.96
UTC 221212 101440 5 9 ,1306,53.32827377,5.934083939,9.48,0,0,0,285.95,285.95,0.01,481,12,116,280,177,129,3.28,101227,24.96
UTC 221212 101441 5 9 ,1307,53.32826614,5.934064865,9.48,0,0,0,252.97,252.97,0.01,470,10,115,280,177,128,3.29,101223,24.96
UTC 221212 101442 5 9 ,1308,53.32825851,5.934027672,9.45,0,0,0,252.81,252.81,0.01,464,9,115,280,177,129,3.19,101224,24.96
UTC 221212 101443 5 9 ,1309,53.32825089,5.933976173,9.42,0,0,0,252.76,252.76,0.01,459,8,115,279,176,129,3.09,101218,24.96
UTC 221212 101444 5 9 ,1310,53.32823944,5.933916569,9.39,0,0,0,252.94,252.94,0.01,459,8,115,280,177,128,2.99,101217,24.96
UTC 221212 101445 5 9 ,1311,53.328228,5.933850288,9.36,0,0,0,252.85,252.85,0.01,459,8,114,280,177,128,2.88,101212,24.96
UTC 221212 101446 5 9 ,1312,53.32821655,5.933773518,9.29,0,0,0,253.18,253.18,0.01,454,8,114,281,177,128,2.76,101213,24.96
UTC 221212 101447 5 9 ,1313,53.32820511,5.933698177,9.25,0,0,0,252.99,252.99,0,445,6,114,281,177,128,2.67,101215,24.96
UTC 221212 101448 5 9 ,1314,53.32818985,5.933625698,9.2,0,0,0,252.82,252.82,0,445,6,114,280,176,128,2.58,101220,24.96
UTC 221212 101449 5 9 ,1315,53.32817841,5.933551312,9.14,0,0,0,252.73,252.73,0,439,5,114,280,177,128,2.52,101218,24.96
UTC 221212 101450 5 9 ,1316,53.32816315,5.933478832,9.1,0,0,0,252.71,252.71,0,445,6,114,281,176,128,2.43,101224,24.96
UTC 221212 101451 5 9 ,1317,53.3281517,5.93340826,9.06,0,0,0,252.93,252.93,0,435,5,113,281,176,128,2.35,101223,24.96
UTC 221212 101452 5 9 ,1318,53.32814026,5.933333874,9.02,0,0,0,253,253,0,439,5,113,282,176,128,2.28,101225,24.96
UTC 221212 101453 5 9 ,1319,53.328125,5.933261395,8.97,0,0,0,252.84,252.84,0,435,5,113,280,176,128,2.2,101222,24.96
UTC 221212 101454 5 9 ,1320,53.32811356,5.933190823,8.93,0,0,0,252.95,252.95,0,428,4,112,281,176,128,2.13,101227,24.96
UTC 221212 101454 5 9 ,1321,53.32810211,5.93311739,8.88,0,0,0,252.89,252.89,0,439,5,113,282,175,128,2.08,101225,24.96
UTC 221212 101456 5 9 ,1322,53.32809067,5.933045387,8.83,0,0,0,252.91,252.91,0,445,6,113,281,175,127,2.01,101223,24.96
UTC 221212 101457 5 9 ,1323,53.32807541,5.932975292,8.78,0,0,0,252.88,252.88,0,428,4,112,280,175,128,1.96,101226,24.96
UTC 221212 101457 5 9 ,1324,53.32806396,5.932901859,8.72,0,0,0,253.12,253.12,0,426,3,112,280,176,128,1.93,101225,24.96
UTC 221212 101459 5 9 ,1325,53.32805252,5.932831287,8.66,0,0,0,253.13,253.13,0,420,3,111,280,175,127,1.88,101230,24.96
UTC 221212 101500 5 9 ,1326,53.32804108,5.932758331,8.62,0,0,0,253,253,0,435,5,111,280,175,127,1.83,101225,24.96
UTC 221212 101501 5 9 ,1327,53.32802582,5.93268919,8.59,0,0,0,251.91,251.91,0,439,5,111,281,175,128,1.79,101224,24.96
UTC 221212 101502 5 9 ,1328,53.328022,5.932654381,8.52,0,0,0,252.24,252.24,0,426,3,111,281,175,128,1.78,101238,24.96
UTC 221212 101503 5 9 ,1329,53.328022,5.932655335,8.5,0,0,0,327.15,327.15,0,428,4,111,281,174,128,1.87,101244,24.96
UTC 221212 101504 5 9 ,1330,53.32803726,5.932657719,8.53,0,0,0,339.21,339.21,0.01,450,7,111,281,175,128,1.93,101256,24.96
UTC 221212 101505 5 9 ,1331,53.32805252,5.932657242,8.54,0,0,0,339.3,339.3,0.01,454,8,111,281,174,128,1.98,101253,24.96
UTC 221212 101506 5 9 ,1332,53.32805634,5.932661057,8.55,0,0,0,45.4,45.4,0,470,10,111,282,174,128,2,101262,24.96
UTC 221212 101507 5 9 ,1333,53.32805634,5.932684422,8.57,0,0,0,73.55,73.55,0,470,10,111,282,174,128,2.08,101258,24.96
UTC 221212 101508 5 9 ,1334,53.32806396,5.932723045,8.6,0,0,0,73.34,73.34,0,476,11,111,281,174,127,2.14,101262,24.96
UTC 221212 101508 5 9 ,1335,53.32807159,5.932775021,8.63,0,0,0,73.47,73.47,0,450,7,111,282,174,128,2.13,101258,24.96
UTC 221212 101510 5 9 ,1336,53.32808304,5.932835579,8.68,0,0,0,73.53,73.53,0,450,7,110,282,173,128,2.1,101259,24.96
UTC 221212 101511 5 9 ,1337,53.32809448,5.932902336,8.72,0,0,0,73.54,73.54,0,476,11,110,281,173,128,2.11,101257,24.96
UTC 221212 101512 5 9 ,1338,53.32810593,5.932978153,8.77,0,0,0,73.58,73.58,0,454,8,111,281,173,128,2.11,101261,24.96
UTC 221212 101513 5 9 ,1339,53.32811737,5.933053017,8.82,0,0,0,73.81,73.81,0,464,9,110,281,173,127,2.12,101256,24.96
UTC 221212 101514 5 9 ,1340,53.32813263,5.93312645,8.87,0,0,0,73.7,73.7,0,464,9,110,281,173,127,2.17,101255,24.96
UTC 221212 101515 5 9 ,1341,53.32814407,5.933198929,8.92,0,0,0,73.78,73.78,0,464,9,110,282,173,128,2.2,101252,24.96
UTC 221212 101516 5 9 ,1342,53.32815552,5.933269978,8.98,0,0,0,73.64,73.64,0,481,12,111,282,174,128,2.2,101250,24.96
UTC 221212 101517 5 9 ,1343,53.32816696,5.933344364,9.02,0,0,0,73.52,73.52,0,481,12,111,282,173,128,2.22,101251,24.96
UTC 221212 101518 5 9 ,1344,53.32818222,5.933416843,9.07,0,0,0,73.59,73.59,0,464,9,110,282,173,127,2.25,101254,24.96
UTC 221212 101519 5 9 ,1345,53.32819366,5.933489323,9.12,0,0,0,73.61,73.61,0,481,12,111,282,173,127,2.26,101250,24.96
UTC 221212 101520 5 9 ,1346,53.32820511,5.933561802,9.17,0,0,0,73.55,73.55,0,470,10,110,282,172,128,2.31,101256,24.96
UTC 221212 101521 5 9 ,1347,53.32822037,5.933633804,9.22,0,0,0,73.4,73.4,0,481,12,110,281,172,128,2.31,101250,24.96
UTC 221212 101522 5 9 ,1348,53.32823181,5.933703899,9.27,0,0,0,73.58,73.58,0,481,12,109,281,172,128,2.3,101251,24.96
UTC 221212 101523 5 9 ,1349,53.32824326,5.933777809,9.32,0,0,0,73.67,73.67,0.01,464,9,110,281,172,127,2.3,101247,24.96
UTC 221212 101524 5 9 ,1350,53.3282547,5.933849812,9.37,0,0,0,73.7,73.7,0.01,476,11,109,281,172,128,2.31,101245,24.96
UTC 221212 101525 5 9 ,1351,53.32826996,5.93392086,9.42,0,0,0,73.72,73.72,0.01,476,11,110,283,172,128,2.34,101246,24.96
UTC 221212 101526 5 9 ,1352,53.3282814,5.93399477,9.47,0,0,0,73.66,73.66,0.01,485,12,110,282,173,128,2.35,101244,24.96
UTC 221212 101527 5 9 ,1353,53.32829285,5.934063911,9.51,0,0,0,74.67,74.67,0.01,485,12,110,282,172,128,2.36,101246,24.96
UTC 221212 101528 5 9 ,1354,53.32830048,5.934097767,9.48,0,0,0,74.22,74.22,0.01,481,12,109,281,172,128,2.39,101248,24.96
UTC 221212 101529 5 9 ,1355,53.32830048,5.934094906,9.49,0,0,0,356.51,356.51,0.01,485,12,110,281,172,128,2.44,101233,24.96
UTC 221212 101530 5 9 ,1356,53.32831192,5.934077263,9.54,0,0,0,342.02,342.02,0.01,470,10,109,281,171,127,2.48,101233,24.96
UTC 221212 101531 5 9 ,1357,53.32832336,5.934062958,9.56,0,0,0,342.12,342.12,0.01,470,10,110,281,171,127,2.53,101228,24.96
UTC 221212 101532 5 9 ,1358,53.32832336,5.934056282,9.57,0,0,0,273.15,273.15,0.01,476,11,111,282,171,128,2.58,101226,24.96
UTC 221212 101533 5 9 ,1359,53.32831955,5.934034348,9.56,0,0,0,253.21,253.21,0.01,464,9,111,282,172,128,2.55,101221,24.96
UTC 221212 101534 5 9 ,1360,53.32830811,5.933995247,9.53,0,0,0,252.83,252.83,0.01,459,8,111,282,171,128,2.49,101219,24.96
UTC 221212 101535 5 9 ,1361,53.32830048,5.933944225,9.49,0,0,0,252.77,252.77,0.01,459,8,110,281,171,128,2.43,101217,24.96
UTC 221212 101536 5 9 ,1362,53.32828903,5.93388319,9.45,0,0,0,252.95,252.95,0.01,454,8,110,282,171,128,2.33,101209,24.96
UTC 221212 101537 5 9 ,1363,53.32827759,5.933815479,9.4,0,0,0,252.97,252.97,0.01,459,8,110,282,171,128,2.23,101213,24.96
UTC 221212 101537 5 9 ,1364,53.32826614,5.933738232,9.34,0,0,0,252.63,252.63,0.01,450,7,109,281,170,127,2.14,101211,24.96
UTC 221212 101539 5 9 ,1365,53.3282547,5.933662891,9.29,0,0,0,252.92,252.92,0,445,6,109,281,171,127,2.08,101213,24.96
UTC 221212 101540 5 9 ,1366,53.32823944,5.933588982,9.23,0,0,0,252.91,252.91,0,435,5,108,282,171,128,2,101217,24.96
UTC 221212 101541 5 9 ,1367,53.328228,5.933516026,9.19,0,0,0,252.79,252.79,0,428,4,109,281,171,128,1.93,101225,24.96
UTC 221212 101542 5 9 ,1368,53.32821274,5.933444977,9.15,0,0,0,252.79,252.79,0,459,8,108,283,171,128,1.86,101219,24.96
UTC 221212 101543 5 9 ,1369,53.32820129,5.93337059,9.11,0,0,0,253.08,253.08,0,439,5,108,282,171,127,1.8,101220,24.96
UTC 221212 101544 5 9 ,1370,53.32818985,5.933298588,9.06,0,0,0,253.17,253.17,0,426,3,108,281,170,126,1.76,101217,24.96
UTC 221212 101545 5 9 ,1371,53.32817841,5.933228016,9.01,0,0,0,253.04,253.04,0,428,4,108,281,170,127,1.72,101217,24.96
UTC 221212 101545 5 9 ,1372,53.32816315,5.933154106,8.96,0,0,0,253.1,253.1,0,428,4,107,281,169,127,1.69,101217,24.96
UTC 221212 101547 5 9 ,1373,53.3281517,5.933082104,8.92,0,0,0,252.78,252.78,0,426,3,106,281,170,127,1.64,101224,24.96
UTC 221212 101548 5 9 ,1374,53.32814026,5.933012009,8.86,0,0,0,252.86,252.86,0,426,3,106,282,170,127,1.58,101229,24.96
UTC 221212 101548 5 9 ,1375,53.328125,5.932938576,8.81,0,0,0,252.74,252.74,0,428,4,107,283,169,128,1.53,101223,24.96
UTC 221212 101550 5 9 ,1376,53.32811356,5.932868481,8.75,0,0,0,252.91,252.91,0,439,5,107,282,169,127,1.48,101222,24.96
UTC 221212 101551 5 9 ,1377,53.32810211,5.932795048,8.69,0,0,0,252.85,252.85,0,420,3,107,282,169,127,1.43,101227,24.96
UTC 221212 101552 5 9 ,1378,53.32809067,5.932722569,8.64,0,0,0,252.95,252.95,0,420,3,106,282,169,127,1.4,101224,24.96
UTC 221212 101553 5 9 ,1379,53.32807922,5.932655811,8.61,0,0,0,252.24,252.24,0,426,3,107,282,169,127,1.38,101224,24.96
UTC 221212 101554 5 9 ,1380,53.32807159,5.932622433,8.54,0,0,0,252.93,252.93,0,428,4,106,282,169,127,1.41,101231,24.96
UTC 221212 101555 5 9 ,1381,53.32807541,5.932624817,8.53,0,0,0,329.69,329.69,0,450,7,107,282,169,127,1.47,101246,24.96
UTC 221212 101556 5 9 ,1382,53.32809067,5.932627678,8.55,0,0,0,339.09,339.09,0,439,5,106,281,169,127,1.54,101256,24.96
UTC 221212 101557 5 9 ,1383,53.32810593,5.932627201,8.56,0,0,0,339.02,339.02,0.01,445,6,106,281,168,127,1.57,101247,24.96
UTC 221212 101558 5 9 ,1384,53.32810593,5.932631493,8.58,0,0,0,49.94,49.94,0.01,464,9,107,282,169,127,1.61,101264,24.96
UTC 221212 101559 5 9 ,1385,53.32810974,5.932656288,8.6,0,0,0,73.5,73.5,0.01,450,7,106,282,169,127,1.68,101263,24.96
UTC 221212 101559 5 9 ,1386,53.32811356,5.93269825,8.63,0,0,0,73.29,73.29,0.01,470,10,106,282,169,127,1.72,101265,24.96
UTC 221212 101601 5 9 ,1387,53.328125,5.932750702,8.68,0,0,0,73.42,73.42,0.01,459,8,106,282,168,127,1.71,101260,24.96
UTC 221212 101602 5 9 ,1388,53.32813263,5.932812214,8.73,0,0,0,73.57,73.57,0.01,450,7,106,282,168,127,1.68,101259,24.96
UTC 221212 101602 5 9 ,1389,53.32814407,5.932881355,8.77,0,0,0,73.55,73.55,0.01,454,8,106,283,168,127,1.68,101255,24.96
UTC 221212 101604 5 9 ,1390,53.32815933,5.932954788,8.84,0,0,0,73.93,73.93,0.01,470,10,106,282,168,127,1.7,101250,24.96
UTC 221212 101605 5 9 ,1391,53.32817078,5.933030605,8.89,0,0,0,73.55,73.55,0.01,476,11,106,283,168,127,1.71,101254,24.96
UTC 221212 101606 5 9 ,1392,53.32818222,5.933104038,8.95,0,0,0,73.69,73.69,0.01,476,11,107,282,169,127,1.75,101250,24.96
UTC 221212 101607 5 9 ,1393,53.32819748,5.93317461,9.01,0,0,0,73.67,73.67,0.01,470,10,106,283,168,127,1.77,101255,24.96
UTC 221212 101608 5 9 ,1394,53.32820892,5.93324852,9.08,0,0,0,73.58,73.58,0.01,464,9,107,283,167,127,1.79,101247,24.96
UTC 221212 101609 5 9 ,1395,53.32822037,5.933321476,9.14,0,0,0,73.57,73.57,0.01,464,9,107,283,168,128,1.82,101253,24.96
UTC 221212 101610 5 9 ,1396,53.32823181,5.933393955,9.21,0,0,0,73.45,73.45,0.01,481,12,107,282,168,127,1.86,101250,24.96
UTC 221212 101610 5 9 ,1397,53.32824707,5.933466435,9.25,0,0,0,73.44,73.44,0.01,476,11,107,282,167,127,1.87,101251,24.96
UTC 221212 101612 5 9 ,1398,53.32825851,5.933538437,9.31,0,0,0,73.57,73.57,0.01,464,9,106,282,168,127,1.87,101252,24.96
UTC 221212 101613 5 9 ,1399,53.32826996,5.933610439,9.36,0,0,0,73.51,73.51,0.01,464,9,107,283,167,126,1.88,101252,24.96
UTC 221212 101614 5 9 ,1400,53.32828522,5.933682442,9.43,0,0,0,73.42,73.42,0.01,464,9,106,283,167,127,1.88,101251,24.96
UTC 221212 101615 5 9 ,1401,53.32829666,5.933753014,9.48,0,0,0,73.5,73.5,0.01,470,10,106,282,168,127,1.86,101251,24.96
UTC 221212 101616 5 9 ,1402,53.32830811,5.93382597,9.52,0,0,0,73.86,73.86,0.01,481,12,106,283,167,127,1.84,101248,24.96
UTC 221212 101617 5 9 ,1403,53.32831955,5.933898449,9.59,0,0,0,73.66,73.66,0.01,464,9,106,282,167,127,1.84,101248,24.96
UTC 221212 101618 5 9 ,1404,53.32833481,5.933970928,9.65,0,0,0,73.64,73.64,0.01,470,10,106,282,167,127,1.85,101243,24.96
UTC 221212 101618 5 9 ,1405,53.32834625,5.934039116,9.69,0,0,0,74.78,74.78,0.01,470,10,106,283,167,127,1.86,101242,24.96
UTC 221212 101620 5 9 ,1406,53.32835007,5.93407011,9.67,0,0,0,73.92,73.92,0.01,470,10,106,282,167,127,1.9,101249,24.96
UTC 221212 101621 5 9 ,1407,53.32835388,5.934064865,9.67,0,0,0,352.65,352.65,0.01,491,13,106,282,167,127,1.97,101236,24.96
UTC 221212 101622 5 9 ,1408,53.32836533,5.934046269,9.75,0,0,0,341.94,341.94,0.01,470,10,106,283,167,127,1.98,101235,24.96
UTC 221212 101623 5 9 ,1409,53.32837296,5.934033871,9.78,0,0,0,342.01,342.01,0.01,470,10,106,279,166,127,2.03,101236,24.96
UTC 221212 101623 5 9 ,1410,53.32837677,5.934028626,9.77,0,0,0,269.05,269.05,0.01,464,9,106,282,166,127,2.09,101227,24.96
UTC 221212 101625 5 9 ,1411,53.32836914,5.93400383,9.77,0,0,0,253,253,0.01,470,10,106,282,167,127,2.11,101218,24.96
UTC 221212 101626 5 9 ,1412,53.32836151,5.933964253,9.75,0,0,0,253.14,253.14,0.01,464,9,106,282,166,127,2.05,101220,24.96
UTC 221212 101627 5 9 ,1413,53.32835007,5.933914185,9.7,0,0,0,252.94,252.94,0.01,450,7,106,282,166,127,2,101215,24.96
UTC 221212 101628 5 9 ,1414,53.32834244,5.933857441,9.67,0,0,0,252.97,252.97,0.01,450,7,106,282,166,127,1.93,101219,24.96
UTC 221212 101629 5 9 ,1415,53.32833099,5.93378973,9.6,0,0,0,253.29,253.29,0.01,450,7,105,282,166,127,1.89,101214,24.96
UTC 221212 101630 5 9 ,1416,53.32831955,5.93371582,9.55,0,0,0,253.17,253.17,0.01,445,6,105,283,166,127,1.85,101211,24.96
UTC 221212 101631 5 9 ,1417,53.32830429,5.933642387,9.49,0,0,0,252.84,252.84,0.01,445,6,105,282,166,127,1.8,101212,24.96
UTC 221212 101631 5 9 ,1418,53.32829285,5.933567047,9.42,0,0,0,252.87,252.87,0.01,435,5,105,283,166,127,1.73,101214,24.96
UTC 221212 101633 5 9 ,1419,53.3282814,5.933495045,9.35,0,0,0,253,253,0,428,4,105,282,165,127,1.7,101218,24.96
UTC 221212 101634 5 9 ,1420,53.32826614,5.933421135,9.29,0,0,0,253,253,0,428,4,104,282,165,127,1.68,101215,24.96
UTC 221212 101635 5 9 ,1421,53.3282547,5.933349133,9.22,0,0,0,252.71,252.71,0,439,5,104,282,166,127,1.62,101217,24.96
UTC 221212 101636 5 9 ,1422,53.32824326,5.933278561,9.16,0,0,0,252.75,252.75,0,435,5,104,283,165,127,1.56,101222,24.96
UTC 221212 101636 5 9 ,1423,53.328228,5.933204651,9.09,0,0,0,252.9,252.9,0,428,4,104,283,165,127,1.5,101221,24.96
UTC 221212 101638 5 9 ,1424,53.32821655,5.933134079,9.03,0,0,0,252.91,252.91,0,426,3,105,283,165,127,1.45,101220,24.96
UTC 221212 101639 5 9 ,1425,53.32820511,5.933060646,8.98,0,0,0,252.87,252.87,0,420,3,104,283,165,126,1.4,101227,24.96
UTC 221212 101640 5 9 ,1426,53.32818985,5.932988167,8.91,0,0,0,253.09,253.09,0,420,3,104,283,165,127,1.36,101225,24.96
UTC 221212 101641 5 9 ,1427,53.32817841,5.932917595,8.85,0,0,0,252.93,252.93,0,428,4,103,284,165,127,1.3,101227,24.96
UTC 221212 101641 5 9 ,1428,53.32816696,5.932843208,8.78,0,0,0,252.98,252.98,0,435,5,104,283,165,127,1.27,101229,24.96
UTC 221212 101643 5 9 ,1429,53.3281517,5.93277216,8.73,0,0,0,252.55,252.55,0,420,3,104,283,165,127,1.22,101227,24.96
UTC 221212 101644 5 9 ,1430,53.32814026,5.93269825,8.68,0,0,0,252.78,252.78,0,420,3,105,283,165,127,1.18,101222,24.96
UTC 221212 101645 5 9 ,1431,53.32812881,5.932629108,8.63,0,0,0,251.95,251.95,0,420,3,104,284,165,127,1.15,101220,24.96
UTC 221212 101646 5 9 ,1432,53.32812119,5.932592869,8.55,0,0,0,252.32,252.32,0,428,4,104,283,165,127,1.14,101232,24.96
UTC 221212 101646 5 9 ,1433,53.328125,5.932593823,8.51,0,0,0,325.69,325.69,0.01,450,7,105,282,164,127,1.21,101236,24.96
UTC 221212 101648 5 9 ,1434,53.32814026,5.932596684,8.51,0,0,0,339.53,339.53,0.01,435,5,104,283,165,127,1.29,101253,24.96
UTC 221212 101649 5 9 ,1435,53.32815552,5.932596207,8.51,0,0,0,339.1,339.1,0.01,464,9,105,283,164,128,1.32,101251,24.96
UTC 221212 101650 5 9 ,1436,53.32815552,5.932600021,8.51,0,0,0,41.97,41.97,0.01,450,7,105,283,165,127,1.36,101259,24.96
UTC 221212 101651 5 9 ,1437,53.32815933,5.932622433,8.54,0,0,0,73.7,73.7,0.01,454,8,104,284,164,127,1.43,101258,24.96
UTC 221212 101651 5 9 ,1438,53.32816315,5.93266201,8.59,0,0,0,73.48,73.48,0.01,464,9,105,283,164,127,1.46,101262,24.96
UTC 221212 101653 5 9 ,1439,53.32817459,5.932712078,8.65,0,0,0,73.24,73.24,0.01,464,9,105,284,165,127,1.44,101255,24.96
UTC 221212 101654 5 9 ,1440,53.32818222,5.932771206,8.72,0,0,0,73.38,73.38,0.01,464,9,105,284,164,128,1.45,101256,24.96
UTC 221212 101655 5 9 ,1441,53.32819366,5.932837963,8.78,0,0,0,73.57,73.57,0.01,464,9,105,284,164,127,1.47,101255,24.96
UTC 221212 101656 5 9 ,1442,53.32820511,5.932909489,8.85,0,0,0,73.67,73.67,0.01,464,9,106,284,165,128,1.49,101252,24.96
UTC 221212 101657 5 9 ,1443,53.32822037,5.932985783,8.91,0,0,0,73.7,73.7,0.01,476,11,106,284,164,128,1.5,101256,24.96
UTC 221212 101658 5 9 ,1444,53.32823181,5.933059216,8.98,0,0,0,73.5,73.5,0.01,470,10,105,283,164,127,1.52,101251,24.96
UTC 221212 101659 5 9 ,1445,53.32824326,5.933130741,9.04,0,0,0,73.46,73.46,0.01,470,10,105,283,164,127,1.57,101252,24.96
UTC 221212 101700 5 9 ,1446,53.32825851,5.933205128,9.12,0,0,0,73.53,73.53,0.01,470,10,105,283,164,128,1.59,101253,24.96
UTC 221212 101701 5 9 ,1447,53.32826996,5.933276177,9.21,0,0,0,73.36,73.36,0.01,470,10,105,283,164,127,1.6,101251,24.96
UTC 221212 101702 5 9 ,1448,53.3282814,5.933350086,9.29,0,0,0,73.58,73.58,0.01,476,11,104,283,163,126,1.61,101253,24.96
UTC 221212 101703 5 9 ,1449,53.32829666,5.933422566,9.36,0,0,0,73.61,73.61,0.01,476,11,105,283,164,127,1.64,101249,24.96
UTC 221212 101704 5 9 ,1450,53.32830811,5.933493614,9.43,0,0,0,73.54,73.54,0.01,470,10,105,284,164,127,1.66,101250,24.96
UTC 221212 101705 5 9 ,1451,53.32831955,5.933567524,9.49,0,0,0,73.58,73.58,0.01,476,11,104,284,163,127,1.68,101247,24.96
UTC 221212 101706 5 9 ,1452,53.32833099,5.93363905,9.57,0,0,0,73.66,73.66,0.01,476,11,105,284,164,128,1.68,101246,24.96
UTC 221212 101707 5 9 ,1453,53.32834244,5.933712959,9.64,0,0,0,73.5,73.5,0.01,481,12,105,283,163,127,1.71,101245,24.96
UTC 221212 101708 5 9 ,1454,53.3283577,5.933784962,9.7,0,0,0,73.48,73.48,0.01,485,12,104,283,164,127,1.75,101243,24.96
UTC 221212 101709 5 9 ,1455,53.32836914,5.933855057,9.76,0,0,0,73.64,73.64,0.01,476,11,104,283,164,127,1.75,101246,24.96
UTC 221212 101710 5 9 ,1456,53.32838058,5.933927536,9.83,0,0,0,73.21,73.21,0.01,481,12,104,283,163,127,1.76,101239,24.96
UTC 221212 101711 5 9 ,1457,53.32839584,5.933997154,9.9,0,0,0,74.49,74.49,0.01,476,11,104,283,163,127,1.76,101242,24.96
UTC 221212 101712 5 9 ,1458,53.32839966,5.93404007,9.9,0,0,0,74.01,74.01,0.01,481,12,104,283,163,127,1.78,101247,24.96
UTC 221212 101713 5 9 ,1459,53.32840347,5.9340415,9.88,0,0,0,10.78,10.78,0.01,491,13,104,283,163,127,1.83,101239,24.96
UTC 221212 101714 5 9 ,1460,53.3284111,5.934025765,9.95,0,0,0,342.51,342.51,0.01,470,10,103,281,162,126,1.86,101239,24.96
UTC 221212 101715 5 9 ,1461,53.32842636,5.934009552,10.02,0,0,0,342.07,342.07,0.01,470,10,104,283,163,127,1.87,101236,24.96
UTC 221212 101716 5 9 ,1462,53.32842636,5.934002876,10.02,0,0,0,288.43,288.43,0.01,481,12,104,283,163,127,1.9,101224,24.96
UTC 221212 101717 5 9 ,1463,53.32842255,5.93398428,10,0,0,0,253.07,253.07,0.01,470,10,104,283,162,127,1.93,101219,24.96
UTC 221212 101718 5 9 ,1464,53.32841492,5.933947563,9.98,0,0,0,253.09,253.09,0.01,481,12,104,283,162,127,1.88,101214,24.96
UTC 221212 101719 5 9 ,1465,53.32840347,5.933898926,9.92,0,0,0,252.99,252.99,0.01,476,11,103,283,162,127,1.83,101216,24.96
UTC 221212 101720 5 9 ,1466,53.32839584,5.933841229,9.85,0,0,0,252.89,252.89,0.01,464,9,104,283,163,127,1.76,101211,24.96
UTC 221212 101721 5 9 ,1467,53.3283844,5.933775902,9.79,0,0,0,252.57,252.57,0.01,445,6,104,284,162,127,1.7,101216,24.96
UTC 221212 101722 5 9 ,1468,53.32836914,5.933704853,9.71,0,0,0,252.98,252.98,0.01,454,8,104,283,162,127,1.64,101214,24.96
UTC 221212 101723 5 9 ,1469,53.3283577,5.933627605,9.66,0,0,0,252.74,252.74,0.01,445,6,103,283,162,127,1.56,101218,24.96
UTC 221212 101724 5 9 ,1470,53.32834625,5.933553219,9.58,0,0,0,253.07,253.07,0.01,445,6,103,283,161,128,1.51,101203,24.96
UTC 221212 101725 5 9 ,1471,53.32833099,5.93348074,9.5,0,0,0,252.83,252.83,0.01,439,5,103,284,162,127,1.45,101214,24.96
UTC 221212 101726 5 9 ,1472,53.32831955,5.933408737,9.42,0,0,0,253.22,253.22,0.01,439,5,103,283,162,127,1.41,101207,24.96
UTC 221212 101727 5 9 ,1473,53.32830811,5.933336258,9.34,0,0,0,253.19,253.19,0.01,435,5,102,282,161,127,1.38,101211,24.96
UTC 221212 101728 5 9 ,1474,53.32829666,5.933263302,9.27,0,0,0,253.18,253.18,0.01,450,7,102,282,161,127,1.36,101213,24.96
UTC 221212 101729 5 9 ,1475,53.32828522,5.933190823,9.2,0,0,0,253.03,253.03,0.01,439,5,102,283,161,126,1.34,101218,24.96
UTC 221212 101730 5 9 ,1476,53.32826996,5.933118343,9.11,0,0,0,252.94,252.94,0.01,426,3,102,283,161,127,1.29,101219,24.96
UTC 221212 101731 5 9 ,1477,53.32825851,5.933046341,9.04,0,0,0,253.26,253.26,0.01,420,3,102,283,161,126,1.27,101210,24.96
UTC 221212 101732 5 9 ,1478,53.32824707,5.932973862,8.96,0,0,0,252.96,252.96,0.01,420,3,101,283,161,127,1.24,101221,24.96
UTC 221212 101733 5 9 ,1479,53.32823181,5.93290329,8.87,0,0,0,252.81,252.81,0.01,428,4,101,283,161,127,1.21,101226,24.96
UTC 221212 101733 5 9 ,1480,53.32822037,5.93282938,8.79,0,0,0,252.7,252.7,0.01,445,6,100,284,161,126,1.17,101226,24.96
UTC 221212 101735 5 9 ,1481,53.32820892,5.932757378,8.7,0,0,0,252.7,252.7,0.01,420,3,101,284,161,127,1.14,101233,24.96
UTC 221212 101736 5 9 ,1482,53.32819366,5.932685375,8.63,0,0,0,252.9,252.9,0.01,420,3,101,284,161,127,1.11,101225,24.96
UTC 221212 101737 5 9 ,1483,53.32818222,5.93261385,8.56,0,0,0,252.23,252.23,0.01,420,3,101,284,162,127,1.07,101226,24.96
UTC 221212 101738 5 9 ,1484,53.32817459,5.932567596,8.5,0,0,0,251.66,251.66,0.01,428,4,101,284,161,127,1.05,101234,24.96
UTC 221212 101739 5 9 ,1485,53.32817459,5.932561874,8.44,0,0,0,307.08,307.08,0.01,445,6,102,285,160,127,1.11,101241,24.96
UTC 221212 101740 5 9 ,1486,53.32818604,5.932566643,8.44,0,0,0,339.58,339.58,0.01,439,5,102,284,161,127,1.17,101253,24.96
UTC 221212 101741 5 9 ,1487,53.32820129,5.932566166,8.45,0,0,0,339.17,339.17,0.01,454,8,102,284,161,126,1.21,101256,24.96
UTC 221212 101741 5 9 ,1488,53.32820892,5.932568073,8.46,0,0,0,23.02,23.02,0.01,445,6,102,284,161,126,1.25,101256,24.96
UTC 221212 101743 5 9 ,1489,53.32820892,5.932584763,8.49,0,0,0,72.83,72.83,0.01,459,8,102,285,161,128,1.32,101261,24.96
UTC 221212 101744 5 9 ,1490,53.32821274,5.932622433,8.54,0,0,0,73.44,73.44,0.01,470,10,102,284,160,127,1.36,101263,24.96
UTC 221212 101745 5 9 ,1491,53.32822037,5.932671547,8.6,0,0,0,73.49,73.49,0.01,476,11,102,285,160,127,1.34,101260,24.96
UTC 221212 101746 5 9 ,1492,53.32823181,5.932728291,8.67,0,0,0,73.84,73.84,0.01,454,8,103,284,161,127,1.33,101257,24.96
UTC 221212 101746 5 9 ,1493,53.32824326,5.932796001,8.76,0,0,0,73.7,73.7,0.01,459,8,102,285,160,128,1.35,101255,24.96
UTC 221212 101748 5 9 ,1494,53.3282547,5.932869911,8.84,0,0,0,73.69,73.69,0.01,464,9,103,284,161,128,1.37,101254,24.96
UTC 221212 101749 5 9 ,1495,53.32826996,5.932945252,8.92,0,0,0,73.38,73.38,0.01,481,12,103,284,160,127,1.4,101257,24.96
UTC 221212 101750 5 9 ,1496,53.3282814,5.933018208,9.02,0,0,0,73.58,73.58,0.01,476,11,103,284,161,127,1.42,101252,24.96
UTC 221212 101751 5 9 ,1497,53.32829285,5.933089256,9.11,0,0,0,73.92,73.92,0.01,470,10,103,284,160,128,1.45,101254,24.96
UTC 221212 101752 5 9 ,1498,53.32830429,5.933163643,9.19,0,0,0,73.35,73.35,0.01,470,10,103,284,160,127,1.48,101254,24.96
UTC 221212 101753 5 9 ,1499,53.32831955,5.933235645,9.28,0,0,0,73.32,73.32,0.01,464,9,103,283,160,127,1.5,101251,24.96
UTC 221212 101754 5 9 ,1500,53.32833099,5.933306217,9.36,0,0,0,73.37,73.37,0.01,476,11,103,283,160,127,1.5,101252,24.96
UTC 221212 101754 5 9 ,1501,53.32834244,5.93337965,9.45,0,0,0,73.63,73.63,0.01,481,12,102,283,160,127,1.5,101248,24.96
UTC 221212 101756 5 9 ,1502,53.3283577,5.933450699,9.53,0,0,0,73.53,73.53,0.01,464,9,102,283,160,127,1.53,101252,24.96
UTC 221212 101757 5 9 ,1503,53.32836914,5.933524132,9.62,0,0,0,73.7,73.7,0.01,470,10,102,284,160,127,1.55,101241,24.96
UTC 221212 101758 5 9 ,1504,53.32838058,5.933596611,9.69,0,0,0,73.75,73.75,0.01,464,9,102,283,160,127,1.57,101246,24.96
UTC 221212 101759 5 9 ,1505,53.32839203,5.93366766,9.78,0,0,0,73.7,73.7,0.01,481,12,102,284,160,127,1.58,101242,24.96
UTC 221212 101800 5 9 ,1506,53.32840729,5.93374157,9.87,0,0,0,73.84,73.84,0.01,491,13,102,285,160,127,1.6,101241,24.96
UTC 221212 101801 5 9 ,1507,53.32841873,5.933813572,9.96,0,0,0,73.45,73.45,0.01,476,11,102,284,160,127,1.6,101240,24.96
UTC 221212 101802 5 9 ,1508,53.32843018,5.933886051,10.05,0,0,0,73.39,73.39,0.01,491,13,102,284,160,127,1.65,101244,24.96
UTC 221212 101803 5 9 ,1509,53.32844543,5.933959007,10.14,0,0,0,74.12,74.12,0.01,476,11,102,283,160,127,1.65,101239,24.96
UTC 221212 101804 5 9 ,1510,53.32845306,5.934010506,10.18,0,0,0,74.57,74.57,0.01,470,10,102,284,159,127,1.67,101244,24.96
UTC 221212 101805 5 9 ,1511,53.32845306,5.934019089,10.12,0,0,0,29.76,29.76,0.01,485,12,102,283,159,126,1.7,101239,24.96
UTC 221212 101806 5 9 ,1512,53.32846069,5.93400383,10.18,0,0,0,342.38,342.38,0.01,470,10,102,284,159,127,1.73,101232,24.96
UTC 221212 101807 5 9 ,1513,53.32847214,5.933988094,10.24,0,0,0,342.07,342.07,0.01,485,12,102,283,160,128,1.78,101236,24.96
UTC 221212 101807 5 9 ,1514,53.32847977,5.933980465,10.24,0,0,0,307.5,307.5,0.01,481,12,102,284,159,127,1.79,101231,24.96
UTC 221212 101809 5 9 ,1515,53.32847595,5.933968067,10.21,0,0,0,254.2,254.2,0.01,476,11,102,284,159,128,1.86,101222,24.96
UTC 221212 101810 5 9 ,1516,53.32846832,5.933935642,10.18,0,0,0,253.29,253.29,0.01,464,9,102,283,158,127,1.81,101217,24.96
UTC 221212 101811 5 9 ,1517,53.32846069,5.933891296,10.14,0,0,0,252.97,252.97,0.01,470,10,102,282,159,127,1.77,101212,24.96
UTC 221212 101812 5 9 ,1518,53.32844925,5.933837414,10.1,0,0,0,252.72,252.72,0.01,470,10,101,283,159,127,1.71,101212,24.96
UTC 221212 101812 5 9 ,1519,53.32843781,5.933772564,10.02,0,0,0,252.8,252.8,0.01,459,8,102,283,158,127,1.66,101201,24.96
UTC 221212 101814 5 9 ,1520,53.32842636,5.933702469,9.93,0,0,0,252.98,252.98,0.01,445,6,101,284,159,127,1.62,101210,24.96
UTC 221212 101815 5 9 ,1521,53.32841492,5.933625698,9.82,0,0,0,252.69,252.69,0.01,450,7,101,283,159,127,1.54,101210,24.96
UTC 221212 101816 5 9 ,1522,53.32839966,5.933550835,9.73,0,0,0,252.62,252.62,0.01,439,5,101,284,159,127,1.49,101212,24.96
UTC 221212 101817 5 9 ,1523,53.32838821,5.933479309,9.66,0,0,0,252.94,252.94,0.01,439,5,101,283,158,127,1.42,101212,24.96
UTC 221212 101817 5 9 ,1524,53.32837677,5.933404923,9.57,0,0,0,253.04,253.04,0.01,459,8,100,283,159,127,1.38,101212,24.96
UTC 221212 101819 5 9 ,1525,53.32836533,5.93333292,9.48,0,0,0,253.09,253.09,0.01,428,4,101,283,158,126,1.35,101215,24.96
UTC 221212 101820 5 9 ,1526,53.32835007,5.933260918,9.39,0,0,0,252.78,252.78,0.01,435,5,100,283,159,127,1.31,101216,24.96
UTC 221212 101821 5 9 ,1527,53.32833862,5.933188438,9.28,0,0,0,252.76,252.76,0.01,428,4,100,283,158,127,1.28,101223,24.96
UTC 221212 101822 5 9 ,1528,53.32832718,5.93311739,9.19,0,0,0,252.93,252.93,0.01,435,5,100,283,158,127,1.23,101221,24.96
UTC 221212 101823 5 9 ,1529,53.32831192,5.93304348,9.09,0,0,0,253.12,253.12,0.01,450,7,101,284,159,126,1.2,101220,24.96
UTC 221212 101824 5 9 ,1530,53.32830048,5.932971001,9,0,0,0,252.91,252.91,0.01,435,5,100,284,158,127,1.16,101221,24.96
UTC 221212 101825 5 9 ,1531,53.32828903,5.932898521,8.89,0,0,0,252.92,252.92,0.01,420,3,101,284,158,127,1.14,101223,24.96
UTC 221212 101826 5 9 ,1532,53.32827377,5.932826042,8.81,0,0,0,252.78,252.78,0.01,426,3,99,284,158,126,1.1,101225,24.96
UTC 221212 101827 5 9 ,1533,53.32826233,5.93275547,8.71,0,0,0,252.81,252.81,0.01,426,3,100,284,158,127,1.07,101226,24.96
UTC 221212 101827 5 9 ,1534,53.32825089,5.932682037,8.62,0,0,0,252.93,252.93,0.01,435,5,99,283,158,127,1.05,101228,24.96
UTC 221212 101829 5 9 ,1535,53.32823563,5.932609558,8.54,0,0,0,252.69,252.69,0.01,428,4,99,283,158,127,1.02,101232,24.96
UTC 221212 101830 5 9 ,1536,53.328228,5.932548523,8.49,0,0,0,251.67,251.67,0.01,426,3,99,284,158,127,1,101224,24.96
UTC 221212 101831 5 9 ,1537,53.32822418,5.932528973,8.41,0,0,0,273.74,273.74,0.01,439,5,100,284,157,128,1.03,101240,24.96
UTC 221212 101832 5 9 ,1538,53.32823181,5.932534218,8.39,0,0,0,337.41,337.41,0.01,435,5,100,283,157,127,1.11,101250,24.96
UTC 221212 101833 5 9 ,1539,53.32824707,5.932535648,8.4,0,0,0,339.36,339.36,0.01,454,8,99,283,157,127,1.16,101255,24.96
UTC 221212 101834 5 9 ,1540,53.32825851,5.932536125,8.41,0,0,0,348.62,348.62,0.01,464,9,100,284,156,127,1.19,101250,24.96
UTC 221212 101835 5 9 ,1541,53.32825851,5.932544708,8.41,0,0,0,65.85,65.85,0.01,454,8,100,284,156,127,1.25,101260,24.96
UTC 221212 101836 5 9 ,1542,53.32826233,5.932575703,8.47,0,0,0,73.36,73.36,0.01,450,7,99,284,157,127,1.3,101263,24.96
UTC 221212 101837 5 9 ,1543,53.32826996,5.932618141,8.52,0,0,0,73.34,73.34,0.01,454,8,100,284,157,127,1.33,101260,24.96
UTC 221212 101838 5 9 ,1544,53.32827759,5.932673454,8.59,0,0,0,73.47,73.47,0.01,459,8,99,285,157,127,1.3,101258,24.96
UTC 221212 101839 5 9 ,1545,53.32828903,5.932736397,8.67,0,0,0,74.02,74.02,0.01,464,9,100,285,157,127,1.29,101258,24.96
UTC 221212 101840 5 9 ,1546,53.32830048,5.932806015,8.78,0,0,0,73.4,73.4,0.01,464,9,100,285,157,127,1.31,101257,24.96
UTC 221212 101840 5 9 ,1547,53.32831573,5.932883263,8.89,0,0,0,73.79,73.79,0.01,464,9,100,284,157,127,1.31,101249,24.96
UTC 221212 101842 5 9 ,1548,53.32832718,5.932956219,8.99,0,0,0,73.84,73.84,0.01,464,9,100,285,157,127,1.33,101251,24.96
UTC 221212 101843 5 9 ,1549,53.32833862,5.933030605,9.09,0,0,0,73.46,73.46,0.01,476,11,100,284,156,127,1.36,101251,24.96
UTC 221212 101844 5 9 ,1550,53.32835007,5.933103085,9.2,0,0,0,73.42,73.42,0.01,485,12,100,285,157,127,1.39,101250,24.96
UTC 221212 101845 5 9 ,1551,53.32836533,5.933173657,9.3,0,0,0,73.58,73.58,0.01,464,9,100,284,157,127,1.43,101250,24.96
UTC 221212 101846 5 9 ,1552,53.32837677,5.933247566,9.41,0,0,0,73.52,73.52,0.01,464,9,100,285,157,127,1.45,101246,24.96
UTC 221212 101847 5 9 ,1553,53.32838821,5.933320046,9.51,0,0,0,73.65,73.65,0.01,470,10,99,285,157,127,1.48,101246,24.96
UTC 221212 101848 5 9 ,1554,53.32840347,5.933392525,9.62,0,0,0,73.39,73.39,0.01,476,11,100,284,156,127,1.51,101247,24.96
UTC 221212 101849 5 9 ,1555,53.32841492,5.933465004,9.72,0,0,0,73.66,73.66,0.01,491,13,100,284,157,128,1.55,101245,24.96
UTC 221212 101850 5 9 ,1556,53.32842636,5.933535576,9.81,0,0,0,73.46,73.46,0.01,470,10,100,284,157,127,1.56,101244,24.96
UTC 221212 101851 5 9 ,1557,53.32843781,5.933609486,9.92,0,0,0,73.54,73.54,0.01,476,11,100,283,157,127,1.59,101242,24.96
UTC 221212 101852 5 9 ,1558,53.32845306,5.933681965,10.04,0,0,0,73.6,73.6,0.01,485,12,99,284,156,127,1.61,101238,24.96
UTC 221212 101853 5 9 ,1559,53.32846451,5.933752537,10.14,0,0,0,73.62,73.62,0.01,481,12,101,284,157,127,1.64,101242,24.96
UTC 221212 101854 5 9 ,1560,53.32847595,5.933826447,10.22,0,0,0,73.53,73.53,0.01,491,13,101,285,156,127,1.67,101243,24.96
UTC 221212 101855 5 9 ,1561,53.32849121,5.933898926,10.3,0,0,0,73.51,73.51,0.01,481,12,100,284,156,128,1.68,101237,24.96
UTC 221212 101856 5 9 ,1562,53.32850266,5.933964729,10.39,0,0,0,74.61,74.61,0.01,476,11,100,283,156,128,1.7,101240,24.96
UTC 221212 101857 5 9 ,1563,53.32850647,5.933992863,10.35,0,0,0,70.16,70.16,0.01,485,12,100,284,156,127,1.7,101238,24.96
UTC 221212 101858 5 9 ,1564,53.32850647,5.93398571,10.34,0,0,0,351.91,351.91,0.01,481,12,99,283,156,127,1.75,101227,24.96
UTC 221212 101859 5 9 ,1565,53.32851791,5.933967114,10.4,0,0,0,341.99,341.99,0.01,481,12,100,282,156,127,1.77,101230,24.96
UTC 221212 101900 5 9 ,1566,53.32852936,5.933954716,10.44,0,0,0,341.83,341.83,0.01,476,11,100,284,155,127,1.81,101224,24.96
UTC 221212 101901 5 9 ,1567,53.32852936,5.933949471,10.43,0,0,0,266.48,266.48,0.01,470,10,101,284,155,128,1.86,101220,24.96
UTC 221212 101901 5 9 ,1568,53.32852173,5.933924675,10.41,0,0,0,252.93,252.93,0.01,464,9,101,284,156,128,1.82,101213,24.96
UTC 221212 101903 5 9 ,1569,53.3285141,5.933887005,10.38,0,0,0,252.88,252.88,0.01,464,9,101,284,156,128,1.77,101210,24.96
UTC 221212 101904 5 9 ,1570,53.32850647,5.933835506,10.33,0,0,0,252.85,252.85,0.01,464,9,101,284,156,127,1.71,101209,24.96
UTC 221212 101905 5 9 ,1571,53.32849503,5.933774948,10.23,0,0,0,252.92,252.92,0.01,464,9,100,285,155,127,1.65,101209,24.96
UTC 221212 101906 5 9 ,1572,53.32848358,5.933708191,10.14,0,0,0,252.76,252.76,0.01,445,6,100,283,156,127,1.58,101208,24.96
UTC 221212 101907 5 9 ,1573,53.32847214,5.933631897,10.02,0,0,0,252.89,252.89,0.01,454,8,101,284,156,127,1.51,101208,24.96
UTC 221212 101908 5 9 ,1574,53.32845688,5.933556557,9.92,0,0,0,252.98,252.98,0.01,445,6,100,284,156,127,1.46,101213,24.96
UTC 221212 101909 5 9 ,1575,53.32844543,5.933483601,9.79,0,0,0,253.03,253.03,0.01,445,6,100,284,155,127,1.41,101215,24.96
UTC 221212 101909 5 9 ,1576,53.32843399,5.933410645,9.69,0,0,0,252.61,252.61,0.01,470,10,100,285,155,127,1.36,101215,24.96
UTC 221212 101911 5 9 ,1577,53.32841873,5.933337688,9.6,0,0,0,252.8,252.8,0.01,428,4,100,285,155,127,1.31,101219,24.96
UTC 221212 101912 5 9 ,1578,53.32840729,5.933265209,9.51,0,0,0,252.76,252.76,0.01,445,6,100,284,155,127,1.26,101217,24.96
UTC 221212 101913 5 9 ,1579,53.32839584,5.933193207,9.41,0,0,0,253.12,253.12,0.01,439,5,100,285,156,127,1.22,101215,24.96
UTC 221212 101914 5 9 ,1580,53.3283844,5.933121204,9.31,0,0,0,252.89,252.89,0.01,450,7,100,285,155,127,1.19,101217,24.96
UTC 221212 101915 5 9 ,1581,53.32836914,5.933049679,9.2,0,0,0,253.04,253.04,0.01,445,6,100,284,155,127,1.16,101220,24.96
UTC 221212 101916 5 9 ,1582,53.3283577,5.9329772,9.1,0,0,0,252.76,252.76,0.01,439,5,100,284,155,127,1.13,101222,24.96
UTC 221212 101917 5 9 ,1583,53.32834625,5.932905197,8.98,0,0,0,252.83,252.83,0.01,439,5,100,284,155,126,1.09,101220,24.96
UTC 221212 101918 5 9 ,1584,53.32833099,5.932833195,8.87,0,0,0,252.99,252.99,0.01,428,4,100,284,155,127,1.06,101224,24.96
UTC 221212 101919 5 9 ,1585,53.32831955,5.932761192,8.77,0,0,0,253.23,253.23,0.01,428,4,99,284,155,127,1.04,101217,24.96
UTC 221212 101920 5 9 ,1586,53.32830811,5.932688713,8.66,0,0,0,253.18,253.18,0.01,450,7,99,284,155,127,1.02,101216,24.96
UTC 221212 101921 5 9 ,1587,53.32829666,5.932616711,8.55,0,0,0,253.08,253.08,0.01,428,4,99,283,155,127,1.01,101220,24.96
UTC 221212 101922 5 9 ,1588,53.32828522,5.932546139,8.45,0,0,0,252.37,252.37,0.01,426,3,98,284,154,127,0.99,101223,24.96
UTC 221212 101923 5 9 ,1589,53.32827759,5.9325037,8.37,0,0,0,252.26,252.26,0.01,445,6,98,284,155,127,1.01,101236,24.96
UTC 221212 101924 5 9 ,1590,53.32827759,5.932500839,8.34,0,0,0,316.11,316.11,0.01,439,5,98,284,154,127,1.06,101239,24.96
UTC 221212 101924 5 9 ,1591,53.32828903,5.932504177,8.34,0,0,0,339.17,339.17,0.01,470,10,98,285,155,127,1.13,101254,24.96
UTC 221212 101926 5 9 ,1592,53.32830429,5.9325037,8.34,0,0,0,339.11,339.11,0.01,454,8,98,285,154,127,1.15,101257,24.96
UTC 221212 101927 5 9 ,1593,53.32830811,5.932506084,8.36,0,0,0,30.41,30.41,0.01,450,7,99,284,154,127,1.19,101262,24.96
UTC 221212 101927 5 9 ,1594,53.32831192,5.932526112,8.4,0,0,0,73.37,73.37,0.01,454,8,99,285,154,127,1.26,101264,24.96
UTC 221212 101929 5 9 ,1595,53.32831573,5.932562351,8.45,0,0,0,73.18,73.18,0.01,464,9,99,285,154,127,1.29,101261,24.96
UTC 221212 101930 5 9 ,1596,53.32832336,5.932611942,8.52,0,0,0,73.64,73.64,0.01,476,11,99,285,154,127,1.27,101263,24.96
UTC 221212 101931 5 9 ,1597,53.32833481,5.932670116,8.61,0,0,0,73.48,73.48,0.01,470,10,99,286,155,127,1.26,101259,24.96
UTC 221212 101932 5 9 ,1598,53.32834244,5.932734013,8.71,0,0,0,73.58,73.58,0.01,459,8,99,285,155,127,1.27,101261,24.96
UTC 221212 101933 5 9 ,1599,53.3283577,5.932807922,8.82,0,0,0,73.75,73.75,0.01,470,10,100,286,154,127,1.29,101253,24.96
UTC 221212 101934 5 9 ,1600,53.32836914,5.932882309,8.95,0,0,0,73.85,73.85,0.01,470,10,100,286,155,127,1.3,101252,24.96
UTC 221212 101935 5 9 ,1601,53.32838058,5.932956219,9.05,0,0,0,73.59,73.59,0.01,476,11,100,285,154,127,1.32,101256,24.96
UTC 221212 101936 5 9 ,1602,53.32839584,5.933029175,9.17,0,0,0,73.51,73.51,0.01,481,12,99,284,154,127,1.35,101255,24.96
UTC 221212 101937 5 9 ,1603,53.32840729,5.933099747,9.29,0,0,0,73.36,73.36,0.01,470,10,99,285,154,126,1.38,101255,24.96
UTC 221212 101938 5 9 ,1604,53.32841873,5.933173657,9.41,0,0,0,73.46,73.46,0.01,476,11,100,285,154,127,1.4,101253,24.96
UTC 221212 101939 5 9 ,1605,53.32843399,5.933246136,9.52,0,0,0,73.76,73.76,0.01,481,12,99,284,154,127,1.44,101245,24.96
UTC 221212 101940 5 9 ,1606,53.32844543,5.933318615,9.65,0,0,0,73.63,73.63,0.01,481,12,100,285,154,127,1.45,101247,24.96
UTC 221212 101940 5 9 ,1607,53.32845688,5.933391094,9.75,0,0,0,73.45,73.45,0.01,485,12,99,284,153,127,1.46,101248,24.96
UTC 221212 101942 5 9 ,1608,53.32846832,5.933462143,9.85,0,0,0,73.55,73.55,0.01,481,12,99,285,153,127,1.48,101244,24.96
UTC 221212 101943 5 9 ,1609,53.32848358,5.933535576,9.97,0,0,0,73.32,73.32,0.01,481,12,98,285,154,127,1.5,101245,24.96
UTC 221212 101944 5 9 ,1610,53.32849503,5.933607578,10.07,0,0,0,73.73,73.73,0.01,476,11,98,285,154,127,1.49,101236,24.96
UTC 221212 101945 5 9 ,1611,53.32850647,5.933678627,10.18,0,0,0,73.59,73.59,0.01,485,12,100,284,154,126,1.51,101240,24.96
UTC 221212 101945 5 9 ,1612,53.32852173,5.933753014,10.3,0,0,0,73.5,73.5,0.01,491,13,99,284,154,127,1.5,101232,24.96
UTC 221212 101947 5 9 ,1613,53.32853317,5.93382597,10.42,0,0,0,74.27,74.27,0.01,470,10,99,284,153,127,1.51,101232,24.96
UTC 221212 101948 5 9 ,1614,53.32854462,5.933898926,10.52,0,0,0,73.3,73.3,0.01,481,12,98,284,153,127,1.52,101232,24.96
UTC 221212 101949 5 9 ,1615,53.32855606,5.933955193,10.58,0,0,0,74.71,74.71,0.01,485,12,98,284,153,127,1.54,101233,24.96
UTC 221212 101950 5 9 ,1616,53.32855606,5.933967114,10.54,0,0,0,40.36,40.36,0.01,485,12,99,284,153,127,1.55,101232,24.96
UTC 221212 101951 5 9 ,1617,53.32855988,5.933952332,10.6,0,0,0,343.17,343.17,0.01,496,14,98,284,153,127,1.59,101228,24.96
UTC 221212 101952 5 9 ,1618,53.32857513,5.933934212,10.64,0,0,0,342.11,342.11,0.01,481,12,98,284,153,127,1.62,101230,24.96
UTC 221212 101953 5 9 ,1619,53.32858276,5.933925629,10.63,0,0,0,318.4,318.4,0.01,485,12,99,284,153,127,1.63,101226,24.96
UTC 221212 101954 5 9 ,1620,53.32857895,5.933915138,10.61,0,0,0,255.28,255.28,0.01,485,12,99,284,152,127,1.68,101219,24.96
UTC 221212 101955 5 9 ,1621,53.32857132,5.933882713,10.57,0,0,0,252.88,252.88,0.01,464,9,99,284,153,127,1.63,101215,24.96
UTC 221212 101956 5 9 ,1622,53.32856369,5.933838368,10.51,0,0,0,252.64,252.64,0.01,476,11,98,285,153,127,1.6,101212,24.96
UTC 221212 101957 5 9 ,1623,53.32855225,5.933784008,10.45,0,0,0,252.3,252.3,0.01,464,9,99,285,153,127,1.55,101205,24.96
UTC 221212 101958 5 9 ,1624,53.3285408,5.933721066,10.33,0,0,0,253.13,253.13,0.01,459,8,98,284,153,127,1.51,101209,24.96
UTC 221212 101959 5 9 ,1625,53.32852936,5.933650494,10.22,0,0,0,253.09,253.09,0.01,454,8,98,284,153,127,1.48,101205,24.96
UTC 221212 102000 5 9 ,1626,53.32851791,5.933576584,10.1,0,0,0,252.99,252.99,0.01,464,9,98,284,153,127,1.42,101205,24.96
UTC 221212 102001 5 9 ,1627,53.32850647,5.933500767,9.98,0,0,0,253.01,253.01,0.01,454,8,98,284,152,127,1.36,101207,24.96
UTC 221212 102002 5 9 ,1628,53.32849121,5.933427334,9.87,0,0,0,253.07,253.07,0.01,445,6,98,284,152,127,1.33,101211,24.96
UTC 221212 102003 5 9 ,1629,53.32847977,5.933355808,9.74,0,0,0,253.1,253.1,0.01,450,7,97,283,152,127,1.3,101210,24.96
UTC 221212 102004 5 9 ,1630,53.32846832,5.933281422,9.63,0,0,0,252.87,252.87,0.01,439,5,97,284,152,127,1.28,101207,24.96
UTC 221212 102005 5 9 ,1631,53.32845306,5.933208466,9.53,0,0,0,252.93,252.93,0.01,435,5,97,284,152,127,1.24,101211,24.96
UTC 221212 102006 5 9 ,1632,53.32844162,5.933137417,9.42,0,0,0,252.86,252.86,0.01,450,7,97,284,153,126,1.21,101211,24.96
UTC 221212 102007 5 9 ,1633,53.32843018,5.933063507,9.3,0,0,0,253.1,253.1,0.01,439,5,97,285,153,127,1.17,101216,24.96
UTC 221212 102008 5 9 ,1634,53.32841492,5.932992935,9.18,0,0,0,252.87,252.87,0.01,428,4,97,285,153,126,1.15,101217,24.96
UTC 221212 102009 5 9 ,1635,53.32840347,5.932919502,9.07,0,0,0,252.78,252.78,0.01,439,5,97,285,153,127,1.11,101219,24.96
UTC 221212 102010 5 9 ,1636,53.32839203,5.932847977,8.95,0,0,0,252.84,252.84,0.01,428,4,97,285,152,127,1.07,101220,24.96
UTC 221212 102011 5 9 ,1637,53.32838058,5.932777405,8.83,0,0,0,252.97,252.97,0.01,445,6,97,284,152,127,1.04,101215,24.96
UTC 221212 102012 5 9 ,1638,53.32836533,5.932703495,8.7,0,0,0,253.03,253.03,0.01,439,5,97,285,151,127,1.02,101224,24.96
UTC 221212 102013 5 9 ,1639,53.32835388,5.93263197,8.59,0,0,0,253.02,253.02,0.01,435,5,96,285,151,127,1,101220,24.96
UTC 221212 102013 5 9 ,1640,53.32834244,5.932559013,8.46,0,0,0,252.9,252.9,0.01,420,3,96,284,151,127,0.98,101216,24.96
UTC 221212 102015 5 9 ,1641,53.32833099,5.93249464,8.38,0,0,0,252.13,252.13,0.01,426,3,96,285,152,127,0.97,101223,24.96
UTC 221212 102016 5 9 ,1642,53.32832718,5.932466984,8.29,0,0,0,260.57,260.57,0.01,435,5,96,285,152,127,0.99,101235,24.96
UTC 221212 102017 5 9 ,1643,53.32833099,5.932470799,8.28,0,0,0,334.52,334.52,0.01,445,6,97,284,151,128,1.07,101249,24.96
UTC 221212 102018 5 9 ,1644,53.32834625,5.932473183,8.28,0,0,0,339.17,339.17,0.01,439,5,96,285,152,127,1.12,101252,24.96
UTC 221212 102019 5 9 ,1645,53.3283577,5.93247366,8.29,0,0,0,339.78,339.78,0.01,464,9,97,285,152,127,1.15,101248,24.96
UTC 221212 102020 5 9 ,1646,53.32836151,5.932479382,8.31,0,0,0,58.54,58.54,0.01,454,8,97,285,152,127,1.18,101262,24.96
UTC 221212 102020 5 9 ,1647,53.32836533,5.932507992,8.37,0,0,0,73.58,73.58,0.01,454,8,97,285,152,127,1.24,101260,24.96
UTC 221212 102022 5 9 ,1648,53.32836914,5.932548523,8.45,0,0,0,73.09,73.09,0.01,454,8,97,285,151,127,1.28,101262,24.96
UTC 221212 102023 5 9 ,1649,53.32837677,5.932600975,8.55,0,0,0,73.21,73.21,0.01,459,8,97,286,151,127,1.26,101255,24.96
UTC 221212 102024 5 9 ,1650,53.32838821,5.932661057,8.65,0,0,0,73.31,73.31,0.01,481,12,97,286,151,127,1.25,101255,24.96
UTC 221212 102025 5 9 ,1651,53.32839966,5.932729721,8.76,0,0,0,73.52,73.52,0.01,476,11,98,286,152,127,1.25,101250,24.96
UTC 221212 102026 5 9 ,1652,53.3284111,5.932803631,8.89,0,0,0,73.79,73.79,0.01,470,10,98,286,152,127,1.27,101253,24.96
UTC 221212 102027 5 9 ,1653,53.32842636,5.932876587,9,0,0,0,73.69,73.69,0.01,464,9,98,285,151,127,1.3,101252,24.96
UTC 221212 102028 5 9 ,1654,53.32843781,5.932951927,9.12,0,0,0,73.52,73.52,0.01,464,9,97,285,152,127,1.36,101252,24.96
UTC 221212 102029 5 9 ,1655,53.32844925,5.933024883,9.25,0,0,0,73.8,73.8,0.01,481,12,97,285,151,127,1.37,101249,24.96
UTC 221212 102030 5 9 ,1656,53.32846069,5.933097363,9.38,0,0,0,73.63,73.63,0.01,485,12,97,286,152,127,1.38,101248,24.96
UTC 221212 102031 5 9 ,1657,53.32847595,5.933169842,9.51,0,0,0,73.7,73.7,0.01,470,10,97,286,151,127,1.38,101243,24.96
UTC 221212 102032 5 9 ,1658,53.3284874,5.933242798,9.63,0,0,0,73.46,73.46,0.01,476,11,98,286,151,127,1.41,101244,24.96
UTC 221212 102033 5 9 ,1659,53.32849884,5.933315277,9.75,0,0,0,73.68,73.68,0.01,476,11,97,285,151,127,1.42,101245,24.96
UTC 221212 102034 5 9 ,1660,53.3285141,5.93338728,9.86,0,0,0,73.68,73.68,0.01,481,12,97,285,151,127,1.45,101242,24.96
UTC 221212 102034 5 9 ,1661,53.32852554,5.933460712,9.98,0,0,0,73.56,73.56,0.01,485,12,98,284,151,127,1.46,101241,24.96
UTC 221212 102036 5 9 ,1662,53.32853699,5.933531284,10.11,0,0,0,73.5,73.5,0.01,476,11,97,285,151,127,1.48,101240,24.96
UTC 221212 102037 5 9 ,1663,53.32855225,5.933604717,10.23,0,0,0,73.57,73.57,0.01,481,12,98,285,151,127,1.51,101240,24.96
UTC 221212 102038 5 9 ,1664,53.32856369,5.933677197,10.36,0,0,0,73.79,73.79,0.01,485,12,97,285,150,127,1.52,101235,24.96
UTC 221212 102039 5 9 ,1665,53.32857513,5.933750153,10.47,0,0,0,73.7,73.7,0.01,491,13,98,285,151,127,1.53,101236,24.96
UTC 221212 102040 5 9 ,1666,53.32858658,5.933822632,10.62,0,0,0,73.54,73.54,0.01,496,14,98,285,150,127,1.54,101229,24.96
UTC 221212 102041 5 9 ,1667,53.32860184,5.93389225,10.74,0,0,0,75.49,75.49,0.01,485,12,97,285,151,127,1.57,101217,24.96
UTC 221212 102042 5 9 ,1668,53.32860565,5.933936119,10.75,0,0,0,74.27,74.27,0.01,491,13,97,285,151,127,1.58,101231,24.96
UTC 221212 102043 5 9 ,1669,53.32860947,5.933939934,10.74,0,0,0,12.82,12.82,0.01,485,12,98,284,151,127,1.61,101229,24.96
UTC 221212 102044 5 9 ,1670,53.3286171,5.933922291,10.77,0,0,0,342.36,342.36,0.01,485,12,98,285,150,127,1.65,101226,24.96
UTC 221212 102045 5 9 ,1671,53.32862854,5.933904648,10.76,0,0,0,342.22,342.22,0.01,496,14,98,284,151,128,1.69,101230,24.96
UTC 221212 102046 5 9 ,1672,53.32863235,5.933897018,10.76,0,0,0,292.03,292.03,0.01,481,12,98,285,150,127,1.74,101220,24.96
UTC 221212 102046 5 9 ,1673,53.32862854,5.933878422,10.73,0,0,0,253.14,253.14,0.01,481,12,99,285,151,127,1.77,101212,24.96
UTC 221212 102048 5 9 ,1674,53.32862091,5.933840275,10.67,0,0,0,252.88,252.88,0.01,485,12,98,285,150,128,1.73,101215,24.96
UTC 221212 102049 5 9 ,1675,53.32860947,5.93378973,10.57,0,0,0,253.12,253.12,0.01,464,9,99,285,150,127,1.71,101214,24.96
UTC 221212 102050 5 9 ,1676,53.32860184,5.933728218,10.48,0,0,0,253.05,253.05,0.01,481,12,98,284,151,127,1.67,101209,24.96
UTC 221212 102051 5 9 ,1677,53.32859039,5.933660507,10.37,0,0,0,252.5,252.5,0.01,476,11,98,284,150,127,1.62,101213,24.96
UTC 221212 102051 5 9 ,1678,53.32857513,5.933583736,10.26,0,0,0,252.44,252.44,0.01,464,9,98,284,150,127,1.56,101203,24.96
